latitude,longitude,altitude(m),ultrasonicHeight(m),speed(mps),distance(m),max_altitude(m),max_ascent(m),max_speed(mps),max_distance(m),time(millisecond),datetime(utc),datetime(local),satellites,pressure(Pa),temperature(F),voltage(v),home_latitude,home_longitude,velocityX(mps),velocityY(mps),velocityZ(mps),pitch(deg),roll(deg),yaw(deg),powerlevel,isflying,istakingphoto,remainPowerPercent,remainLifePercent,currentCurrent,currentElectricity,currentVoltage,batteryTemperature,dischargeCount,flightmode,isMotorsOn,isTakingVideo,Rc_elevator,Rc_aileron,Rc_throttle,Rc_rudder,Rc_gyro,timestamp,Battery_Cell1,Battery_Cell2,Battery_Cell3,Battery_Cell4,Battery_Cell5,Battery_Cell6,Dronetype,AppVersion,Planename,FlyControllerSerialNumber,RemoteSerialNumber,BatterySerialNumber,CENTER_BATTERY.productDate,CENTER_BATTERY.serialNo,CENTER_BATTERY.fullCapacity,CENTER_BATTERY.productDateRaw,pitchRaw,rollRaw,yawRaw,gimbalPitchRaw,gimbalRollRaw,gimbalYawRaw,flyState,altitudeRaw,speedRaw,distanceRaw,velocityXRaw,velocityYRaw,velocityZRaw,data_reuse,App_Tip,App_Warning,downlinkSignalQuality,uplinkSignalQuality,transmissionChannel,rcModeSwitch,rcHome,rcPause,rcTransform,rcJoystickMode,appMode,FlyControllerSerialNumber_legacy,RemoteSerialNumber_legacy,BatterySerialNumber_legacy,Battery2SerialNumber,frontAvoidDist,backAvoidDist,rightAvoidDist,leftAvoidDist,upAvoidDist,downAvoidDist,isBrakingToAvoid
-22.959729,-67.786904,0.80,0.00,0.73,0.30,0.80,0.80,0.73,0.30,4,2025-11-28 17:19:06.447,2025-11-28 14:19:06.448,14,0,0,51.871,-22.959727,-67.786907,0.00,0.20,-0.70,2.10,0.30,131.10,0,1,0,100,91,-877,14858,51871,2931.50,39,TakeOff,1,0,0,0,0,0,0,1764350346447,4314,4319,4317,4323,4323,4317,18,Litchi_iOS_2.15.7,EIK Matrice 1,0670131556,03LLCA05XT,,,0,14858,0,-21.00,3.00,1311.00,0.00,0.00,58.00,11,8.00,7.28,2.95,0.00,2.00,-7.00,0,,,100,100,13,2,0,0,1,1,0,(null),(null),,,0.0,0.0,0.0,0.0,0.0,0.0,0
-22.959729,-67.786904,0.80,0.00,0.61,0.32,0.80,0.80,0.73,0.32,85,2025-11-28 17:19:06.528,2025-11-28 14:19:06.528,14,0,0,51.671,-22.959727,-67.786907,0.00,0.10,-0.60,2.20,0.30,131.10,0,1,0,100,91,-19532,14858,51671,2931.50,39,TakeOff,1,0,0,0,0,0,0,1764350346528,4314,4319,4317,4323,4323,4317,18,,,,,,,0,0,0,-22.00,3.00,1311.00,0.00,0.00,58.00,11,8.00,6.08,3.18,0.00,1.00,-6.00,0,,,100,100,13,2,0,0,1,1,0,,,,,0.0,0.0,0.0,0.0,0.0,0.0,0
-22.959729,-67.786904,0.90,0.00,0.51,0.33,0.90,0.90,0.73,0.33,186,2025-11-28 17:19:06.630,2025-11-28 14:19:06.630,14,0,0,51.671,-22.959727,-67.786907,0.00,0.10,-0.50,2.10,0.30,131.10,0,1,0,100,91,-19532,14858,51671,2931.50,39,TakeOff,1,0,0,0,0,0,0,1764350346629,4314,4319,4317,4323,4323,4317,18,,,,,,,0,0,0,-21.00,3.00,1311.00,0.00,0.00,58.00,11,9.00,5.10,3.33,0.00,1.00,-5.00,0,,,100,100,13,2,0,0,1,1,0,,,,,0.0,0.0,0.0,0.0,0.0,0.0,0
-22.959729,-67.786904,0.90,0.00,0.51,0.35,0.90,0.90,0.73,0.35,299,2025-11-28 17:19:06.743,2025-11-28 14:19:06.743,14,0,0,51.671,-22.959727,-67.786907,0.00,0.10,-0.50,1.90,0.40,131.10,0,1,0,100,91,-19532,14858,51671,2931.50,39,TakeOff,1,0,0,0,0,0,0,1764350346742,4314,4319,4317,4323,4323,4317,18,,,,,,,0,0,0,-19.00,4.00,1311.00,0.00,0.00,58.00,11,9.00,5.10,3.50,0.00,1.00,-5.00,0,,,100,100,13,2,0,0,1,1,0,,,,,0.0,0.0,0.0,0.0,0.0,0.0,0
-22.959729,-67.786904,1.00,0.00,0.40,0.36,1.00,1.00,0.73,0.36,390,2025-11-28 17:19:06.834,2025-11-28 14:19:06.834,14,0,0,51.671,-22.959727,-67.786907,0.00,0.00,-0.40,1.80,0.60,131.00,0,1,0,100,91,-19532,14858,51671,2931.50,39,TakeOff,1,0,0,0,0,0,0,1764350346833,4314,4319,4317,4323,4323,4317,18,,,,,,,0,0,0,-18.00,6.00,1310.00,0.00,0.00,58.00,11,10.00,4.00,3.63,0.00,0.00,-4.00,0,,,100,100,13,2,0,0,1,1,0,,,,,0.0,0.0,0.0,0.0,0.0,0.0,0
-22.959729,-67.786903,1.00,0.00,0.30,0.39,1.00,1.00,0.73,0.39,590,2025-11-28 17:19:07.034,2025-11-28 14:19:07.034,14,0,0,51.671,-22.959727,-67.786907,0.00,0.00,-0.30,1.80,0.60,131.00,0,1,0,100,91,-19532,14858,51671,2931.50,39,WP,1,0,0,0,0,0,0,1764350347033,4314,4319,4317,4323,4323,4317,18,,,,,,,0,0,0,-18.00,6.00,1310.00,0.00,0.00,58.00,14,10.00,3.00,3.92,0.00,0.00,-3.00,0,,,100,100,13,2,0,0,1,1,0,,,,,0.0,0.0,0.0,0.0,0.0,0.0,0
-22.959729,-67.786903,1.10,0.00,0.20,0.41,1.10,1.10,0.73,0.41,693,2025-11-28 17:19:07.136,2025-11-28 14:19:07.136,14,0,0,51.671,-22.959727,-67.786907,0.00,0.00,-0.20,1.70,0.20,131.00,0,1,0,100,91,-19532,14858,51671,2931.50,39,WP,1,0,0,0,0,0,0,1764350347136,4314,4319,4317,4323,4323,4317,18,,,,,,,0,0,0,-17.00,2.00,1310.00,0.00,0.00,58.00,14,11.00,2.00,4.08,0.00,0.00,-2.00,0,,,100,100,13,2,0,0,1,1,0,,,,,0.0,0.0,0.0,0.0,0.0,0.0,0
-22.959729,-67.786903,1.10,0.00,0.10,0.43,1.10,1.10,0.73,0.43,793,2025-11-28 17:19:07.236,2025-11-28 14:19:07.236,14,0,0,51.671,-22.959727,-67.786907,0.00,0.00,-0.10,1.00,-0.10,131.00,0,1,0,100,91,-19532,14858,51671,2931.50,39,WP,1,0,0,0,0,0,0,1764350347236,4314,4319,4317,4323,4323,4317,18,,,,,,,0,0,0,-10.00,-1.00,1310.00,0.00,0.00,59.00,14,11.00,1.00,4.27,0.00,0.00,-1.00,0,,,100,100,13,2,0,0,1,1,0,,,,,0.0,0.0,0.0,0.0,0.0,0.0,0
-22.959730,-67.786903,1.10,0.00,0.10,0.45,1.10,1.10,0.73,0.45,889,2025-11-28 17:19:07.333,2025-11-28 14:19:07.333,14,0,0,51.671,-22.959727,-67.786907,0.00,0.00,-0.10,0.60,-0.20,131.00,0,1,0,100,91,-19532,14858,51671,2931.50,39,WP,1,0,0,0,0,0,0,1764350347332,4314,4319,4317,4323,4323,4317,18,,,,,,,0,0,0,-6.00,-2.00,1310.00,0.00,0.00,59.00,14,11.00,1.00,4.45,0.00,0.00,-1.00,0,,,100,100,13,2,0,0,1,1,0,,,,,0.0,0.0,0.0,0.0,0.0,0.0,0
-22.959730,-67.786903,1.10,0.00,0.14,0.46,1.10,1.10,0.73,0.46,1001,2025-11-28 17:19:07.444,2025-11-28 14:19:07.444,14,0,0,51.671,-22.959727,-67.786907,0.00,0.10,-0.10,0.60,0.00,131.10,0,1,0,100,91,-19532,14858,51671,2931.50,39,WP,1,0,0,0,0,0,0,1764350347444,4314,4319,4317,4323,4323,4317,18,,,,,,,0,0,0,-6.00,0.00,1311.00,0.00,0.00,58.00,14,11.00,1.41,4.60,0.00,1.00,-1.00,0,,,100,100,13,2,0,0,1,1,0,,,,,0.0,0.0,0.0,0.0,0.0,0.0,0
-22.959730,-67.786903,1.10,0.00,0.14,0.48,1.10,1.10,0.73,0.48,1104,2025-11-28 17:19:07.547,2025-11-28 14:19:07.547,14,0,0,51.671,-22.959727,-67.786907,0.00,0.10,-0.10,0.90,0.30,131.10,0,1,0,100,91,-19532,14858,51671,2931.50,39,WP,1,0,0,0,0,0,0,1764350347547,4314,4319,4317,4323,4323,4317,18,,,,,,,0,0,0,-9.00,3.00,1311.00,0.00,0.00,58.00,14,11.00,1.41,4.77,0.00,1.00,-1.00,0,,,100,100,13,2,0,0,1,1,0,,,,,0.0,0.0,0.0,0.0,0.0,0.0,0
-22.959730,-67.786902,1.10,0.00,0.32,0.50,1.10,1.10,0.73,0.50,1194,2025-11-28 17:19:07.637,2025-11-28 14:19:07.637,14,0,0,51.671,-22.959727,-67.786907,0.00,0.10,-0.30,0.90,0.40,131.00,0,1,0,100,91,-19532,14858,51671,2931.50,39,WP,1,0,0,0,0,0,0,1764350347637,4314,4319,4317,4323,4323,4317,18,,,,,,,0,0,0,-9.00,4.00,1310.00,0.00,0.00,58.00,14,11.00,3.16,4.97,0.00,1.00,-3.00,0,,,100,100,13,2,0,0,1,1,0,,,,,0.0,0.0,0.0,0.0,0.0,0.0,0
-22.959730,-67.786902,1.20,0.00,0.51,0.52,1.20,1.20,0.73,0.52,1301,2025-11-28 17:19:07.744,2025-11-28 14:19:07.745,14,0,0,51.671,-22.959727,-67.786907,0.00,0.10,-0.50,1.00,0.30,131.00,0,1,0,100,91,-19532,14858,51671,2931.50,39,WP,1,0,0,0,0,0,0,1764350347744,4314,4319,4317,4323,4323,4317,18,,,,,,,0,0,0,-10.00,3.00,1310.00,0.00,0.00,59.00,14,12.00,5.10,5.20,0.00,1.00,-5.00,0,,,100,100,13,2,0,0,1,1,0,,,,,0.0,0.0,0.0,0.0,0.0,0.0,0
-22.959730,-67.786902,1.20,0.00,0.71,0.54,1.20,1.20,0.73,0.54,1403,2025-11-28 17:19:07.846,2025-11-28 14:19:07.846,14,0,0,51.671,-22.959727,-67.786907,0.00,0.10,-0.70,1.10,0.10,131.10,0,1,0,100,91,-19532,14858,51671,2931.50,39,WP,1,0,0,0,0,0,0,1764350347846,4314,4319,4317,4323,4323,4317,18,,,,,,,0,0,0,-11.00,1.00,1311.00,0.00,0.00,58.00,14,12.00,7.07,5.40,0.00,1.00,-7.00,0,,,100,100,13,2,0,0,1,1,0,,,,,0.0,0.0,0.0,0.0,0.0,0.0,0
-22.959730,-67.786902,1.30,0.00,1.00,0.56,1.30,1.30,1.00,0.56,1498,2025-11-28 17:19:07.942,2025-11-28 14:19:07.942,14,0,0,51.671,-22.959727,-67.786907,0.00,0.10,-1.00,1.20,-0.10,131.10,0,1,0,100,91,-19532,14858,51671,2931.50,39,WP,1,0,0,0,0,0,0,1764350347941,4314,4319,4317,4323,4323,4317,18,,,,,,,0,0,0,-12.00,-1.00,1311.00,0.00,0.00,58.00,14,13.00,10.05,5.63,0.00,1.00,-10.00,0,,,100,100,13,2,0,0,1,1,0,,,,,0.0,0.0,0.0,0.0,0.0,0.0,0
-22.959730,-67.786901,1.50,0.00,1.41,0.59,1.50,1.50,1.41,0.59,1602,2025-11-28 17:19:08.046,2025-11-28 14:19:08.046,14,0,0,51.671,-22.959727,-67.786907,0.00,0.20,-1.40,1.30,0.00,131.10,0,1,0,100,91,-19532,14858,51671,2931.50,39,WP,1,0,0,0,0,0,0,1764350348045,4314,4319,4317,4323,4323,4317,18,,,,,,,0,0,0,-13.00,0.00,1311.00,0.00,0.00,58.00,14,15.00,14.14,5.92,0.00,2.00,-14.00,0,,,100,100,13,2,0,0,1,1,0,,,,,0.0,0.0,0.0,0.0,0.0,0.0,0
-22.959730,-67.786901,1.70,0.00,1.71,0.62,1.70,1.70,1.71,0.62,1699,2025-11-28 17:19:08.142,2025-11-28 14:19:08.142,14,0,0,51.671,-22.959727,-67.786907,0.00,0.20,-1.70,1.20,0.20,131.20,0,1,0,100,91,-19532,14858,51671,2931.50,39,WP,1,0,0,0,0,0,0,1764350348142,4314,4319,4317,4323,4323,4317,18,,,,,,,0,0,0,-12.00,2.00,1312.00,0.00,0.00,57.00,14,17.00,17.12,6.21,0.00,2.00,-17.00,0,,,100,100,13,2,0,0,1,1,0,,,,,0.0,0.0,0.0,0.0,0.0,0.0,0
-22.959730,-67.786901,1.90,0.00,2.01,0.64,1.90,1.90,2.01,0.64,1798,2025-11-28 17:19:08.242,2025-11-28 14:19:08.242,14,0,0,51.671,-22.959727,-67.786907,0.00,0.20,-2.00,1.00,0.70,131.30,0,1,0,100,91,-19532,14858,51671,2931.50,39,WP,1,0,0,0,0,0,0,1764350348241,4314,4319,4317,4323,4323,4317,18,,,,,,,0,0,0,-10.00,7.00,1313.00,0.00,0.00,56.00,14,19.00,20.10,6.45,0.00,2.00,-20.00,0,,,100,100,13,2,0,0,1,1,0,,,,,0.0,0.0,0.0,0.0,0.0,0.0,0
-22.959730,-67.786900,2.10,0.00,2.31,0.67,2.10,2.10,2.31,0.67,1899,2025-11-28 17:19:08.343,2025-11-28 14:19:08.343,14,0,0,51.671,-22.959727,-67.786907,0.00,0.20,-2.30,0.60,1.30,131.40,0,1,0,100,91,-19532,14858,51671,2931.50,39,WP,1,0,0,0,0,0,0,1764350348342,4314,4319,4317,4323,4323,4317,18,,,,,,,0,0,0,-6.00,13.00,1314.00,0.00,0.00,57.00,14,21.00,23.09,6.72,0.00,2.00,-23.00,0,,,100,100,13,2,0,0,1,1,0,,,,,0.0,0.0,0.0,0.0,0.0,0.0,0
-22.959729,-67.786900,2.30,0.00,2.62,0.70,2.30,2.30,2.62,0.70,2001,2025-11-28 17:19:08.444,2025-11-28 14:19:08.444,14,0,0,47.159,-22.959727,-67.786907,0.00,0.30,-2.60,0.70,2.10,131.50,0,1,0,99,91,-49545,14777,47159,2931.50,39,WP,1,0,0,0,0,0,0,1764350348444,4314,4319,4317,4323,4323,4317,18,,,,,,,0,0,0,-7.00,21.00,1315.00,0.00,0.00,56.00,14,23.00,26.17,7.03,0.00,3.00,-26.00,0,,,100,100,13,2,0,0,1,1,0,,,,,0.0,0.0,0.0,0.0,0.0,0.0,0
-22.959729,-67.786900,2.60,0.00,2.82,0.74,2.60,2.60,2.82,0.74,2119,2025-11-28 17:19:08.562,2025-11-28 14:19:08.562,14,0,0,47.159,-22.959727,-67.786907,0.00,0.30,-2.80,1.40,2.70,131.60,0,1,0,99,91,-49545,14777,47159,2931.50,39,WP,1,0,0,0,0,0,0,1764350348562,4314,4319,4317,4323,4323,4317,18,,,,,,,0,0,0,-14.00,27.00,1316.00,0.00,0.00,57.00,14,26.00,28.16,7.36,0.00,3.00,-28.00,0,,,100,100,13,2,0,0,1,1,0,,,,,0.0,0.0,0.0,0.0,0.0,0.0,0
-22.959729,-67.786899,2.90,0.00,3.01,0.77,2.90,2.90,3.01,0.77,2200,2025-11-28 17:19:08.643,2025-11-28 14:19:08.644,14,0,0,47.159,-22.959727,-67.786907,0.00,0.20,-3.00,2.40,3.20,131.60,0,1,0,99,91,-49545,14777,47159,2931.50,39,WP,1,0,0,0,0,0,0,1764350348643,4314,4319,4317,4323,4323,4317,18,,,,,,,0,0,0,-24.00,32.00,1316.00,0.00,0.00,57.00,14,29.00,30.07,7.68,0.00,2.00,-30.00,0,,,100,100,13,2,0,0,1,1,0,,,,,0.0,0.0,0.0,0.0,0.0,0.0,0
-22.959729,-67.786899,3.20,0.00,3.21,0.80,3.20,3.20,3.21,0.80,2303,2025-11-28 17:19:08.746,2025-11-28 14:19:08.746,14,0,0,47.159,-22.959727,-67.786907,0.00,0.20,-3.20,3.50,3.30,131.60,0,1,0,99,91,-49545,14777,47159,2931.50,39,WP,1,0,0,0,0,0,0,1764350348746,4314,4319,4317,4323,4323,4317,18,,,,,,,0,0,0,-35.00,33.00,1316.00,0.00,0.00,57.00,14,32.00,32.06,7.96,0.00,2.00,-32.00,0,,,100,100,13,2,0,0,1,1,0,,,,,0.0,0.0,0.0,0.0,0.0,0.0,0
-22.959729,-67.786899,3.50,0.00,3.41,0.82,3.50,3.50,3.41,0.82,2404,2025-11-28 17:19:08.847,2025-11-28 14:19:08.847,14,0,0,47.159,-22.959727,-67.786907,0.00,0.20,-3.40,4.00,2.70,131.30,0,1,0,99,91,-49545,14777,47159,2931.50,39,WP,1,0,0,0,0,0,0,1764350348847,4314,4319,4317,4323,4323,4317,18,,,,,,,0,0,0,-40.00,27.00,1313.00,0.00,0.00,58.00,14,35.00,34.06,8.17,0.00,2.00,-34.00,0,,,100,100,13,2,0,0,1,1,0,,,,,0.0,0.0,0.0,0.0,0.0,0.0,0
-22.959729,-67.786899,3.80,0.00,3.50,0.83,3.80,3.80,3.50,0.83,2505,2025-11-28 17:19:08.949,2025-11-28 14:19:08.949,14,0,0,47.159,-22.959727,-67.786907,0.00,0.10,-3.50,3.90,1.70,131.00,0,1,0,99,91,-49545,14777,47159,2931.50,39,WP,1,0,0,0,0,0,0,1764350348948,4314,4319,4317,4323,4323,4317,18,,,,,,,0,0,0,-39.00,17.00,1310.00,0.00,0.00,58.00,14,38.00,35.01,8.34,0.00,1.00,-35.00,0,,,100,100,13,2,0,0,1,1,0,,,,,0.0,0.0,0.0,0.0,0.0,0.0,0
-22.959729,-67.786899,4.20,0.00,3.50,0.84,4.20,4.20,3.50,0.84,2513,2025-11-28 17:19:08.957,2025-11-28 14:19:08.957,14,0,0,47.159,-22.959727,-67.786907,0.00,0.10,-3.50,3.40,1.20,130.80,0,1,0,99,91,-49545,14777,47159,2931.50,39,WP,1,0,0,0,0,0,0,1764350348956,4314,4319,4317,4323,4323,4317,18,,,,,,,0,0,0,-34.00,12.00,1308.00,0.00,0.00,64.00,14,42.00,35.01,8.42,0.00,1.00,-35.00,0,,,100,100,13,2,0,0,1,1,0,,,,,0.0,0.0,0.0,0.0,0.0,0.0,0
-22.959729,-67.786898,4.80,0.00,3.40,0.85,4.80,4.80,3.50,0.85,2815,2025-11-28 17:19:09.258,2025-11-28 14:19:09.258,14,0,0,47.159,-22.959727,-67.786907,0.10,0.00,-3.40,1.90,1.50,130.80,0,1,0,99,91,-49545,14777,47159,2931.50,39,WP,1,0,0,0,0,0,0,1764350349258,4314,4319,4317,4323,4323,4317,18,,,,,,,0,0,0,-19.00,15.00,1308.00,0.00,0.00,66.00,14,48.00,34.01,8.48,1.00,0.00,-34.00,0,,,100,100,13,2,0,0,1,1,0,,,,,0.0,0.0,0.0,0.0,0.0,0.0,0
-22.959729,-67.786898,5.10,0.00,3.40,0.85,5.10,5.10,3.50,0.85,2909,2025-11-28 17:19:09.353,2025-11-28 14:19:09.353,14,0,0,47.159,-22.959727,-67.786907,0.10,0.00,-3.40,1.00,2.20,130.80,0,1,0,99,91,-49545,14777,47159,2931.50,39,WP,1,0,0,0,0,0,0,1764350349352,4314,4319,4317,4323,4323,4317,18,,,,,,,0,0,0,-10.00,22.00,1308.00,0.00,0.00,64.00,14,51.00,34.01,8.51,1.00,0.00,-34.00,0,,,100,100,13,2,0,0,1,1,0,,,,,0.0,0.0,0.0,0.0,0.0,0.0,0
-22.959729,-67.786899,5.50,0.00,3.40,0.84,5.50,5.50,3.50,0.85,3016,2025-11-28 17:19:09.459,2025-11-28 14:19:09.459,14,0,0,47.159,-22.959727,-67.786907,0.00,0.00,-3.40,0.30,3.00,130.80,0,1,0,99,91,-49545,14777,47159,2931.50,39,WP,1,0,0,0,0,0,0,1764350349459,4314,4319,4317,4323,4323,4317,18,,,,,,,0,0,0,-3.00,30.00,1308.00,0.00,0.00,65.00,14,55.00,34.00,8.42,0.00,0.00,-34.00,0,,,100,100,13,2,0,0,1,1,0,,,,,0.0,0.0,0.0,0.0,0.0,0.0,0
-22.959729,-67.786899,5.80,0.00,3.30,0.84,5.80,5.80,3.50,0.85,3022,2025-11-28 17:19:09.466,2025-11-28 14:19:09.466,14,0,0,47.159,-22.959727,-67.786907,0.00,0.00,-3.30,0.90,3.10,130.90,0,1,0,99,91,-49545,14777,47159,2931.50,39,WP,1,0,0,0,0,0,0,1764350349465,4314,4319,4317,4323,4323,4317,18,,,,,,,0,0,0,-9.00,31.00,1309.00,0.00,0.00,65.00,14,58.00,33.00,8.38,0.00,0.00,-33.00,0,,,100,100,13,2,0,0,1,1,0,,,,,0.0,0.0,0.0,0.0,0.0,0.0,0
-22.959729,-67.786899,6.10,0.00,3.20,0.83,6.10,6.10,3.50,0.85,3111,2025-11-28 17:19:09.555,2025-11-28 14:19:09.555,14,0,0,47.159,-22.959727,-67.786907,0.00,0.00,-3.20,1.90,2.80,131.10,0,1,0,99,91,-49545,14777,47159,2931.50,39,WP,1,0,0,0,0,0,0,1764350349554,4314,4319,4317,4323,4323,4317,18,,,,,,,0,0,0,-19.00,28.00,1311.00,0.00,0.00,63.00,14,61.00,32.00,8.33,0.00,0.00,-32.00,0,,,100,100,13,2,0,0,1,1,0,,,,,0.0,0.0,0.0,0.0,0.0,0.0,0
-22.959729,-67.786899,6.40,0.00,3.20,0.83,6.40,6.40,3.50,0.85,3218,2025-11-28 17:19:09.662,2025-11-28 14:19:09.662,14,0,0,47.159,-22.959727,-67.786907,0.00,0.00,-3.20,2.40,2.60,131.10,0,1,0,99,91,-49545,14777,47159,2931.50,39,WP,1,0,0,0,0,0,0,1764350349661,3638,3657,3671,3656,3649,3643,18,,,,,,,0,0,0,-24.00,26.00,1311.00,0.00,0.00,62.00,14,64.00,32.00,8.30,0.00,0.00,-32.00,0,,,100,100,13,2,0,0,1,1,0,,,,,0.0,0.0,0.0,0.0,0.0,0.0,0
-22.959729,-67.786899,6.70,0.00,3.10,0.82,6.70,6.70,3.50,0.85,3310,2025-11-28 17:19:09.754,2025-11-28 14:19:09.754,14,0,0,47.159,-22.959727,-67.786907,0.00,0.00,-3.10,2.00,2.10,131.00,0,1,0,99,91,-49545,14777,47159,2931.50,39,WP,1,0,0,0,0,0,0,1764350349753,3638,3657,3671,3656,3649,3643,18,,,,,,,0,0,0,-20.00,21.00,1310.00,0.00,0.00,63.00,14,67.00,31.00,8.19,0.00,0.00,-31.00,0,,,100,100,13,2,0,0,1,1,0,,,,,0.0,0.0,0.0,0.0,0.0,0.0,0
-22.959729,-67.786899,7.00,0.00,3.10,0.81,7.00,7.00,3.50,0.85,3419,2025-11-28 17:19:09.862,2025-11-28 14:19:09.862,14,0,0,47.159,-22.959727,-67.786907,0.00,0.00,-3.10,1.50,2.00,131.00,0,1,0,99,91,-49545,14777,47159,2931.50,39,WP,1,0,0,0,0,0,0,1764350349862,3638,3657,3671,3656,3649,3643,18,,,,,,,0,0,0,-15.00,20.00,1310.00,0.00,0.00,64.00,14,70.00,31.00,8.11,0.00,0.00,-31.00,0,,,100,100,13,2,0,0,1,1,0,,,,,0.0,0.0,0.0,0.0,0.0,0.0,0
-22.959729,-67.786899,7.60,0.00,3.10,0.80,7.60,7.60,3.50,0.85,3714,2025-11-28 17:19:10.158,2025-11-28 14:19:10.158,14,0,0,47.159,-22.959727,-67.786907,0.00,0.00,-3.10,0.80,1.00,130.90,0,1,0,99,91,-49545,14777,47159,2931.50,39,WP,1,0,0,0,0,0,0,1764350350157,3638,3657,3671,3656,3649,3643,18,,,,,,,0,0,0,-8.00,10.00,1309.00,0.00,0.00,63.00,14,76.00,31.00,8.00,0.00,0.00,-31.00,0,,,100,100,13,2,0,0,1,1,0,,,,,0.0,0.0,0.0,0.0,0.0,0.0,0
-22.959729,-67.786899,8.00,0.00,3.10,0.80,8.00,8.00,3.50,0.85,3720,2025-11-28 17:19:10.164,2025-11-28 14:19:10.164,14,0,0,47.159,-22.959727,-67.786907,0.00,0.00,-3.10,0.50,0.90,130.90,0,1,0,99,91,-49545,14777,47159,2931.50,39,WP,1,0,0,0,0,0,0,1764350350163,3638,3657,3671,3656,3649,3643,18,,,,,,,0,0,0,-5.00,9.00,1309.00,0.00,0.00,64.00,14,80.00,31.00,8.00,0.00,0.00,-31.00,0,,,100,100,13,2,0,0,1,1,0,,,,,0.0,0.0,0.0,0.0,0.0,0.0,0
-22.959729,-67.786899,8.30,0.00,3.10,0.80,8.30,8.30,3.50,0.85,3819,2025-11-28 17:19:10.262,2025-11-28 14:19:10.262,14,0,0,47.159,-22.959727,-67.786907,0.00,0.00,-3.10,0.30,1.20,130.90,0,1,0,99,91,-49545,14777,47159,2931.50,39,WP,1,0,0,0,0,0,0,1764350350262,3638,3657,3671,3656,3649,3643,18,,,,,,,0,0,0,-3.00,12.00,1309.00,0.00,0.00,64.00,14,83.00,31.00,8.02,0.00,0.00,-31.00,0,,,100,100,13,2,0,0,1,1,0,,,,,0.0,0.0,0.0,0.0,0.0,0.0,0
-22.959728,-67.786899,8.60,0.00,3.10,0.81,8.60,8.60,3.50,0.85,3912,2025-11-28 17:19:10.355,2025-11-28 14:19:10.355,14,0,0,47.159,-22.959727,-67.786907,0.00,0.00,-3.10,0.90,1.80,131.10,0,1,0,99,91,-49545,14777,47159,2931.50,39,WP,1,0,0,0,0,0,0,1764350350355,3638,3657,3671,3656,3649,3643,18,,,,,,,0,0,0,-9.00,18.00,1311.00,0.00,0.00,63.00,14,86.00,31.00,8.11,0.00,0.00,-31.00,0,,,100,98,13,2,0,0,1,1,0,,,,,0.0,0.0,0.0,0.0,0.0,0.0,0
-22.959728,-67.786899,8.90,0.00,3.10,0.82,8.90,8.90,3.50,0.85,4018,2025-11-28 17:19:10.461,2025-11-28 14:19:10.461,14,0,0,47.159,-22.959727,-67.786907,0.00,0.00,-3.10,2.20,2.20,131.30,0,1,0,99,91,-49545,14777,47159,2931.50,39,WP,1,0,0,0,0,0,0,1764350350461,3638,3657,3671,3656,3649,3643,18,,,,,,,0,0,0,-22.00,22.00,1313.00,0.00,0.00,61.00,14,89.00,31.00,8.21,0.00,0.00,-31.00,0,,,100,98,13,2,0,0,1,1,0,,,,,0.0,0.0,0.0,0.0,0.0,0.0,0
-22.959728,-67.786898,9.20,0.00,3.00,0.84,9.20,9.20,3.50,0.85,4119,2025-11-28 17:19:10.563,2025-11-28 14:19:10.563,14,0,0,47.159,-22.959727,-67.786907,0.10,0.00,-3.00,3.10,2.60,131.30,0,1,0,99,91,-49545,14777,47159,2931.50,39,WP,1,0,0,0,0,0,0,1764350350562,3638,3657,3671,3656,3649,3643,18,,,,,,,0,0,0,-31.00,26.00,1313.00,0.00,0.00,60.00,14,92.00,30.02,8.36,1.00,0.00,-30.00,0,,,100,98,13,2,0,0,1,1,0,,,,,0.0,0.0,0.0,0.0,0.0,0.0,0
-22.959728,-67.786898,9.50,0.00,3.10,0.85,9.50,9.50,3.50,0.85,4219,2025-11-28 17:19:10.662,2025-11-28 14:19:10.662,14,0,0,47.159,-22.959727,-67.786907,0.10,0.00,-3.10,3.70,2.80,131.30,0,1,0,99,91,-49545,14777,47159,2931.50,39,WP,1,0,0,0,0,0,0,1764350350662,3638,3657,3671,3656,3649,3643,18,,,,,,,0,0,0,-37.00,28.00,1313.00,0.00,0.00,60.00,14,95.00,31.02,8.46,1.00,0.00,-31.00,0,,,100,98,13,2,0,0,1,1,0,,,,,0.0,0.0,0.0,0.0,0.0,0.0,0
-22.959728,-67.786898,9.80,0.00,3.10,0.85,9.80,9.80,3.50,0.85,4321,2025-11-28 17:19:10.765,2025-11-28 14:19:10.765,14,0,0,47.159,-22.959727,-67.786907,0.10,0.00,-3.10,3.70,2.80,131.40,0,1,0,99,91,-49545,14777,47159,2931.50,39,WP,1,0,0,0,0,0,0,1764350350764,3638,3657,3671,3656,3649,3643,18,,,,,,,0,0,0,-37.00,28.00,1314.00,0.00,0.00,60.00,14,98.00,31.02,8.46,1.00,0.00,-31.00,0,,,100,98,13,2,0,0,1,1,0,,,,,0.0,0.0,0.0,0.0,0.0,0.0,0
-22.959728,-67.786898,10.20,0.00,3.11,0.84,10.20,10.20,3.50,0.85,4420,2025-11-28 17:19:10.864,2025-11-28 14:19:10.864,14,0,0,47.159,-22.959727,-67.786907,0.20,0.00,-3.10,3.20,3.10,131.40,0,1,0,99,91,-49545,14777,47159,2931.50,39,WP,1,0,0,0,0,0,0,1764350350863,3638,3657,3671,3656,3649,3643,18,,,,,,,0,0,0,-32.00,31.00,1314.00,0.00,0.00,58.00,14,102.00,31.06,8.43,2.00,0.00,-31.00,0,,,100,97,13,2,0,0,1,1,0,,,,,0.0,0.0,0.0,0.0,0.0,0.0,0
-22.959728,-67.786898,10.50,0.00,3.11,0.83,10.50,10.50,3.50,0.85,4521,2025-11-28 17:19:10.965,2025-11-28 14:19:10.965,14,0,0,45.258,-22.959727,-67.786907,0.20,0.00,-3.10,2.20,3.10,131.30,0,1,0,99,91,-74538,14759,45258,2931.50,39,WP,1,0,0,0,0,0,0,1764350350964,3638,3657,3671,3656,3649,3643,18,,,,,,,0,0,0,-22.00,31.00,1313.00,0.00,0.00,59.00,14,105.00,31.06,8.30,2.00,0.00,-31.00,0,,,100,97,13,2,0,0,1,1,0,,,,,0.0,0.0,0.0,0.0,0.0,0.0,0
-22.959727,-67.786899,10.80,0.00,3.11,0.82,10.80,10.80,3.50,0.85,4719,2025-11-28 17:19:11.162,2025-11-28 14:19:11.162,14,0,0,45.258,-22.959727,-67.786907,0.20,-0.10,-3.10,1.20,3.30,131.20,0,1,0,99,91,-74538,14759,45258,2931.50,39,WP,1,0,0,0,0,0,0,1764350351162,3638,3657,3671,3656,3649,3643,18,,,,,,,0,0,0,-12.00,33.00,1312.00,0.00,0.00,61.00,14,108.00,31.08,8.21,2.00,-1.00,-31.00,0,,,100,97,13,2,0,0,1,1,0,,,,,0.0,0.0,0.0,0.0,0.0,0.0,0
-22.959727,-67.786899,11.10,0.00,3.11,0.80,11.10,11.10,3.50,0.85,4731,2025-11-28 17:19:11.175,2025-11-28 14:19:11.175,14,0,0,45.258,-22.959727,-67.786907,0.20,-0.10,-3.10,0.50,3.80,131.30,0,1,0,99,91,-74538,14759,45258,2931.50,39,WP,1,0,0,0,0,0,0,1764350351174,3638,3657,3671,3656,3649,3643,18,,,,,,,0,0,0,-5.00,38.00,1313.00,0.00,0.00,61.00,14,111.00,31.08,8.00,2.00,-1.00,-31.00,0,,,100,97,13,2,0,0,1,1,0,,,,,0.0,0.0,0.0,0.0,0.0,0.0,0
-22.959726,-67.786899,11.70,0.00,3.11,0.76,11.70,11.70,3.50,0.85,4922,2025-11-28 17:19:11.366,2025-11-28 14:19:11.366,14,0,0,45.258,-22.959727,-67.786907,0.20,-0.10,-3.10,0.00,4.70,131.20,0,1,0,99,91,-74538,14759,45258,2931.50,39,WP,1,0,0,0,0,0,0,1764350351365,3638,3657,3671,3656,3649,3643,18,,,,,,,0,0,0,-0.00,47.00,1312.00,0.00,0.00,61.00,14,117.00,31.08,7.61,2.00,-1.00,-31.00,0,,,100,97,13,2,0,0,1,1,0,,,,,0.0,0.0,0.0,0.0,0.0,0.0,0
-22.959726,-67.786899,12.10,0.00,3.01,0.74,12.10,12.10,3.50,0.85,5025,2025-11-28 17:19:11.469,2025-11-28 14:19:11.469,14,0,0,45.258,-22.959727,-67.786907,0.20,-0.10,-3.00,-0.30,4.70,131.20,0,1,0,99,91,-74538,14759,45258,2931.50,39,WP,1,0,0,0,0,0,0,1764350351468,3638,3657,3671,3656,3649,3643,18,,,,,,,0,0,0,3.00,47.00,1312.00,0.00,0.00,61.00,14,121.00,30.08,7.44,2.00,-1.00,-30.00,0,,,100,97,13,2,0,0,1,1,0,,,,,0.0,0.0,0.0,0.0,0.0,0.0,0
-22.959726,-67.786900,12.40,0.00,3.00,0.72,12.40,12.40,3.50,0.85,5134,2025-11-28 17:19:11.577,2025-11-28 14:19:11.577,14,0,0,45.258,-22.959727,-67.786907,0.10,-0.10,-3.00,-0.70,4.70,131.20,0,1,0,99,91,-74538,14759,45258,2931.50,39,WP,1,0,0,0,0,0,0,1764350351577,3638,3657,3671,3656,3649,3643,18,,,,,,,0,0,0,7.00,47.00,1312.00,0.00,0.00,61.00,14,124.00,30.03,7.16,1.00,-1.00,-30.00,0,,,100,97,13,2,0,0,1,1,0,,,,,0.0,0.0,0.0,0.0,0.0,0.0,0
-22.959726,-67.786900,12.70,0.00,3.00,0.70,12.70,12.70,3.50,0.85,5223,2025-11-28 17:19:11.667,2025-11-28 14:19:11.667,14,0,0,45.258,-22.959727,-67.786907,0.10,-0.10,-3.00,-1.00,4.60,131.10,0,1,0,99,91,-74538,14759,45258,2931.50,39,WP,1,0,0,0,0,0,0,1764350351666,3638,3657,3671,3656,3649,3643,18,,,,,,,0,0,0,10.00,46.00,1311.00,0.00,0.00,62.00,14,127.00,30.03,6.97,1.00,-1.00,-30.00,0,,,100,97,13,2,0,0,1,1,0,,,,,0.0,0.0,0.0,0.0,0.0,0.0,0
-22.959726,-67.786900,13.00,0.00,3.00,0.67,13.00,13.00,3.50,0.85,5333,2025-11-28 17:19:11.777,2025-11-28 14:19:11.777,14,0,0,45.258,-22.959727,-67.786907,0.10,-0.10,-3.00,-1.10,4.50,130.90,0,1,0,99,91,-74538,14759,45258,2931.50,39,WP,1,0,0,0,0,0,0,1764350351776,3638,3657,3671,3656,3649,3643,18,,,,,,,0,0,0,11.00,45.00,1309.00,0.00,0.00,63.00,14,130.00,30.03,6.65,1.00,-1.00,-30.00,0,,,100,97,13,2,0,0,1,1,0,,,,,0.0,0.0,0.0,0.0,0.0,0.0,0
-22.959726,-67.786901,13.30,0.00,3.00,0.64,13.30,13.30,3.50,0.85,5436,2025-11-28 17:19:11.879,2025-11-28 14:19:11.879,14,0,0,45.258,-22.959727,-67.786907,0.00,-0.10,-3.00,-0.90,4.30,130.90,0,1,0,99,91,-74538,14759,45258,2931.50,39,WP,1,0,0,0,0,0,0,1764350351879,3638,3657,3671,3656,3649,3643,18,,,,,,,0,0,0,9.00,43.00,1309.00,0.00,0.00,64.00,14,133.00,30.02,6.43,0.00,-1.00,-30.00,0,,,100,94,13,2,0,0,1,1,0,,,,,0.0,0.0,0.0,0.0,0.0,0.0,0
-22.959726,-67.786901,13.60,0.00,3.00,0.62,13.60,13.60,3.50,0.85,5527,2025-11-28 17:19:11.970,2025-11-28 14:19:11.970,14,0,0,45.258,-22.959727,-67.786907,0.00,-0.10,-3.00,-1.10,3.90,131.00,0,1,0,99,91,-74538,14759,45258,2931.50,39,WP,1,0,0,0,0,0,0,1764350351970,3638,3657,3671,3656,3649,3643,18,,,,,,,0,0,0,11.00,39.00,1310.00,0.00,0.00,64.00,14,136.00,30.02,6.17,0.00,-1.00,-30.00,0,,,100,94,13,2,0,0,1,1,0,,,,,0.0,0.0,0.0,0.0,0.0,0.0,0
-22.959726,-67.786901,13.90,0.00,3.00,0.60,13.90,13.90,3.50,0.85,5731,2025-11-28 17:19:12.174,2025-11-28 14:19:12.175,14,0,0,45.258,-22.959727,-67.786907,0.00,-0.10,-3.00,-1.30,3.60,131.10,0,1,0,99,91,-74538,14759,45258,2931.50,39,WP,1,0,0,0,0,0,0,1764350352174,3638,3657,3671,3656,3649,3643,18,,,,,,,0,0,0,13.00,36.00,1311.00,0.00,0.00,64.00,14,139.00,30.02,6.00,0.00,-1.00,-30.00,0,,,100,94,13,2,0,0,1,1,0,,,,,0.0,0.0,0.0,0.0,0.0,0.0,0
-22.959726,-67.786901,14.30,0.00,3.00,0.58,14.30,14.30,3.50,0.85,5737,2025-11-28 17:19:12.180,2025-11-28 14:19:12.180,14,0,0,45.258,-22.959727,-67.786907,0.00,0.00,-3.00,-1.80,3.70,131.10,0,1,0,99,91,-74538,14759,45258,2931.50,39,WP,1,0,0,0,0,0,0,1764350352180,3638,3657,3671,3656,3649,3643,18,,,,,,,0,0,0,18.00,37.00,1311.00,0.00,0.00,62.00,14,143.00,30.00,5.81,0.00,0.00,-30.00,0,,,100,94,13,2,0,0,1,1,0,,,,,0.0,0.0,0.0,0.0,0.0,0.0,0
-22.959726,-67.786901,14.60,0.00,3.00,0.57,14.60,14.60,3.50,0.85,5842,2025-11-28 17:19:12.285,2025-11-28 14:19:12.285,14,0,0,45.258,-22.959727,-67.786907,0.00,0.00,-3.00,-2.40,4.10,131.00,0,1,0,99,91,-74538,14759,45258,2931.50,39,WP,1,0,0,0,0,0,0,1764350352285,3638,3657,3671,3656,3649,3643,18,,,,,,,0,0,0,24.00,41.00,1310.00,0.00,0.00,62.00,14,146.00,30.00,5.71,0.00,0.00,-30.00,0,,,100,94,13,2,0,0,1,1,0,,,,,0.0,0.0,0.0,0.0,0.0,0.0,0
-22.959726,-67.786901,14.90,0.00,3.00,0.56,14.90,14.90,3.50,0.85,5952,2025-11-28 17:19:12.395,2025-11-28 14:19:12.396,14,0,0,45.258,-22.959727,-67.786907,-0.10,0.00,-3.00,-2.70,4.80,130.90,0,1,0,99,91,-74538,14759,45258,2931.50,39,WP,1,0,0,0,0,0,0,1764350352395,3638,3657,3671,3656,3649,3643,18,,,,,,,0,0,0,27.00,48.00,1309.00,0.00,0.00,64.00,14,149.00,30.02,5.62,-1.00,0.00,-30.00,0,,,100,91,13,2,0,0,1,1,0,,,,,0.0,0.0,0.0,0.0,0.0,0.0,0
-22.959726,-67.786901,15.20,0.00,3.10,0.56,15.20,15.20,3.50,0.85,6031,2025-11-28 17:19:12.475,2025-11-28 14:19:12.475,14,0,0,45.258,-22.959727,-67.786907,-0.10,0.00,-3.10,-2.20,5.20,130.80,0,1,0,99,91,-74538,14759,45258,2931.50,39,WP,1,0,0,0,0,0,0,1764350352474,3638,3657,3671,3656,3649,3643,18,,,,,,,0,0,0,22.00,52.00,1308.00,0.00,0.00,65.00,14,152.00,31.02,5.59,-1.00,0.00,-31.00,0,,,100,91,13,2,0,0,1,1,0,,,,,0.0,0.0,0.0,0.0,0.0,0.0,0
-22.959726,-67.786901,15.50,0.00,3.01,0.56,15.50,15.50,3.50,0.85,6136,2025-11-28 17:19:12.579,2025-11-28 14:19:12.579,14,0,0,45.258,-22.959727,-67.786907,-0.20,0.00,-3.00,-1.40,5.10,130.70,0,1,0,99,91,-74538,14759,45258,2931.50,39,WP,1,0,0,0,0,0,0,1764350352579,3638,3657,3671,3656,3649,3643,18,,,,,,,0,0,0,14.00,51.00,1307.00,0.00,0.00,66.00,14,155.00,30.07,5.58,-2.00,0.00,-30.00,0,,,100,91,13,2,0,0,1,1,0,,,,,0.0,0.0,0.0,0.0,0.0,0.0,0
-22.959727,-67.786901,15.80,0.00,3.01,0.56,15.80,15.80,3.50,0.85,6233,2025-11-28 17:19:12.677,2025-11-28 14:19:12.677,14,0,0,45.258,-22.959727,-67.786907,-0.20,0.00,-3.00,-0.60,4.70,130.70,0,1,0,99,91,-74538,14759,45258,2931.50,39,WP,1,0,0,0,0,0,0,1764350352676,3638,3657,3671,3656,3649,3643,18,,,,,,,0,0,0,6.00,47.00,1307.00,0.00,0.00,66.00,14,158.00,30.07,5.60,-2.00,0.00,-30.00,0,,,100,91,13,2,0,0,1,1,0,,,,,0.0,0.0,0.0,0.0,0.0,0.0,0
-22.959727,-67.786901,16.10,0.00,2.82,0.56,16.10,16.10,3.50,0.85,6332,2025-11-28 17:19:12.776,2025-11-28 14:19:12.776,14,0,0,45.258,-22.959727,-67.786907,-0.30,0.00,-2.80,0.20,4.20,130.80,0,1,0,99,91,-74538,14759,45258,2931.50,39,WP,1,0,0,0,0,0,0,1764350352775,3638,3657,3671,3656,3649,3643,18,,,,,,,0,0,0,-2.00,42.00,1308.00,0.00,0.00,66.00,14,161.00,28.16,5.60,-3.00,0.00,-28.00,0,,,100,91,13,2,0,0,1,1,0,,,,,0.0,0.0,0.0,0.0,0.0,0.0,0
-22.959727,-67.786901,16.40,0.00,2.72,0.57,16.40,16.40,3.50,0.85,6436,2025-11-28 17:19:12.879,2025-11-28 14:19:12.880,14,0,0,45.085,-22.959727,-67.786907,-0.30,0.00,-2.70,1.00,4.20,130.80,0,1,0,98,91,-64595,14659,45085,2931.50,39,WP,1,0,0,0,0,0,0,1764350352879,3638,3657,3671,3656,3649,3643,18,,,,,,,0,0,0,-10.00,42.00,1308.00,0.00,0.00,65.00,14,164.00,27.17,5.66,-3.00,0.00,-27.00,0,,,100,93,13,2,0,0,1,1,0,,,,,0.0,0.0,0.0,0.0,0.0,0.0,0
-22.959728,-67.786901,16.70,0.00,2.52,0.58,16.70,16.70,3.50,0.85,6539,2025-11-28 17:19:12.982,2025-11-28 14:19:12.982,14,0,0,45.085,-22.959727,-67.786907,-0.30,0.00,-2.50,1.40,4.60,130.90,0,1,0,98,91,-64595,14659,45085,2931.50,39,WP,1,0,0,0,0,0,0,1764350352982,3638,3657,3671,3656,3649,3643,18,,,,,,,0,0,0,-14.00,46.00,1309.00,0.00,0.00,65.00,14,167.00,25.18,5.77,-3.00,0.00,-25.00,0,,,100,93,13,2,0,0,1,1,0,,,,,0.0,0.0,0.0,0.0,0.0,0.0,0
-22.959728,-67.786901,16.90,0.00,2.22,0.59,16.90,16.90,3.50,0.85,6736,2025-11-28 17:19:13.180,2025-11-28 14:19:13.180,14,0,0,45.085,-22.959727,-67.786907,-0.30,0.00,-2.20,1.60,4.80,131.00,0,1,0,98,91,-64595,14659,45085,2931.50,39,WP,1,0,0,0,0,0,0,1764350353179,3638,3657,3671,3656,3649,3643,18,,,,,,,0,0,0,-16.00,48.00,1310.00,0.00,0.00,64.00,14,169.00,22.20,5.92,-3.00,0.00,-22.00,0,,,100,93,13,2,0,0,1,1,0,,,,,0.0,0.0,0.0,0.0,0.0,0.0,0
-22.959729,-67.786901,17.10,0.00,2.04,0.61,17.10,17.10,3.50,0.85,6751,2025-11-28 17:19:13.194,2025-11-28 14:19:13.194,14,0,0,45.085,-22.959727,-67.786907,-0.40,0.00,-2.00,1.80,4.60,131.10,0,1,0,98,91,-64595,14659,45085,2931.50,39,WP,1,0,0,0,0,0,0,1764350353194,3638,3657,3671,3656,3649,3643,18,,,,,,,0,0,0,-18.00,46.00,1311.00,0.00,0.00,63.00,14,171.00,20.40,6.09,-4.00,0.00,-20.00,0,,,100,93,13,2,0,0,1,1,0,,,,,0.0,0.0,0.0,0.0,0.0,0.0,0
-22.959729,-67.786901,17.30,0.00,1.84,0.63,17.30,17.30,3.50,0.85,6837,2025-11-28 17:19:13.280,2025-11-28 14:19:13.280,14,0,0,45.085,-22.959727,-67.786907,-0.40,0.00,-1.80,1.90,3.80,131.20,0,1,0,98,91,-64595,14659,45085,2931.50,39,WP,1,0,0,0,0,0,0,1764350353280,3638,3657,3671,3656,3649,3643,18,,,,,,,0,0,0,-19.00,38.00,1312.00,0.00,0.00,62.00,14,173.00,18.44,6.29,-4.00,0.00,-18.00,0,,,100,93,13,2,0,0,1,1,0,,,,,0.0,0.0,0.0,0.0,0.0,0.0,0
-22.959730,-67.786901,17.50,0.00,1.65,0.65,17.50,17.50,3.50,0.85,6939,2025-11-28 17:19:13.383,2025-11-28 14:19:13.383,14,0,0,45.085,-22.959727,-67.786907,-0.40,0.00,-1.60,1.90,2.80,131.20,0,1,0,98,91,-64595,14659,45085,2931.50,39,WP,1,0,0,0,0,0,0,1764350353382,3638,3657,3671,3656,3649,3643,18,,,,,,,0,0,0,-19.00,28.00,1312.00,0.00,0.00,61.00,14,175.00,16.49,6.49,-4.00,0.00,-16.00,0,,,100,94,13,2,0,0,1,1,0,,,,,0.0,0.0,0.0,0.0,0.0,0.0,0
-22.959730,-67.786901,17.60,0.00,1.53,0.67,17.60,17.60,3.50,0.85,7041,2025-11-28 17:19:13.484,2025-11-28 14:19:13.484,14,0,0,45.085,-22.959727,-67.786907,-0.30,0.00,-1.50,1.80,1.90,131.20,0,1,0,98,91,-64595,14659,45085,2931.50,39,WP,1,0,0,0,0,0,0,1764350353484,3638,3657,3671,3656,3649,3643,18,,,,,,,0,0,0,-18.00,19.00,1312.00,0.00,0.00,61.00,14,176.00,15.30,6.72,-3.00,0.00,-15.00,0,,,100,94,13,2,0,0,1,1,0,,,,,0.0,0.0,0.0,0.0,0.0,0.0,0
-22.959731,-67.786901,17.80,0.00,1.43,0.69,17.80,17.80,3.50,0.85,7139,2025-11-28 17:19:13.582,2025-11-28 14:19:13.582,14,0,0,45.085,-22.959727,-67.786907,-0.30,0.00,-1.40,1.80,1.50,131.10,0,1,0,98,91,-64595,14659,45085,2931.50,39,WP,1,0,0,0,0,0,0,1764350353582,3638,3657,3671,3656,3649,3643,18,,,,,,,0,0,0,-18.00,15.00,1311.00,0.00,0.00,61.00,14,178.00,14.32,6.87,-3.00,0.00,-14.00,0,,,100,94,13,2,0,0,1,1,0,,,,,0.0,0.0,0.0,0.0,0.0,0.0,0
-22.959731,-67.786901,17.90,0.00,1.33,0.71,17.90,17.90,3.50,0.85,7242,2025-11-28 17:19:13.686,2025-11-28 14:19:13.686,14,0,0,45.085,-22.959727,-67.786907,-0.30,0.00,-1.30,1.70,1.30,131.10,0,1,0,98,91,-64595,14659,45085,2931.50,39,WP,1,0,0,0,0,0,0,1764350353685,3638,3657,3671,3656,3649,3643,18,,,,,,,0,0,0,-17.00,13.00,1311.00,0.00,0.00,62.00,14,179.00,13.34,7.08,-3.00,0.00,-13.00,0,,,100,94,13,2,0,0,1,1,0,,,,,0.0,0.0,0.0,0.0,0.0,0.0,0
-22.959731,-67.786901,18.10,0.00,1.22,0.72,18.10,18.10,3.50,0.85,7344,2025-11-28 17:19:13.787,2025-11-28 14:19:13.787,14,0,0,45.085,-22.959727,-67.786907,-0.20,0.00,-1.20,1.50,1.00,131.10,0,1,0,98,91,-64595,14659,45085,2931.50,39,WP,1,0,0,0,0,0,0,1764350353787,3638,3657,3671,3656,3649,3643,18,,,,,,,0,0,0,-15.00,10.00,1311.00,0.00,0.00,63.00,14,181.00,12.17,7.24,-2.00,0.00,-12.00,0,,,100,94,13,2,0,0,1,1,0,,,,,0.0,0.0,0.0,0.0,0.0,0.0,0
-22.959731,-67.786901,18.20,0.00,1.12,0.75,18.20,18.20,3.50,0.85,7451,2025-11-28 17:19:13.895,2025-11-28 14:19:13.895,14,0,0,45.085,-22.959727,-67.786907,-0.20,0.00,-1.10,1.40,1.00,131.10,0,1,0,98,91,-64595,14659,45085,2931.50,39,WP,1,0,0,0,0,0,0,1764350353894,3638,3657,3671,3656,3649,3643,18,,,,,,,0,0,0,-14.00,10.00,1311.00,0.00,0.00,62.00,14,182.00,11.18,7.46,-2.00,0.00,-11.00,0,,,100,98,13,2,0,0,1,1,0,,,,,0.0,0.0,0.0,0.0,0.0,0.0,0
-22.959731,-67.786901,18.30,0.00,1.12,0.76,18.30,18.30,3.50,0.85,7552,2025-11-28 17:19:13.995,2025-11-28 14:19:13.995,14,0,0,45.085,-22.959727,-67.786907,-0.20,0.00,-1.10,1.80,1.30,131.10,0,1,0,98,91,-64595,14659,45085,2931.50,39,WP,1,0,0,0,0,0,0,1764350353995,3638,3657,3671,3656,3649,3643,18,,,,,,,0,0,0,-18.00,13.00,1311.00,0.00,0.00,62.00,14,183.00,11.18,7.64,-2.00,0.00,-11.00,0,,,100,98,13,2,0,0,1,1,0,,,,,0.0,0.0,0.0,0.0,0.0,0.0,0
-22.959732,-67.786900,18.50,0.00,1.10,0.79,18.50,18.50,3.50,0.85,7643,2025-11-28 17:19:14.087,2025-11-28 14:19:14.087,14,0,0,45.085,-22.959727,-67.786907,-0.10,0.00,-1.10,2.20,1.90,131.00,0,1,0,98,91,-64595,14659,45085,2931.50,39,WP,1,0,0,0,0,0,0,1764350354086,3638,3657,3671,3656,3649,3643,18,,,,,,,0,0,0,-22.00,19.00,1310.00,0.00,0.00,62.00,14,185.00,11.05,7.86,-1.00,0.00,-11.00,0,,,100,98,13,2,0,0,1,1,0,,,,,0.0,0.0,0.0,0.0,0.0,0.0,0
-22.959732,-67.786900,18.60,0.00,1.10,0.79,18.60,18.60,3.50,0.85,7752,2025-11-28 17:19:14.195,2025-11-28 14:19:14.195,14,0,0,45.085,-22.959727,-67.786907,-0.10,0.00,-1.10,2.40,2.30,131.00,0,1,0,98,91,-64595,14659,45085,2931.50,39,WP,1,0,0,0,0,0,0,1764350354195,3638,3657,3671,3656,3649,3643,18,,,,,,,0,0,0,-24.00,23.00,1310.00,0.00,0.00,63.00,14,186.00,11.05,7.94,-1.00,0.00,-11.00,0,,,100,98,13,2,0,0,1,1,0,,,,,0.0,0.0,0.0,0.0,0.0,0.0,0
-22.959732,-67.786900,18.70,0.00,1.20,0.81,18.70,18.70,3.50,0.85,7849,2025-11-28 17:19:14.292,2025-11-28 14:19:14.292,14,0,0,45.085,-22.959727,-67.786907,-0.10,0.00,-1.20,2.50,2.80,131.10,0,1,0,98,91,-64595,14659,45085,2931.50,39,WP,1,0,0,0,0,0,0,1764350354292,3638,3657,3671,3656,3649,3643,18,,,,,,,0,0,0,-25.00,28.00,1311.00,0.00,0.00,62.00,14,187.00,12.04,8.07,-1.00,0.00,-12.00,0,,,100,98,13,2,0,0,1,1,0,,,,,0.0,0.0,0.0,0.0,0.0,0.0,0
-22.959732,-67.786900,18.90,0.00,1.10,0.81,18.90,18.90,3.50,0.85,7944,2025-11-28 17:19:14.388,2025-11-28 14:19:14.388,14,0,0,45.085,-22.959727,-67.786907,-0.10,0.00,-1.10,2.40,2.80,131.10,0,1,0,98,91,-64595,14659,45085,2931.50,39,WP,1,0,0,0,0,0,0,1764350354387,3638,3657,3671,3656,3649,3643,18,,,,,,,0,0,0,-24.00,28.00,1311.00,0.00,0.00,62.00,14,189.00,11.05,8.10,-1.00,0.00,-11.00,0,,,100,100,13,2,0,0,1,1,0,,,,,0.0,0.0,0.0,0.0,0.0,0.0,0
-22.959732,-67.786900,19.00,0.00,1.10,0.82,19.00,19.00,3.50,0.85,8048,2025-11-28 17:19:14.492,2025-11-28 14:19:14.492,14,0,0,45.085,-22.959727,-67.786907,-0.10,0.00,-1.10,2.30,2.60,131.10,0,1,0,98,91,-64595,14659,45085,2931.50,39,WP,1,0,0,0,0,0,0,1764350354491,3638,3657,3671,3656,3649,3643,18,,,,,,,0,0,0,-23.00,26.00,1311.00,0.00,0.00,62.00,14,190.00,11.05,8.17,-1.00,0.00,-11.00,0,,,100,100,13,2,0,0,1,1,0,,,,,0.0,0.0,0.0,0.0,0.0,0.0,0
-22.959732,-67.786900,19.10,0.00,1.10,0.82,19.10,19.10,3.50,0.85,8151,2025-11-28 17:19:14.595,2025-11-28 14:19:14.595,14,0,0,45.085,-22.959727,-67.786907,-0.10,0.00,-1.10,2.20,2.40,131.00,0,1,0,98,91,-64595,14659,45085,2931.50,39,WP,1,0,0,0,0,0,0,1764350354594,3638,3657,3671,3656,3649,3643,18,,,,,,,0,0,0,-22.00,24.00,1310.00,0.00,0.00,62.00,14,191.00,11.05,8.16,-1.00,0.00,-11.00,0,,,100,100,13,2,0,0,1,1,0,,,,,0.0,0.0,0.0,0.0,0.0,0.0,0
-22.959732,-67.786900,19.30,0.00,1.00,0.82,19.30,19.30,3.50,0.85,8252,2025-11-28 17:19:14.696,2025-11-28 14:19:14.696,14,0,0,45.085,-22.959727,-67.786907,0.00,0.00,-1.00,2.20,2.50,131.00,0,1,0,97,91,-59323,14559,45085,2941.50,39,WP,1,0,0,0,0,0,0,1764350354695,3638,3657,3671,3656,3649,3643,18,,,,,,,0,0,0,-22.00,25.00,1310.00,0.00,0.00,63.00,14,193.00,10.00,8.22,0.00,0.00,-10.00,0,,,100,100,13,2,0,0,1,1,0,,,,,0.0,0.0,0.0,0.0,0.0,0.0,0
-22.959732,-67.786900,19.40,0.00,1.00,0.82,19.40,19.40,3.50,0.85,8349,2025-11-28 17:19:14.793,2025-11-28 14:19:14.793,14,0,0,45.085,-22.959727,-67.786907,0.00,0.00,-1.00,2.40,2.50,131.00,0,1,0,97,91,-59323,14559,45085,2941.50,39,WP,1,0,0,0,0,0,0,1764350354792,3638,3657,3671,3656,3649,3643,18,,,,,,,0,0,0,-24.00,25.00,1310.00,0.00,0.00,63.00,14,194.00,10.00,8.20,0.00,0.00,-10.00,0,,,100,100,13,2,0,0,1,1,0,,,,,0.0,0.0,0.0,0.0,0.0,0.0,0
-22.959732,-67.786900,19.60,0.00,0.70,0.82,19.60,19.60,3.50,0.85,8550,2025-11-28 17:19:14.993,2025-11-28 14:19:14.993,14,0,0,45.085,-22.959727,-67.786907,0.00,0.00,-0.70,3.20,2.50,126.80,0,1,0,97,91,-59323,14559,45085,2941.50,39,WP,1,0,0,0,0,0,0,1764350354993,3638,3657,3671,3656,3649,3643,18,,,,,,,0,0,0,-32.00,25.00,1268.00,0.00,0.00,79.00,14,196.00,7.00,8.20,0.00,0.00,-7.00,0,,,100,100,13,2,0,0,1,1,0,,,,,0.0,0.0,0.0,0.0,0.0,0.0,0
-22.959732,-67.786900,19.60,0.00,0.50,0.82,19.60,19.60,3.50,0.85,8653,2025-11-28 17:19:15.097,2025-11-28 14:19:15.097,14,0,0,45.085,-22.959727,-67.786907,0.00,0.00,-0.50,3.30,2.30,120.20,0,1,0,97,91,-59323,14559,45085,2941.50,39,WP,1,0,0,0,0,0,0,1764350355096,3638,3657,3671,3656,3649,3643,18,,,,,,,0,0,0,-33.00,23.00,1202.00,0.00,0.00,79.00,14,196.00,5.00,8.21,0.00,0.00,-5.00,0,,,100,100,13,2,0,0,1,1,0,,,,,0.0,0.0,0.0,0.0,0.0,0.0,0
-22.959732,-67.786900,19.70,0.00,0.20,0.81,19.70,19.70,3.50,0.85,8752,2025-11-28 17:19:15.195,2025-11-28 14:19:15.195,14,0,0,45.085,-22.959727,-67.786907,0.00,0.00,-0.20,3.30,2.40,114.20,0,1,0,97,91,-59323,14559,45085,2941.50,39,WP,1,0,0,0,0,0,0,1764350355195,3638,3657,3671,3656,3649,3643,18,,,,,,,0,0,0,-33.00,24.00,1142.00,0.00,0.00,147.00,14,197.00,2.00,8.13,0.00,0.00,-2.00,0,,,100,100,13,2,0,0,1,1,0,,,,,0.0,0.0,0.0,0.0,0.0,0.0,0
-22.959732,-67.786900,19.70,0.00,0.10,0.81,19.70,19.70,3.50,0.85,8852,2025-11-28 17:19:15.296,2025-11-28 14:19:15.296,14,0,0,45.085,-22.959727,-67.786907,0.00,0.00,-0.10,2.90,2.40,109.50,0,1,0,97,91,-59323,14559,45085,2941.50,39,WP,1,0,0,0,0,0,0,1764350355295,3638,3657,3671,3656,3649,3643,18,,,,,,,0,0,0,-29.00,24.00,1095.00,0.00,1.00,147.00,14,197.00,1.00,8.09,0.00,0.00,-1.00,0,,,100,100,13,2,0,0,1,1,0,,,,,0.0,0.0,0.0,0.0,0.0,0.0,0
-22.959732,-67.786900,19.70,0.00,0.00,0.80,19.70,19.70,3.50,0.85,8956,2025-11-28 17:19:15.400,2025-11-28 14:19:15.400,14,0,0,45.085,-22.959727,-67.786907,0.00,0.00,0.00,2.50,2.60,106.50,0,1,0,97,91,-59323,14559,45085,2941.50,39,WP,1,0,0,0,0,0,0,1764350355399,3638,3657,3671,3656,3649,3643,18,,,,,,,0,0,0,-25.00,26.00,1065.00,0.00,0.00,130.00,14,197.00,0.00,7.97,0.00,0.00,0.00,0,,,100,100,13,2,0,0,1,1,0,,,,,0.0,0.0,0.0,0.0,0.0,0.0,0
-22.959732,-67.786900,19.70,0.00,0.10,0.79,19.70,19.70,3.50,0.85,9052,2025-11-28 17:19:15.496,2025-11-28 14:19:15.496,14,0,0,45.085,-22.959727,-67.786907,0.00,0.00,0.10,1.70,2.50,104.60,0,1,0,97,91,-59323,14559,45085,2941.50,39,WP,1,0,0,0,0,0,0,1764350355495,3638,3657,3671,3656,3649,3643,18,,,,,,,0,0,0,-17.00,25.00,1046.00,0.00,0.00,106.00,14,197.00,1.00,7.92,0.00,0.00,1.00,0,,,100,100,13,2,0,0,1,1,0,,,,,0.0,0.0,0.0,0.0,0.0,0.0,0
-22.959732,-67.786900,19.70,0.00,0.10,0.79,19.70,19.70,3.50,0.85,9167,2025-11-28 17:19:15.611,2025-11-28 14:19:15.611,14,0,0,45.085,-22.959727,-67.786907,0.00,0.00,0.10,0.60,2.40,103.90,0,1,0,97,91,-59323,14559,45085,2941.50,39,WP,1,0,0,0,0,0,0,1764350355610,3638,3657,3671,3656,3649,3643,18,,,,,,,0,0,0,-6.00,24.00,1039.00,0.00,0.00,90.00,14,197.00,1.00,7.90,0.00,0.00,1.00,0,,,100,100,13,2,0,0,1,1,0,,,,,0.0,0.0,0.0,0.0,0.0,0.0,0
-22.959732,-67.786900,19.70,0.00,0.14,0.80,19.70,19.70,3.50,0.85,9257,2025-11-28 17:19:15.701,2025-11-28 14:19:15.701,14,0,0,45.085,-22.959727,-67.786907,0.00,0.10,0.10,-1.30,2.30,103.50,0,1,0,97,91,-59323,14559,45085,2941.50,39,WP,1,0,0,0,0,0,0,1764350355700,3638,3657,3671,3656,3649,3643,18,,,,,,,0,0,0,13.00,23.00,1035.00,0.00,0.00,84.00,14,197.00,1.41,7.97,0.00,1.00,1.00,0,,,100,100,13,2,0,0,1,1,0,,,,,0.0,0.0,0.0,0.0,0.0,0.0,0
-22.959732,-67.786900,19.70,0.00,0.14,0.81,19.70,19.70,3.50,0.85,9360,2025-11-28 17:19:15.803,2025-11-28 14:19:15.803,14,0,0,45.085,-22.959727,-67.786907,0.00,0.10,0.10,-3.40,1.90,103.30,0,1,0,97,91,-59323,14559,45085,2941.50,39,WP,1,0,0,0,0,0,0,1764350355803,3638,3657,3671,3656,3649,3643,18,,,,,,,0,0,0,34.00,19.00,1033.00,0.00,0.00,77.00,14,197.00,1.41,8.14,0.00,1.00,1.00,0,,,100,100,13,2,0,0,1,1,0,,,,,0.0,0.0,0.0,0.0,0.0,0.0,0
-22.959732,-67.786900,19.70,0.00,0.32,0.84,19.70,19.70,3.50,0.85,9463,2025-11-28 17:19:15.907,2025-11-28 14:19:15.907,14,0,0,45.085,-22.959727,-67.786907,0.00,0.30,0.10,-5.40,1.30,103.30,0,1,0,97,91,-59323,14559,45085,2941.50,39,WP,1,0,0,0,0,0,0,1764350355906,3638,3657,3671,3656,3649,3643,18,,,,,,,0,0,0,54.00,13.00,1033.00,0.00,0.00,69.00,14,197.00,3.16,8.42,0.00,3.00,1.00,0,,,100,99,13,2,0,0,1,1,0,,,,,0.0,0.0,0.0,0.0,0.0,0.0,0
-22.959732,-67.786899,19.70,0.00,0.42,0.89,19.70,19.70,3.50,0.89,9567,2025-11-28 17:19:16.010,2025-11-28 14:19:16.010,14,0,0,45.085,-22.959727,-67.786907,-0.10,0.40,0.10,-6.60,0.70,103.40,0,1,0,97,91,-59323,14559,45085,2941.50,39,WP,1,0,0,0,0,0,0,1764350356010,3638,3657,3671,3656,3649,3643,18,,,,,,,0,0,0,66.00,7.00,1034.00,0.00,0.00,61.00,14,197.00,4.24,8.93,-1.00,4.00,1.00,0,,,100,99,13,2,0,0,1,1,0,,,,,0.0,0.0,0.0,0.0,0.0,0.0,0
-22.959732,-67.786898,19.70,0.00,0.81,1.05,19.70,19.70,3.50,1.05,9765,2025-11-28 17:19:16.209,2025-11-28 14:19:16.209,14,0,0,45.085,-22.959727,-67.786907,-0.10,0.80,0.10,-7.90,0.20,103.30,0,1,0,97,91,-59323,14559,45085,2941.50,39,WP,1,0,0,0,0,0,0,1764350356208,3638,3657,3671,3656,3649,3643,18,,,,,,,0,0,0,79.00,2.00,1033.00,0.00,0.00,48.00,14,197.00,8.12,10.50,-1.00,8.00,1.00,0,,,100,99,13,2,0,0,1,1,0,,,,,0.0,0.0,0.0,0.0,0.0,0.0,0
-22.959732,-67.786897,19.70,0.00,1.00,1.16,19.70,19.70,3.50,1.16,9868,2025-11-28 17:19:16.311,2025-11-28 14:19:16.311,14,0,0,45.085,-22.959727,-67.786907,-0.10,1.00,0.00,-8.40,0.70,103.30,0,1,0,97,91,-59323,14559,45085,2941.50,39,WP,1,0,0,0,0,0,0,1764350356311,3638,3657,3671,3656,3649,3643,18,,,,,,,0,0,0,84.00,7.00,1033.00,0.00,0.00,42.00,14,197.00,10.05,11.58,-1.00,10.00,0.00,0,,,100,99,13,2,0,0,1,1,0,,,,,0.0,0.0,0.0,0.0,0.0,0.0,0
-22.959732,-67.786895,19.70,0.00,1.20,1.29,19.70,19.70,3.50,1.29,9959,2025-11-28 17:19:16.403,2025-11-28 14:19:16.403,14,0,0,45.085,-22.959727,-67.786907,-0.10,1.20,0.00,-9.20,1.50,103.20,0,1,0,97,91,-59323,14559,45085,2941.50,39,WP,1,0,0,0,0,0,0,1764350356402,3638,3657,3671,3656,3649,3643,18,,,,,,,0,0,0,92.00,15.00,1032.00,0.00,0.00,38.00,14,197.00,12.04,12.93,-1.00,12.00,0.00,0,,,100,99,13,2,0,0,1,1,0,,,,,0.0,0.0,0.0,0.0,0.0,0.0,0
-22.959732,-67.786894,19.70,0.00,1.41,1.45,19.70,19.70,3.50,1.45,10066,2025-11-28 17:19:16.509,2025-11-28 14:19:16.509,14,0,0,45.085,-22.959727,-67.786907,-0.10,1.40,-0.10,-10.00,2.70,102.90,0,1,0,97,91,-59323,14559,45085,2941.50,39,WP,1,0,0,0,0,0,0,1764350356509,3638,3657,3671,3656,3649,3643,18,,,,,,,0,0,0,100.00,27.00,1029.00,0.00,0.00,35.00,14,197.00,14.07,14.46,-1.00,14.00,-1.00,0,,,100,99,13,2,0,0,1,1,0,,,,,0.0,0.0,0.0,0.0,0.0,0.0,0
-22.959732,-67.786892,19.70,0.00,1.61,1.63,19.70,19.70,3.50,1.63,10168,2025-11-28 17:19:16.611,2025-11-28 14:19:16.612,14,0,0,45.085,-22.959727,-67.786907,-0.10,1.60,-0.10,-10.90,3.40,102.80,0,1,0,97,91,-59323,14559,45085,2941.50,39,WP,1,0,0,0,0,0,0,1764350356611,3638,3657,3671,3656,3649,3643,18,,,,,,,0,0,0,109.00,34.00,1028.00,0.00,0.00,33.00,14,197.00,16.06,16.35,-1.00,16.00,-1.00,0,,,100,99,13,2,0,0,1,1,0,,,,,0.0,0.0,0.0,0.0,0.0,0.0,0
-22.959733,-67.786889,19.80,0.00,1.91,1.84,19.80,19.80,3.50,1.84,10268,2025-11-28 17:19:16.712,2025-11-28 14:19:16.712,14,0,0,45.085,-22.959727,-67.786907,-0.20,1.90,-0.10,-11.60,3.40,102.70,0,1,0,97,91,-59323,14559,45085,2941.50,39,WP,1,0,0,0,0,0,0,1764350356711,3638,3657,3671,3656,3649,3643,18,,,,,,,0,0,0,116.00,34.00,1027.00,0.00,0.00,29.00,14,198.00,19.13,18.41,-2.00,19.00,-1.00,0,,,100,99,13,2,0,0,1,1,0,,,,,0.0,0.0,0.0,0.0,0.0,0.0,0
-22.959733,-67.786887,19.80,0.00,2.11,2.09,19.80,19.80,3.50,2.09,10367,2025-11-28 17:19:16.810,2025-11-28 14:19:16.810,14,0,0,45.085,-22.959727,-67.786907,-0.20,2.10,-0.10,-12.10,3.10,102.80,0,1,0,97,91,-59323,14559,45085,2941.50,39,WP,1,0,0,0,0,0,0,1764350356810,3638,3657,3671,3656,3649,3643,18,,,,,,,0,0,0,121.00,31.00,1028.00,0.00,0.00,27.00,14,198.00,21.12,20.92,-2.00,21.00,-1.00,0,,,100,99,13,2,0,0,1,1,0,,,,,0.0,0.0,0.0,0.0,0.0,0.0,0
-22.959733,-67.786884,19.80,0.00,2.32,2.36,19.80,19.80,3.50,2.36,10464,2025-11-28 17:19:16.907,2025-11-28 14:19:16.908,14,0,0,45.085,-22.959727,-67.786907,-0.30,2.30,-0.10,-12.20,2.90,103.00,0,1,0,97,91,-59323,14559,45085,2941.50,39,WP,1,0,0,0,0,0,0,1764350356907,3638,3657,3671,3656,3649,3643,18,,,,,,,0,0,0,122.00,29.00,1030.00,0.00,0.00,21.00,14,198.00,23.22,23.58,-3.00,23.00,-1.00,0,,,100,98,13,2,0,0,1,1,0,,,,,0.0,0.0,0.0,0.0,0.0,0.0,0
-22.959733,-67.786881,19.80,0.00,2.62,2.66,19.80,19.80,3.50,2.66,10568,2025-11-28 17:19:17.011,2025-11-28 14:19:17.011,14,0,0,45.085,-22.959727,-67.786907,-0.30,2.60,0.00,-12.00,3.00,103.20,0,1,0,97,91,-59323,14559,45085,2941.50,39,WP,1,0,0,0,0,0,0,1764350357011,3638,3657,3671,3656,3649,3643,18,,,,,,,0,0,0,120.00,30.00,1032.00,0.00,0.00,16.00,14,198.00,26.17,26.61,-3.00,26.00,0.00,0,,,100,98,13,2,0,0,1,1,0,,,,,0.0,0.0,0.0,0.0,0.0,0.0,0
-22.959733,-67.786878,19.80,0.00,2.82,2.98,19.80,19.80,3.50,2.98,10667,2025-11-28 17:19:17.111,2025-11-28 14:19:17.111,14,0,0,45.085,-22.959727,-67.786907,-0.30,2.80,0.00,-11.50,3.30,103.10,0,1,0,97,91,-59323,14559,45085,2941.50,39,WP,1,0,0,0,0,0,0,1764350357110,3638,3657,3671,3656,3649,3643,18,,,,,,,0,0,0,115.00,33.00,1031.00,0.00,0.00,13.00,14,198.00,28.16,29.79,-3.00,28.00,0.00,0,,,100,98,13,2,0,0,1,1,0,,,,,0.0,0.0,0.0,0.0,0.0,0.0,0
-22.959733,-67.786875,19.80,0.00,3.03,3.33,19.80,19.80,3.50,3.33,10767,2025-11-28 17:19:17.211,2025-11-28 14:19:17.211,14,0,0,45.085,-22.959727,-67.786907,-0.40,3.00,0.00,-11.20,3.80,103.10,0,1,0,97,91,-59323,14559,45085,2941.50,39,WP,1,0,0,0,0,0,0,1764350357210,3638,3657,3671,3656,3649,3643,18,,,,,,,0,0,0,112.00,38.00,1031.00,0.00,0.00,11.00,14,198.00,30.27,33.25,-4.00,30.00,0.00,0,,,100,98,13,2,0,0,1,1,0,,,,,0.0,0.0,0.0,0.0,0.0,0.0,0
-22.959734,-67.786871,19.80,0.00,3.32,3.69,19.80,19.80,3.50,3.69,10870,2025-11-28 17:19:17.314,2025-11-28 14:19:17.314,14,0,0,45.085,-22.959727,-67.786907,-0.40,3.30,0.00,-11.60,4.50,103.00,0,1,0,97,91,-59323,14559,45085,2941.50,39,WP,1,0,0,0,0,0,0,1764350357313,3638,3657,3671,3656,3649,3643,18,,,,,,,0,0,0,116.00,45.00,1030.00,0.00,0.00,9.00,14,198.00,33.24,36.87,-4.00,33.00,0.00,0,,,100,98,13,2,0,0,1,1,0,,,,,0.0,0.0,0.0,0.0,0.0,0.0,0
-22.959734,-67.786867,19.80,0.00,3.54,4.09,19.80,19.80,3.54,4.09,10967,2025-11-28 17:19:17.410,2025-11-28 14:19:17.410,13,0,0,45.085,-22.959727,-67.786907,-0.50,3.50,0.00,-12.80,5.10,102.90,0,1,0,97,91,-59323,14559,45085,2941.50,39,WP,1,0,0,0,0,0,0,1764350357410,3638,3657,3671,3656,3649,3643,18,,,,,,,0,0,0,128.00,51.00,1029.00,0.00,0.00,8.00,14,198.00,35.36,40.89,-5.00,35.00,0.00,0,,,100,98,13,2,0,0,1,1,0,,,,,0.0,0.0,0.0,0.0,0.0,0.0,0
-22.959734,-67.786863,19.80,0.00,3.73,4.51,19.80,19.80,3.73,4.51,11069,2025-11-28 17:19:17.512,2025-11-28 14:19:17.512,13,0,0,45.085,-22.959727,-67.786907,-0.50,3.70,0.00,-13.80,5.40,102.90,0,1,0,97,91,-59323,14559,45085,2941.50,39,WP,1,0,0,0,0,0,0,1764350357512,3638,3657,3671,3656,3649,3643,18,,,,,,,0,0,0,138.00,54.00,1029.00,0.00,0.00,8.00,14,198.00,37.34,45.06,-5.00,37.00,0.00,0,,,100,98,13,2,0,0,1,1,0,,,,,0.0,0.0,0.0,0.0,0.0,0.0,0
-22.959735,-67.786859,19.80,0.00,4.04,4.98,19.80,19.80,4.04,4.98,11173,2025-11-28 17:19:17.616,2025-11-28 14:19:17.616,13,0,0,45.085,-22.959727,-67.786907,-0.60,4.00,0.00,-14.10,5.40,103.00,0,1,0,97,91,-59323,14559,45085,2941.50,39,WP,1,0,0,0,0,0,0,1764350357616,3638,3657,3671,3656,3649,3643,18,,,,,,,0,0,0,141.00,54.00,1030.00,0.00,0.00,4.00,14,198.00,40.45,49.78,-6.00,40.00,0.00,0,,,100,98,13,2,0,0,1,1,0,,,,,0.0,0.0,0.0,0.0,0.0,0.0,0
-22.959735,-67.786854,19.80,0.00,4.26,5.46,19.80,19.80,4.26,5.46,11272,2025-11-28 17:19:17.716,2025-11-28 14:19:17.716,13,0,0,45.085,-22.959727,-67.786907,-0.70,4.20,0.00,-13.90,5.00,103.10,0,1,0,97,91,-59323,14559,45085,2941.50,39,WP,1,0,0,0,0,0,0,1764350357715,3638,3657,3671,3656,3649,3643,18,,,,,,,0,0,0,139.00,50.00,1031.00,0.00,0.00,0.00,14,198.00,42.58,54.59,-7.00,42.00,0.00,0,,,100,98,13,2,0,0,1,1,0,,,,,0.0,0.0,0.0,0.0,0.0,0.0,0
-22.959736,-67.786849,19.80,0.00,4.57,5.97,19.80,19.80,4.57,5.97,11370,2025-11-28 17:19:17.813,2025-11-28 14:19:17.813,14,0,0,45.085,-22.959727,-67.786907,-0.80,4.50,0.00,-14.00,4.60,103.10,0,1,0,97,91,-59323,14559,45085,2941.50,39,WP,1,0,0,0,0,0,0,1764350357813,3638,3657,3671,3656,3649,3643,18,,,,,,,0,0,0,140.00,46.00,1031.00,0.00,0.00,0.00,14,198.00,45.71,59.69,-8.00,45.00,0.00,0,,,100,98,13,2,0,0,1,1,0,,,,,0.0,0.0,0.0,0.0,0.0,0.0,0
-22.959737,-67.786844,19.80,0.00,4.87,6.50,19.80,19.80,4.87,6.50,11481,2025-11-28 17:19:17.925,2025-11-28 14:19:17.925,14,0,0,45.085,-22.959727,-67.786907,-0.80,4.80,0.10,-14.00,4.80,102.90,0,1,0,97,91,-59323,14559,45085,2941.50,39,WP,1,0,0,0,0,0,0,1764350357924,3638,3657,3671,3656,3649,3643,18,,,,,,,0,0,0,140.00,48.00,1029.00,0.00,0.00,0.00,14,198.00,48.67,64.97,-8.00,48.00,1.00,0,,,100,99,13,2,0,0,1,1,0,,,,,0.0,0.0,0.0,0.0,0.0,0.0,0
-22.959737,-67.786838,19.80,0.00,5.18,7.08,19.80,19.80,5.18,7.08,11584,2025-11-28 17:19:18.027,2025-11-28 14:19:18.027,14,0,0,45.085,-22.959727,-67.786907,-0.90,5.10,0.00,-12.10,5.40,103.00,0,1,0,97,91,-59323,14559,45085,2941.50,39,WP,1,0,0,0,0,0,0,1764350358027,3638,3657,3671,3656,3649,3643,18,,,,,,,0,0,0,121.00,54.00,1030.00,0.00,0.00,-2.00,14,198.00,51.79,70.84,-9.00,51.00,0.00,0,,,100,99,13,2,0,0,1,1,0,,,,,0.0,0.0,0.0,0.0,0.0,0.0,0
-22.959738,-67.786833,19.80,0.00,5.39,7.68,19.80,19.80,5.39,7.68,11672,2025-11-28 17:19:18.116,2025-11-28 14:19:18.116,14,0,0,45.085,-22.959727,-67.786907,-1.00,5.30,0.00,-9.60,6.40,103.10,0,1,0,97,91,-59323,14559,45085,2941.50,39,WP,1,0,0,0,0,0,0,1764350358115,3638,3657,3671,3656,3649,3643,18,,,,,,,0,0,0,96.00,64.00,1031.00,0.00,0.00,-5.00,14,198.00,53.94,76.79,-10.00,53.00,0.00,0,,,100,99,13,2,0,0,1,1,0,,,,,0.0,0.0,0.0,0.0,0.0,0.0,0
-22.959739,-67.786826,19.80,0.00,5.71,8.32,19.80,19.80,5.71,8.32,11776,2025-11-28 17:19:18.219,2025-11-28 14:19:18.219,13,0,0,45.085,-22.959727,-67.786907,-1.10,5.60,0.00,-8.20,7.20,103.10,0,1,0,97,91,-59323,14559,45085,2941.50,39,WP,1,0,0,0,0,0,0,1764350358219,3638,3657,3671,3656,3649,3643,18,,,,,,,0,0,0,82.00,72.00,1031.00,0.00,0.00,-7.00,14,198.00,57.07,83.23,-11.00,56.00,0.00,0,,,100,99,13,2,0,0,1,1,0,,,,,0.0,0.0,0.0,0.0,0.0,0.0,0
-22.959740,-67.786820,19.80,0.00,5.90,8.96,19.80,19.80,5.90,8.96,11885,2025-11-28 17:19:18.328,2025-11-28 14:19:18.328,13,0,0,45.085,-22.959727,-67.786907,-1.10,5.80,0.00,-8.30,7.50,102.70,0,1,0,97,91,-59323,14559,45085,2941.50,39,WP,1,0,0,0,0,0,0,1764350358328,3638,3657,3671,3656,3649,3643,18,,,,,,,0,0,0,83.00,75.00,1027.00,0.00,0.00,-8.00,14,198.00,59.03,89.64,-11.00,58.00,0.00,0,,,100,99,13,2,0,0,1,1,0,,,,,0.0,0.0,0.0,0.0,0.0,0.0,0
-22.959741,-67.786814,19.80,0.00,6.02,9.62,19.80,19.80,6.02,9.62,11979,2025-11-28 17:19:18.423,2025-11-28 14:19:18.423,14,0,0,45.085,-22.959727,-67.786907,-1.20,5.90,0.00,-9.00,7.20,102.40,0,1,0,97,91,-59323,14559,45085,2941.50,39,WP,1,0,0,0,0,0,0,1764350358422,3638,3657,3671,3656,3649,3643,18,,,,,,,0,0,0,90.00,72.00,1024.00,0.00,0.00,-6.00,14,198.00,60.21,96.21,-12.00,59.00,0.00,0,,,100,99,13,2,0,0,1,1,0,,,,,0.0,0.0,0.0,0.0,0.0,0.0,0
-22.959742,-67.786808,19.80,0.00,6.24,10.28,19.80,19.80,6.24,10.28,12084,2025-11-28 17:19:18.528,2025-11-28 14:19:18.528,14,0,0,45.831,-22.959727,-67.786907,-1.30,6.10,-0.10,-9.90,6.50,102.20,0,1,0,97,91,-57443,14559,45831,2941.50,39,WP,1,0,0,0,0,0,0,1764350358527,3638,3657,3671,3656,3649,3643,18,,,,,,,0,0,0,99.00,65.00,1022.00,0.00,0.00,-5.00,14,198.00,62.38,102.85,-13.00,61.00,-1.00,0,,,100,99,13,2,0,0,1,1,0,,,,,0.0,0.0,0.0,0.0,0.0,0.0,0
-22.959743,-67.786801,19.80,0.00,6.55,11.01,19.80,19.80,6.55,11.01,12185,2025-11-28 17:19:18.628,2025-11-28 14:19:18.628,14,0,0,45.831,-22.959727,-67.786907,-1.40,6.40,-0.10,-10.70,5.90,102.40,0,1,0,97,91,-57443,14559,45831,2941.50,39,WP,1,0,0,0,0,0,0,1764350358628,3638,3657,3671,3656,3649,3643,18,,,,,,,0,0,0,107.00,59.00,1024.00,0.00,0.00,-6.00,14,198.00,65.52,110.09,-14.00,64.00,-1.00,0,,,100,99,13,2,0,0,1,1,0,,,,,0.0,0.0,0.0,0.0,0.0,0.0,0
-22.959745,-67.786794,19.80,0.00,6.75,11.74,19.80,19.80,6.75,11.74,12281,2025-11-28 17:19:18.725,2025-11-28 14:19:18.725,14,0,0,45.831,-22.959727,-67.786907,-1.40,6.60,0.00,-10.50,5.90,102.50,0,1,0,97,91,-57443,14559,45831,2941.50,39,WP,1,0,0,0,0,0,0,1764350358724,3638,3657,3671,3656,3649,3643,18,,,,,,,0,0,0,105.00,59.00,1025.00,0.00,0.00,-9.00,14,198.00,67.47,117.36,-14.00,66.00,0.00,0,,,100,99,13,2,0,0,1,1,0,,,,,0.0,0.0,0.0,0.0,0.0,0.0,0
-22.959746,-67.786786,19.80,0.00,6.96,12.53,19.80,19.80,6.96,12.53,12383,2025-11-28 17:19:18.827,2025-11-28 14:19:18.827,14,0,0,45.831,-22.959727,-67.786907,-1.50,6.80,0.00,-10.00,6.10,102.70,0,1,0,97,91,-57443,14559,45831,2941.50,39,WP,1,0,0,0,0,0,0,1764350358826,3638,3657,3671,3656,3649,3643,18,,,,,,,0,0,0,100.00,61.00,1027.00,0.00,0.00,-13.00,14,198.00,69.63,125.27,-15.00,68.00,0.00,0,,,100,99,13,2,0,0,1,1,0,,,,,0.0,0.0,0.0,0.0,0.0,0.0,0
-22.959749,-67.786771,19.80,0.00,7.50,14.12,19.80,19.80,7.50,14.12,12582,2025-11-28 17:19:19.025,2025-11-28 14:19:19.026,14,0,0,45.831,-22.959727,-67.786907,-1.70,7.30,0.00,-7.90,6.50,103.20,0,1,0,97,91,-57443,14559,45831,2941.50,39,WP,1,0,0,0,0,0,0,1764350359025,3638,3657,3671,3656,3649,3643,18,,,,,,,0,0,0,79.00,65.00,1032.00,0.00,0.00,-20.00,14,198.00,74.95,141.19,-17.00,73.00,0.00,0,,,100,94,13,2,0,0,1,1,0,,,,,0.0,0.0,0.0,0.0,0.0,0.0,0
-22.959751,-67.786763,19.80,0.00,7.69,14.93,19.80,19.80,7.69,14.93,12684,2025-11-28 17:19:19.127,2025-11-28 14:19:19.128,14,0,0,45.831,-22.959727,-67.786907,-1.70,7.50,0.00,-7.10,6.30,103.20,0,1,0,97,91,-57443,14559,45831,2941.50,39,WP,1,0,0,0,0,0,0,1764350359127,3638,3657,3671,3656,3649,3643,18,,,,,,,0,0,0,71.00,63.00,1032.00,0.00,0.00,-24.00,14,198.00,76.90,149.25,-17.00,75.00,0.00,0,,,100,94,13,2,0,0,1,1,0,,,,,0.0,0.0,0.0,0.0,0.0,0.0,0
-22.959752,-67.786755,19.80,0.00,7.81,15.78,19.80,19.80,7.81,15.78,12783,2025-11-28 17:19:19.226,2025-11-28 14:19:19.227,14,0,0,45.831,-22.959727,-67.786907,-1.80,7.60,0.00,-6.60,5.70,103.20,0,1,0,97,91,-57443,14559,45831,2941.50,39,WP,1,0,0,0,0,0,0,1764350359226,3638,3657,3671,3656,3649,3643,18,,,,,,,0,0,0,66.00,57.00,1032.00,0.00,0.00,-25.00,14,198.00,78.10,157.78,-18.00,76.00,0.00,0,,,100,94,13,2,0,0,1,1,0,,,,,0.0,0.0,0.0,0.0,0.0,0.0,0
-22.959754,-67.786747,19.80,0.00,8.03,16.62,19.80,19.80,8.03,16.62,12881,2025-11-28 17:19:19.324,2025-11-28 14:19:19.324,14,0,0,45.831,-22.959727,-67.786907,-1.90,7.80,0.00,-6.00,5.20,103.10,0,1,0,97,91,-57443,14559,45831,2941.50,39,WP,1,0,0,0,0,0,0,1764350359324,3638,3657,3671,3656,3649,3643,18,,,,,,,0,0,0,60.00,52.00,1031.00,0.00,0.00,-27.00,14,198.00,80.28,166.22,-19.00,78.00,0.00,0,,,100,94,13,2,0,0,1,1,0,,,,,0.0,0.0,0.0,0.0,0.0,0.0,0
-22.959756,-67.786739,19.80,0.00,8.13,17.48,19.80,19.80,8.13,17.48,12984,2025-11-28 17:19:19.427,2025-11-28 14:19:19.427,14,0,0,45.831,-22.959727,-67.786907,-1.90,7.90,0.00,-5.50,4.80,103.10,0,1,0,97,91,-57443,14559,45831,2941.50,39,WP,1,0,0,0,0,0,0,1764350359427,3638,3657,3671,3656,3649,3643,18,,,,,,,0,0,0,55.00,48.00,1031.00,0.00,0.00,-28.00,14,198.00,81.25,174.82,-19.00,79.00,0.00,0,,,100,92,13,2,0,0,1,1,0,,,,,0.0,0.0,0.0,0.0,0.0,0.0,0
-22.959757,-67.786731,19.80,0.00,8.22,18.34,19.80,19.80,8.22,18.34,13084,2025-11-28 17:19:19.528,2025-11-28 14:19:19.528,14,0,0,45.831,-22.959727,-67.786907,-1.90,8.00,0.00,-5.60,4.70,103.00,0,1,0,97,91,-57443,14559,45831,2941.50,39,WP,1,0,0,0,0,0,0,1764350359527,3638,3657,3671,3656,3649,3643,18,,,,,,,0,0,0,56.00,47.00,1030.00,0.00,0.00,-30.00,14,198.00,82.23,183.40,-19.00,80.00,0.00,0,,,100,92,13,2,0,0,1,1,0,,,,,0.0,0.0,0.0,0.0,0.0,0.0,0
-22.959759,-67.786722,19.80,0.00,8.34,19.24,19.80,19.80,8.34,19.24,13182,2025-11-28 17:19:19.625,2025-11-28 14:19:19.625,14,0,0,45.831,-22.959727,-67.786907,-2.00,8.10,0.00,-6.20,4.60,103.00,0,1,0,97,91,-57443,14559,45831,2941.50,39,WP,1,0,0,0,0,0,0,1764350359625,3638,3657,3671,3656,3649,3643,18,,,,,,,0,0,0,62.00,46.00,1030.00,0.00,0.00,-30.00,14,198.00,83.43,192.38,-20.00,81.00,0.00,0,,,100,92,13,2,0,0,1,1,0,,,,,0.0,0.0,0.0,0.0,0.0,0.0,0
-22.959761,-67.786714,19.80,0.00,8.44,20.13,19.80,19.80,8.44,20.13,13286,2025-11-28 17:19:19.729,2025-11-28 14:19:19.729,14,0,0,45.831,-22.959727,-67.786907,-2.00,8.20,0.00,-6.70,4.60,102.90,0,1,0,97,91,-57443,14559,45831,2941.50,39,WP,1,0,0,0,0,0,0,1764350359729,3638,3657,3671,3656,3649,3643,18,,,,,,,0,0,0,67.00,46.00,1029.00,0.00,0.00,-32.00,14,198.00,84.40,201.31,-20.00,82.00,0.00,0,,,100,92,13,2,0,0,1,1,0,,,,,0.0,0.0,0.0,0.0,0.0,0.0,0
-22.959763,-67.786705,19.80,0.00,8.63,21.03,19.80,19.80,8.63,21.03,13386,2025-11-28 17:19:19.830,2025-11-28 14:19:19.830,14,0,0,45.831,-22.959727,-67.786907,-2.00,8.40,0.00,-6.30,4.20,102.90,0,1,0,97,91,-57443,14559,45831,2941.50,39,WP,1,0,0,0,0,0,0,1764350359829,3638,3657,3671,3656,3649,3643,18,,,,,,,0,0,0,63.00,42.00,1029.00,0.00,0.00,-32.00,14,198.00,86.35,210.34,-20.00,84.00,0.00,0,,,100,92,13,2,0,0,1,1,0,,,,,0.0,0.0,0.0,0.0,0.0,0.0,0
-22.959765,-67.786697,19.80,0.00,8.76,21.94,19.80,19.80,8.76,21.94,13485,2025-11-28 17:19:19.929,2025-11-28 14:19:19.929,14,0,0,45.831,-22.959727,-67.786907,-2.10,8.50,0.00,-4.50,4.00,102.90,0,1,0,97,91,-57443,14559,45831,2941.50,39,WP,1,0,0,0,0,0,0,1764350359928,3638,3657,3671,3656,3649,3643,18,,,,,,,0,0,0,45.00,40.00,1029.00,0.00,0.00,-34.00,14,198.00,87.56,219.38,-21.00,85.00,0.00,0,,,100,92,13,2,0,0,1,1,0,,,,,0.0,0.0,0.0,0.0,0.0,0.0,0
-22.959767,-67.786688,19.80,0.00,8.85,22.88,19.80,19.80,8.85,22.88,13587,2025-11-28 17:19:20.031,2025-11-28 14:19:20.031,14,0,0,45.831,-22.959727,-67.786907,-2.10,8.60,0.00,-2.10,4.20,103.10,0,1,0,97,91,-57443,14559,45831,2941.50,39,WP,1,0,0,0,0,0,0,1764350360030,3638,3657,3671,3656,3649,3643,18,,,,,,,0,0,0,21.00,42.00,1031.00,0.00,0.00,-37.00,14,198.00,88.53,228.75,-21.00,86.00,0.00,0,,,100,92,13,2,0,0,1,1,0,,,,,0.0,0.0,0.0,0.0,0.0,0.0,0
-22.959769,-67.786679,19.80,0.00,8.95,23.80,19.80,19.80,8.95,23.80,13687,2025-11-28 17:19:20.131,2025-11-28 14:19:20.131,14,0,0,45.831,-22.959727,-67.786907,-2.10,8.70,0.00,0.40,4.50,103.40,0,1,0,97,91,-57443,14559,45831,2941.50,39,WP,1,0,0,0,0,0,0,1764350360130,3638,3657,3671,3656,3649,3643,18,,,,,,,0,0,0,-4.00,45.00,1034.00,0.00,0.00,-37.00,14,198.00,89.50,238.02,-21.00,87.00,0.00,0,,,100,92,13,2,0,0,1,1,0,,,,,0.0,0.0,0.0,0.0,0.0,0.0,0
-22.959771,-67.786670,19.90,0.00,8.85,24.70,19.90,19.90,8.95,24.70,13788,2025-11-28 17:19:20.232,2025-11-28 14:19:20.232,14,0,0,45.831,-22.959727,-67.786907,-2.10,8.60,0.00,2.90,4.90,103.60,0,1,0,97,91,-57443,14559,45831,2941.50,39,WP,1,0,0,0,0,0,0,1764350360231,3638,3657,3671,3656,3649,3643,18,,,,,,,0,0,0,-29.00,49.00,1036.00,0.00,0.00,-37.00,14,199.00,88.53,247.05,-21.00,86.00,0.00,0,,,100,92,13,2,0,0,1,1,0,,,,,0.0,0.0,0.0,0.0,0.0,0.0,0
-22.959773,-67.786662,19.90,0.00,8.85,25.60,19.90,19.90,8.95,25.60,13891,2025-11-28 17:19:20.334,2025-11-28 14:19:20.335,14,0,0,45.831,-22.959727,-67.786907,-2.10,8.60,0.00,4.80,4.90,103.70,0,1,0,97,91,-57443,14559,45831,2941.50,39,WP,1,0,0,0,0,0,0,1764350360334,3638,3657,3671,3656,3649,3643,18,,,,,,,0,0,0,-48.00,49.00,1037.00,0.00,0.00,-49.00,14,199.00,88.53,256.00,-21.00,86.00,0.00,0,,,100,92,13,2,0,0,1,1,0,,,,,0.0,0.0,0.0,0.0,0.0,0.0,0
-22.959774,-67.786654,19.90,0.00,8.76,26.45,19.90,19.90,8.95,26.45,13991,2025-11-28 17:19:20.435,2025-11-28 14:19:20.435,14,0,0,45.831,-22.959727,-67.786907,-2.10,8.50,0.00,5.80,4.80,103.80,0,1,0,97,91,-57443,14559,45831,2941.50,39,WP,1,0,0,0,0,0,0,1764350360434,3638,3657,3671,3656,3649,3643,18,,,,,,,0,0,0,-58.00,48.00,1038.00,0.00,0.00,-52.00,14,199.00,87.56,264.52,-21.00,85.00,0.00,0,,,100,95,13,2,0,0,1,1,0,,,,,0.0,0.0,0.0,0.0,0.0,0.0,0
