latitude,longitude,altitude(m),ultrasonicHeight(m),speed(mps),distance(m),max_altitude(m),max_ascent(m),max_speed(mps),max_distance(m),time(millisecond),datetime(utc),datetime(local),satellites,pressure(Pa),temperature(F),voltage(v),home_latitude,home_longitude,velocityX(mps),velocityY(mps),velocityZ(mps),pitch(deg),roll(deg),yaw(deg),powerlevel,isflying,istakingphoto,remainPowerPercent,remainLifePercent,currentCurrent,currentElectricity,currentVoltage,batteryTemperature,dischargeCount,flightmode,isMotorsOn,isTakingVideo,Rc_elevator,Rc_aileron,Rc_throttle,Rc_rudder,Rc_gyro,timestamp,Battery_Cell1,Battery_Cell2,Battery_Cell3,Battery_Cell4,Battery_Cell5,Battery_Cell6,Dronetype,AppVersion,Planename,FlyControllerSerialNumber,RemoteSerialNumber,BatterySerialNumber,CENTER_BATTERY.productDate,CENTER_BATTERY.serialNo,CENTER_BATTERY.fullCapacity,CENTER_BATTERY.productDateRaw,pitchRaw,rollRaw,yawRaw,gimbalPitchRaw,gimbalRollRaw,gimbalYawRaw,flyState,altitudeRaw,speedRaw,distanceRaw,velocityXRaw,velocityYRaw,velocityZRaw,data_reuse,App_Tip,App_Warning,downlinkSignalQuality,uplinkSignalQuality,transmissionChannel,rcModeSwitch,rcHome,rcPause,rcTransform,rcJoystickMode,appMode,FlyControllerSerialNumber_legacy,RemoteSerialNumber_legacy,BatterySerialNumber_legacy,Battery2SerialNumber,frontAvoidDist,backAvoidDist,rightAvoidDist,leftAvoidDist,upAvoidDist,downAvoidDist,isBrakingToAvoid
-22.959745,-67.786921,0.70,0.00,0.73,0.29,0.70,0.70,0.73,0.29,3,2025-12-01 16:01:15.094,2025-12-01 13:01:15.094,17,0,0,51.299,-22.959744,-67.786924,0.00,0.20,-0.70,1.60,-1.00,86.00,0,1,0,97,87,-674,14096,51299,2971.50,52,TakeOff,1,0,0,0,0,0,0,1764604875093,4277,4285,4281,4288,4284,4276,18,Litchi_iOS_2.15.7,EIK Matrice 1,0670131556,03LLCA05XT,,,0,14488,0,-16.00,-10.00,860.00,2.00,1.00,38.00,11,7.00,7.28,2.85,0.00,2.00,-7.00,0,,,100,100,19,2,0,0,1,1,0,(null),(null),,,0.0,0.0,0.0,0.0,0.0,0.0,0
-22.959745,-67.786921,0.70,0.00,0.71,0.31,0.70,0.70,0.73,0.31,103,2025-12-01 16:01:15.193,2025-12-01 13:01:15.193,18,0,0,51.253,-22.959744,-67.786924,0.00,0.10,-0.70,1.90,-1.00,86.00,0,1,0,97,87,-11773,14096,51253,2971.50,52,TakeOff,1,0,0,0,0,0,0,1764604875193,4277,4285,4281,4288,4284,4276,18,,,,,,,0,0,0,-19.00,-10.00,860.00,0.00,1.00,38.00,11,7.00,7.07,3.08,0.00,1.00,-7.00,0,,,100,100,19,2,0,0,1,1,0,,,,,0.0,0.0,0.0,0.0,0.0,0.0,0
-22.959745,-67.786920,0.80,0.00,0.61,0.34,0.80,0.80,0.73,0.34,203,2025-12-01 16:01:15.293,2025-12-01 13:01:15.293,18,0,0,51.253,-22.959744,-67.786924,0.00,0.10,-0.60,2.10,-1.10,86.10,0,1,0,97,87,-11773,14096,51253,2971.50,52,TakeOff,1,0,0,0,0,0,0,1764604875293,4277,4285,4281,4288,4284,4276,18,,,,,,,0,0,0,-21.00,-11.00,861.00,1.00,1.00,38.00,11,8.00,6.08,3.35,0.00,1.00,-6.00,0,,,100,100,19,2,0,0,1,1,0,,,,,0.0,0.0,0.0,0.0,0.0,0.0,0
-22.959745,-67.786920,0.80,0.00,0.51,0.36,0.80,0.80,0.73,0.36,299,2025-12-01 16:01:15.390,2025-12-01 13:01:15.390,18,0,0,51.253,-22.959744,-67.786924,0.00,0.10,-0.50,2.20,-1.40,86.10,0,1,0,97,87,-11773,14096,51253,2971.50,52,TakeOff,1,0,0,0,0,0,0,1764604875389,4277,4285,4281,4288,4284,4276,18,,,,,,,0,0,0,-22.00,-14.00,861.00,1.00,1.00,37.00,11,8.00,5.10,3.58,0.00,1.00,-5.00,0,,,100,100,19,2,0,0,1,1,0,,,,,0.0,0.0,0.0,0.0,0.0,0.0,0
-22.959744,-67.786920,0.90,0.00,0.51,0.37,0.90,0.90,0.73,0.37,415,2025-12-01 16:01:15.505,2025-12-01 13:01:15.506,18,0,0,51.253,-22.959744,-67.786924,0.00,0.10,-0.50,2.40,-1.80,86.20,0,1,0,97,87,-11773,14096,51253,2971.50,52,TakeOff,1,0,0,0,0,0,0,1764604875505,4277,4285,4281,4288,4284,4276,18,,,,,,,0,0,0,-24.00,-18.00,862.00,1.00,1.00,36.00,11,9.00,5.10,3.72,0.00,1.00,-5.00,0,,,100,100,19,2,0,0,1,1,0,,,,,0.0,0.0,0.0,0.0,0.0,0.0,0
-22.959744,-67.786920,1.00,0.00,0.40,0.38,1.00,1.00,0.73,0.38,506,2025-12-01 16:01:15.596,2025-12-01 13:01:15.596,18,0,0,51.253,-22.959744,-67.786924,0.00,0.00,-0.40,2.80,-2.00,86.20,0,1,0,97,87,-11773,14096,51253,2971.50,52,TakeOff,1,0,0,0,0,0,0,1764604875596,4277,4285,4281,4288,4284,4276,18,,,,,,,0,0,0,-28.00,-20.00,862.00,1.00,1.00,36.00,11,10.00,4.00,3.84,0.00,0.00,-4.00,0,,,100,100,19,2,0,0,1,1,0,,,,,0.0,0.0,0.0,0.0,0.0,0.0,0
-22.959744,-67.786920,1.00,0.00,0.40,0.38,1.00,1.00,0.73,0.38,607,2025-12-01 16:01:15.698,2025-12-01 13:01:15.698,18,0,0,51.253,-22.959744,-67.786924,0.00,0.00,-0.40,2.80,-1.80,86.20,0,1,0,97,87,-11773,14096,51253,2971.50,52,TakeOff,1,0,0,0,0,0,0,1764604875697,4277,4285,4281,4288,4284,4276,18,,,,,,,0,0,0,-28.00,-18.00,862.00,0.00,2.00,35.00,11,10.00,4.00,3.85,0.00,0.00,-4.00,0,,,100,100,19,2,0,0,1,1,0,,,,,0.0,0.0,0.0,0.0,0.0,0.0,0
-22.959744,-67.786920,1.10,0.00,0.30,0.39,1.10,1.10,0.73,0.39,704,2025-12-01 16:01:15.795,2025-12-01 13:01:15.795,18,0,0,51.253,-22.959744,-67.786924,0.00,0.00,-0.30,2.30,-1.20,86.20,0,1,0,97,87,-11773,14096,51253,2971.50,52,WP,1,0,0,0,0,0,0,1764604875794,4277,4285,4281,4288,4284,4276,18,,,,,,,0,0,0,-23.00,-12.00,862.00,1.00,1.00,35.00,14,11.00,3.00,3.87,0.00,0.00,-3.00,0,,,100,100,19,2,0,0,1,1,0,,,,,0.0,0.0,0.0,0.0,0.0,0.0,0
-22.959744,-67.786920,1.10,0.00,0.20,0.38,1.10,1.10,0.73,0.39,814,2025-12-01 16:01:15.905,2025-12-01 13:01:15.905,18,0,0,51.253,-22.959744,-67.786924,0.00,0.00,-0.20,1.50,-0.40,86.10,0,1,0,97,87,-11773,14096,51253,2971.50,52,WP,1,0,0,0,0,0,0,1764604875904,4277,4285,4281,4288,4284,4276,18,,,,,,,0,0,0,-15.00,-4.00,861.00,0.00,2.00,35.00,14,11.00,2.00,3.79,0.00,0.00,-2.00,0,,,100,100,19,2,0,0,1,1,0,,,,,0.0,0.0,0.0,0.0,0.0,0.0,0
-22.959744,-67.786920,1.10,0.00,0.10,0.37,1.10,1.10,0.73,0.39,916,2025-12-01 16:01:16.007,2025-12-01 13:01:16.007,18,0,0,51.253,-22.959744,-67.786924,0.00,0.00,-0.10,0.20,0.20,86.20,0,1,0,97,87,-11773,14096,51253,2971.50,52,WP,1,0,0,0,0,0,0,1764604876006,4277,4285,4281,4288,4284,4276,18,,,,,,,0,0,0,-2.00,2.00,862.00,0.00,2.00,36.00,14,11.00,1.00,3.72,0.00,0.00,-1.00,0,,,100,100,19,2,0,0,1,1,0,,,,,0.0,0.0,0.0,0.0,0.0,0.0,0
-22.959744,-67.786920,1.10,0.00,0.10,0.37,1.10,1.10,0.73,0.39,1009,2025-12-01 16:01:16.100,2025-12-01 13:01:16.100,18,0,0,51.253,-22.959744,-67.786924,0.00,0.00,-0.10,-0.20,0.50,86.20,0,1,0,97,87,-11773,14096,51253,2971.50,52,WP,1,0,0,0,0,0,0,1764604876099,4277,4285,4281,4288,4284,4276,18,,,,,,,0,0,0,2.00,5.00,862.00,0.00,1.00,36.00,14,11.00,1.00,3.71,0.00,0.00,-1.00,0,,,100,100,19,2,0,0,1,1,0,,,,,0.0,0.0,0.0,0.0,0.0,0.0,0
-22.959744,-67.786920,1.10,0.00,0.10,0.37,1.10,1.10,0.73,0.39,1115,2025-12-01 16:01:16.206,2025-12-01 13:01:16.206,18,0,0,51.253,-22.959744,-67.786924,0.00,0.00,-0.10,-0.30,0.50,86.20,0,1,0,97,87,-11773,14096,51253,2971.50,52,WP,1,0,0,0,0,0,0,1764604876205,4277,4285,4281,4288,4284,4276,18,,,,,,,0,0,0,3.00,5.00,862.00,0.00,1.00,36.00,14,11.00,1.00,3.75,0.00,0.00,-1.00,0,,,100,100,19,2,0,0,1,1,0,,,,,0.0,0.0,0.0,0.0,0.0,0.0,0
-22.959744,-67.786920,1.10,0.00,0.20,0.38,1.10,1.10,0.73,0.39,1217,2025-12-01 16:01:16.307,2025-12-01 13:01:16.307,18,0,0,51.253,-22.959744,-67.786924,0.00,0.00,-0.20,0.00,0.30,86.20,0,1,0,97,87,-11773,14096,51253,2971.50,52,WP,1,0,0,0,0,0,0,1764604876307,4277,4285,4281,4288,4284,4276,18,,,,,,,0,0,0,-0.00,3.00,862.00,0.00,1.00,36.00,14,11.00,2.00,3.83,0.00,0.00,-2.00,0,,,100,100,19,2,0,0,1,1,0,,,,,0.0,0.0,0.0,0.0,0.0,0.0,0
-22.959744,-67.786920,1.20,0.00,0.32,0.39,1.20,1.20,0.73,0.39,1311,2025-12-01 16:01:16.402,2025-12-01 13:01:16.402,18,0,0,51.253,-22.959744,-67.786924,0.00,0.10,-0.30,0.40,0.00,86.30,0,1,0,97,87,-11773,14096,51253,2971.50,52,WP,1,0,0,0,0,0,0,1764604876401,4277,4285,4281,4288,4284,4276,18,,,,,,,0,0,0,-4.00,0.00,863.00,1.00,1.00,35.00,14,12.00,3.16,3.94,0.00,1.00,-3.00,0,,,100,100,19,2,0,0,1,1,0,,,,,0.0,0.0,0.0,0.0,0.0,0.0,0
-22.959744,-67.786920,1.20,0.00,0.51,0.41,1.20,1.20,0.73,0.41,1409,2025-12-01 16:01:16.500,2025-12-01 13:01:16.500,18,0,0,51.253,-22.959744,-67.786924,0.00,0.10,-0.50,0.80,0.00,86.30,0,1,0,97,87,-11773,14096,51253,2971.50,52,WP,1,0,0,0,0,0,0,1764604876499,4277,4285,4281,4288,4284,4276,18,,,,,,,0,0,0,-8.00,0.00,863.00,1.00,1.00,35.00,14,12.00,5.10,4.08,0.00,1.00,-5.00,0,,,100,100,19,2,0,0,1,1,0,,,,,0.0,0.0,0.0,0.0,0.0,0.0,0
-22.959744,-67.786920,1.30,0.00,0.81,0.42,1.30,1.30,0.81,0.42,1515,2025-12-01 16:01:16.605,2025-12-01 13:01:16.606,18,0,0,51.253,-22.959744,-67.786924,0.00,0.10,-0.80,0.90,-0.10,86.30,0,1,0,97,87,-11773,14096,51253,2971.50,52,WP,1,0,0,0,0,0,0,1764604876605,4277,4285,4281,4288,4284,4276,18,,,,,,,0,0,0,-9.00,-1.00,863.00,1.00,1.00,34.00,14,13.00,8.06,4.19,0.00,1.00,-8.00,0,,,100,100,19,2,0,0,1,1,0,,,,,0.0,0.0,0.0,0.0,0.0,0.0,0
-22.959744,-67.786919,1.40,0.00,1.00,0.43,1.40,1.40,1.00,0.43,1613,2025-12-01 16:01:16.703,2025-12-01 13:01:16.704,18,0,0,51.253,-22.959744,-67.786924,0.00,0.10,-1.00,0.70,0.00,86.30,0,1,0,97,87,-11773,14096,51253,2971.50,52,WP,1,0,0,0,0,0,0,1764604876703,4277,4285,4281,4288,4284,4276,18,,,,,,,0,0,0,-7.00,0.00,863.00,1.00,1.00,35.00,14,14.00,10.05,4.32,0.00,1.00,-10.00,0,,,100,100,19,2,0,0,1,1,0,,,,,0.0,0.0,0.0,0.0,0.0,0.0,0
-22.959744,-67.786919,1.50,0.00,1.20,0.45,1.50,1.50,1.20,0.45,1712,2025-12-01 16:01:16.803,2025-12-01 13:01:16.803,18,0,0,51.253,-22.959744,-67.786924,0.00,0.10,-1.20,0.30,0.00,86.40,0,1,0,97,87,-11773,14096,51253,2971.50,52,WP,1,0,0,0,0,0,0,1764604876802,4277,4285,4281,4288,4284,4276,18,,,,,,,0,0,0,-3.00,0.00,864.00,1.00,1.00,34.00,14,15.00,12.04,4.48,0.00,1.00,-12.00,0,,,100,100,19,2,0,0,1,1,0,,,,,0.0,0.0,0.0,0.0,0.0,0.0,0
-22.959744,-67.786919,1.60,0.00,1.50,0.46,1.60,1.60,1.50,0.46,1817,2025-12-01 16:01:16.907,2025-12-01 13:01:16.907,18,0,0,51.253,-22.959744,-67.786924,0.00,0.10,-1.50,0.20,0.00,86.30,0,1,0,97,87,-11773,14096,51253,2971.50,52,WP,1,0,0,0,0,0,0,1764604876907,4277,4285,4281,4288,4284,4276,18,,,,,,,0,0,0,-2.00,0.00,863.00,1.00,1.00,34.00,14,16.00,15.03,4.64,0.00,1.00,-15.00,0,,,100,100,19,2,0,0,1,1,0,,,,,0.0,0.0,0.0,0.0,0.0,0.0,0
-22.959744,-67.786919,1.80,0.00,1.80,0.48,1.80,1.80,1.80,0.48,1914,2025-12-01 16:01:17.005,2025-12-01 13:01:17.005,18,0,0,51.253,-22.959744,-67.786924,0.00,0.10,-1.80,0.50,0.00,86.30,0,1,0,97,87,-11773,14096,51253,2971.50,52,WP,1,0,0,0,0,0,0,1764604877004,4277,4285,4281,4288,4284,4276,18,,,,,,,0,0,0,-5.00,0.00,863.00,1.00,1.00,34.00,14,18.00,18.03,4.81,0.00,1.00,-18.00,0,,,100,100,19,2,0,0,1,1,0,,,,,0.0,0.0,0.0,0.0,0.0,0.0,0
-22.959744,-67.786919,2.10,0.00,2.10,0.50,2.10,2.10,2.10,0.50,2016,2025-12-01 16:01:17.106,2025-12-01 13:01:17.106,18,0,0,51.253,-22.959744,-67.786924,0.00,0.10,-2.10,0.70,0.00,86.30,0,1,0,97,87,-11773,14096,51253,2971.50,52,WP,1,0,0,0,0,0,0,1764604877106,4277,4285,4281,4288,4284,4276,18,,,,,,,0,0,0,-7.00,0.00,863.00,1.00,1.00,34.00,14,21.00,21.02,5.01,0.00,1.00,-21.00,0,,,100,100,19,2,0,0,1,1,0,,,,,0.0,0.0,0.0,0.0,0.0,0.0,0
-22.959744,-67.786919,2.30,0.00,2.40,0.52,2.30,2.30,2.40,0.52,2114,2025-12-01 16:01:17.205,2025-12-01 13:01:17.205,18,0,0,49.336,-22.959744,-67.786924,-0.10,0.10,-2.40,0.90,0.00,86.20,0,1,0,96,87,-45604,14005,49336,2971.50,52,WP,1,0,0,0,0,0,0,1764604877204,4277,4285,4281,4288,4284,4276,18,,,,,,,0,0,0,-9.00,0.00,862.00,1.00,1.00,35.00,14,23.00,24.04,5.22,-1.00,1.00,-24.00,0,,,100,100,19,2,0,0,1,1,0,,,,,0.0,0.0,0.0,0.0,0.0,0.0,0
-22.959744,-67.786918,2.60,0.00,2.60,0.54,2.60,2.60,2.60,0.54,2215,2025-12-01 16:01:17.306,2025-12-01 13:01:17.306,18,0,0,49.336,-22.959744,-67.786924,-0.10,0.10,-2.60,1.00,-0.20,86.10,0,1,0,96,87,-45604,14005,49336,2971.50,52,WP,1,0,0,0,0,0,0,1764604877305,4277,4285,4281,4288,4284,4276,18,,,,,,,0,0,0,-10.00,-2.00,861.00,2.00,1.00,35.00,14,26.00,26.04,5.39,-1.00,1.00,-26.00,0,,,100,100,19,2,0,0,1,1,0,,,,,0.0,0.0,0.0,0.0,0.0,0.0,0
-22.959744,-67.786918,2.90,0.00,2.90,0.56,2.90,2.90,2.90,0.56,2319,2025-12-01 16:01:17.409,2025-12-01 13:01:17.409,18,0,0,49.336,-22.959744,-67.786924,-0.10,0.10,-2.90,1.20,-0.50,86.10,0,1,0,96,87,-45604,14005,49336,2971.50,52,WP,1,0,0,0,0,0,0,1764604877409,4277,4285,4281,4288,4284,4276,18,,,,,,,0,0,0,-12.00,-5.00,861.00,2.00,1.00,35.00,14,29.00,29.03,5.58,-1.00,1.00,-29.00,0,,,100,100,19,2,0,0,1,1,0,,,,,0.0,0.0,0.0,0.0,0.0,0.0,0
-22.959744,-67.786918,3.20,0.00,3.10,0.58,3.20,3.20,3.10,0.58,2417,2025-12-01 16:01:17.507,2025-12-01 13:01:17.507,18,0,0,49.336,-22.959744,-67.786924,-0.10,0.10,-3.10,1.40,-0.60,86.10,0,1,0,96,87,-45604,14005,49336,2971.50,52,WP,1,0,0,0,0,0,0,1764604877507,4277,4285,4281,4288,4284,4276,18,,,,,,,0,0,0,-14.00,-6.00,861.00,2.00,1.00,36.00,14,32.00,31.03,5.82,-1.00,1.00,-31.00,0,,,100,100,19,2,0,0,1,1,0,,,,,0.0,0.0,0.0,0.0,0.0,0.0,0
-22.959744,-67.786918,3.50,0.00,3.30,0.60,3.50,3.50,3.30,0.60,2426,2025-12-01 16:01:17.516,2025-12-01 13:01:17.516,18,0,0,49.336,-22.959744,-67.786924,-0.10,0.10,-3.30,1.70,-0.70,86.20,0,1,0,96,87,-45604,14005,49336,2971.50,52,WP,1,0,0,0,0,0,0,1764604877516,4277,4285,4281,4288,4284,4276,18,,,,,,,0,0,0,-17.00,-7.00,862.00,1.00,1.00,36.00,14,35.00,33.03,6.03,-1.00,1.00,-33.00,0,,,100,100,19,2,0,0,1,1,0,,,,,0.0,0.0,0.0,0.0,0.0,0.0,0
-22.959744,-67.786918,3.80,0.00,3.40,0.62,3.80,3.80,3.40,0.62,2619,2025-12-01 16:01:17.709,2025-12-01 13:01:17.710,18,0,0,49.336,-22.959744,-67.786924,-0.10,0.10,-3.40,1.90,-0.80,86.20,0,1,0,96,87,-45604,14005,49336,2971.50,52,WP,1,0,0,0,0,0,0,1764604877709,4277,4285,4281,4288,4284,4276,18,,,,,,,0,0,0,-19.00,-8.00,862.00,1.00,1.00,36.00,14,38.00,34.03,6.20,-1.00,1.00,-34.00,0,,,100,100,19,2,0,0,1,1,0,,,,,0.0,0.0,0.0,0.0,0.0,0.0,0
-22.959744,-67.786917,4.10,0.00,3.50,0.64,4.10,4.10,3.50,0.64,2721,2025-12-01 16:01:17.812,2025-12-01 13:01:17.812,18,0,0,49.336,-22.959744,-67.786924,-0.10,0.10,-3.50,2.20,-1.00,86.20,0,1,0,96,87,-45604,14005,49336,2971.50,52,WP,1,0,0,0,0,0,0,1764604877811,4277,4285,4281,4288,4284,4276,18,,,,,,,0,0,0,-22.00,-10.00,862.00,1.00,1.00,36.00,14,41.00,35.03,6.36,-1.00,1.00,-35.00,0,,,100,100,19,2,0,0,1,1,0,,,,,0.0,0.0,0.0,0.0,0.0,0.0,0
-22.959744,-67.786917,4.50,0.00,3.60,0.65,4.50,4.50,3.60,0.65,2740,2025-12-01 16:01:17.830,2025-12-01 13:01:17.830,18,0,0,49.336,-22.959744,-67.786924,-0.10,0.10,-3.60,2.70,-1.50,86.20,0,1,0,96,87,-45604,14005,49336,2971.50,52,WP,1,0,0,0,0,0,0,1764604877830,4277,4285,4281,4288,4284,4276,18,,,,,,,0,0,0,-27.00,-15.00,862.00,1.00,1.00,35.00,14,45.00,36.03,6.46,-1.00,1.00,-36.00,0,,,100,100,19,2,0,0,1,1,0,,,,,0.0,0.0,0.0,0.0,0.0,0.0,0
-22.959744,-67.786917,4.80,0.00,3.60,0.66,4.80,4.80,3.60,0.66,2922,2025-12-01 16:01:18.012,2025-12-01 13:01:18.012,18,0,0,49.336,-22.959744,-67.786924,0.00,0.00,-3.60,3.20,-1.90,86.10,0,1,0,96,87,-45604,14005,49336,2971.50,52,WP,1,0,0,0,0,0,0,1764604878012,4277,4285,4281,4288,4284,4276,18,,,,,,,0,0,0,-32.00,-19.00,861.00,1.00,1.00,35.00,14,48.00,36.00,6.55,0.00,0.00,-36.00,0,,,100,100,19,2,0,0,1,1,0,,,,,0.0,0.0,0.0,0.0,0.0,0.0,0
-22.959744,-67.786917,5.10,0.00,3.50,0.65,5.10,5.10,3.60,0.66,3024,2025-12-01 16:01:18.114,2025-12-01 13:01:18.115,18,0,0,49.336,-22.959744,-67.786924,0.00,0.00,-3.50,3.20,-2.00,86.10,0,1,0,96,87,-45604,14005,49336,2971.50,52,WP,1,0,0,0,0,0,0,1764604878114,4277,4285,4281,4288,4284,4276,18,,,,,,,0,0,0,-32.00,-20.00,861.00,1.00,1.00,35.00,14,51.00,35.00,6.53,0.00,0.00,-35.00,0,,,100,100,19,2,0,0,1,1,0,,,,,0.0,0.0,0.0,0.0,0.0,0.0,0
-22.959744,-67.786917,5.50,0.00,3.40,0.65,5.50,5.50,3.60,0.66,3043,2025-12-01 16:01:18.133,2025-12-01 13:01:18.133,18,0,0,49.336,-22.959744,-67.786924,0.00,0.00,-3.40,3.00,-1.70,86.00,0,1,0,96,87,-45604,14005,49336,2971.50,52,WP,1,0,0,0,0,0,0,1764604878133,4277,4285,4281,4288,4284,4276,18,,,,,,,0,0,0,-30.00,-17.00,860.00,1.00,1.00,36.00,14,55.00,34.00,6.52,0.00,0.00,-34.00,0,,,100,100,19,2,0,0,1,1,0,,,,,0.0,0.0,0.0,0.0,0.0,0.0,0
-22.959744,-67.786917,5.80,0.00,3.30,0.64,5.80,5.80,3.60,0.66,3230,2025-12-01 16:01:18.321,2025-12-01 13:01:18.321,18,0,0,49.336,-22.959744,-67.786924,0.00,0.00,-3.30,2.60,-1.30,86.00,0,1,0,96,87,-45604,14005,49336,2971.50,52,WP,1,0,0,0,0,0,0,1764604878320,4277,4285,4281,4288,4284,4276,18,,,,,,,0,0,0,-26.00,-13.00,860.00,1.00,1.00,37.00,14,58.00,33.00,6.39,0.00,0.00,-33.00,0,,,100,100,19,2,0,0,1,1,0,,,,,0.0,0.0,0.0,0.0,0.0,0.0,0
-22.959744,-67.786917,6.10,0.00,3.30,0.63,6.10,6.10,3.60,0.66,3237,2025-12-01 16:01:18.328,2025-12-01 13:01:18.328,18,0,0,49.336,-22.959744,-67.786924,0.00,0.00,-3.30,2.10,-0.70,86.00,0,1,0,96,87,-45604,14005,49336,2971.50,52,WP,1,0,0,0,0,0,0,1764604878327,4277,4285,4281,4288,4284,4276,18,,,,,,,0,0,0,-21.00,-7.00,860.00,0.00,2.00,37.00,14,61.00,33.00,6.28,0.00,0.00,-33.00,0,,,100,100,19,2,0,0,1,1,0,,,,,0.0,0.0,0.0,0.0,0.0,0.0,0
-22.959744,-67.786918,6.40,0.00,3.20,0.62,6.40,6.40,3.60,0.66,3325,2025-12-01 16:01:18.415,2025-12-01 13:01:18.415,18,0,0,49.336,-22.959744,-67.786924,0.00,0.00,-3.20,1.40,-0.30,86.00,0,1,0,96,87,-45604,14005,49336,2971.50,52,WP,1,0,0,0,0,0,0,1764604878415,4277,4285,4281,4288,4284,4276,18,,,,,,,0,0,0,-14.00,-3.00,860.00,0.00,2.00,37.00,14,64.00,32.00,6.17,0.00,0.00,-32.00,0,,,100,100,19,2,0,0,1,1,0,,,,,0.0,0.0,0.0,0.0,0.0,0.0,0
-22.959743,-67.786918,6.70,0.00,3.10,0.61,6.70,6.70,3.60,0.66,3430,2025-12-01 16:01:18.521,2025-12-01 13:01:18.521,18,0,0,49.336,-22.959744,-67.786924,0.00,0.00,-3.10,0.60,-0.10,86.10,0,1,0,96,87,-45604,14005,49336,2971.50,52,WP,1,0,0,0,0,0,0,1764604878520,4277,4285,4281,4288,4284,4276,18,,,,,,,0,0,0,-6.00,-1.00,861.00,0.00,1.00,37.00,14,67.00,31.00,6.06,0.00,0.00,-31.00,0,,,100,100,19,2,0,0,1,1,0,,,,,0.0,0.0,0.0,0.0,0.0,0.0,0
-22.959743,-67.786918,7.00,0.00,3.10,0.60,7.00,7.00,3.60,0.66,3534,2025-12-01 16:01:18.625,2025-12-01 13:01:18.625,18,0,0,49.336,-22.959744,-67.786924,0.00,0.00,-3.10,0.00,0.10,86.00,0,1,0,96,87,-45604,14005,49336,2971.50,52,WP,1,0,0,0,0,0,0,1764604878624,4277,4285,4281,4288,4284,4276,18,,,,,,,0,0,0,-0.00,1.00,860.00,0.00,1.00,37.00,14,70.00,31.00,5.99,0.00,0.00,-31.00,0,,,100,100,19,2,0,0,1,1,0,,,,,0.0,0.0,0.0,0.0,0.0,0.0,0
-22.959743,-67.786918,7.30,0.00,3.10,0.59,7.30,7.30,3.60,0.66,3626,2025-12-01 16:01:18.716,2025-12-01 13:01:18.716,18,0,0,49.336,-22.959744,-67.786924,0.00,0.00,-3.10,0.00,0.20,86.00,0,1,0,96,87,-45604,14005,49336,2971.50,52,WP,1,0,0,0,0,0,0,1764604878716,4277,4285,4281,4288,4284,4276,18,,,,,,,0,0,0,-0.00,2.00,860.00,0.00,1.00,37.00,14,73.00,31.00,5.93,0.00,0.00,-31.00,0,,,100,100,19,2,0,0,1,1,0,,,,,0.0,0.0,0.0,0.0,0.0,0.0,0
-22.959743,-67.786918,8.00,0.00,3.10,0.59,8.00,8.00,3.60,0.66,3831,2025-12-01 16:01:18.922,2025-12-01 13:01:18.922,18,0,0,49.336,-22.959744,-67.786924,0.00,0.00,-3.10,1.30,0.70,85.90,0,1,0,96,87,-45604,14005,49336,2971.50,52,WP,1,0,0,0,0,0,0,1764604878921,4277,4285,4281,4288,4284,4276,18,,,,,,,0,0,0,-13.00,7.00,859.00,0.00,1.00,37.00,14,80.00,31.00,5.93,0.00,0.00,-31.00,0,,,100,100,19,2,0,0,1,1,0,,,,,0.0,0.0,0.0,0.0,0.0,0.0,0
-22.959743,-67.786918,9.30,0.00,3.10,0.62,9.30,9.30,3.60,0.66,4233,2025-12-01 16:01:19.324,2025-12-01 13:01:19.324,18,0,0,45.891,-22.959744,-67.786924,-0.10,0.00,-3.10,2.50,-0.30,85.90,0,1,0,95,87,-77288,13859,45891,2971.50,52,WP,1,0,0,0,0,0,0,1764604879323,4277,4285,4281,4288,4284,4276,18,,,,,,,0,0,0,-25.00,-3.00,859.00,1.00,1.00,38.00,14,93.00,31.02,6.20,-1.00,0.00,-31.00,0,,,100,95,19,2,0,0,1,1,0,,,,,0.0,0.0,0.0,0.0,0.0,0.0,0
-22.959743,-67.786918,9.60,0.00,3.21,0.62,9.60,9.60,3.60,0.66,4333,2025-12-01 16:01:19.424,2025-12-01 13:01:19.424,18,0,0,45.891,-22.959744,-67.786924,-0.20,0.00,-3.20,2.30,-0.70,85.90,0,1,0,95,87,-77288,13859,45891,2971.50,52,WP,1,0,0,0,0,0,0,1764604879423,4277,4285,4281,4288,4284,4276,18,,,,,,,0,0,0,-23.00,-7.00,859.00,0.00,1.00,38.00,14,96.00,32.06,6.23,-2.00,0.00,-32.00,0,,,100,95,19,2,0,0,1,1,0,,,,,0.0,0.0,0.0,0.0,0.0,0.0,0
-22.959744,-67.786918,9.90,0.00,3.21,0.63,9.90,9.90,3.60,0.66,4434,2025-12-01 16:01:19.525,2025-12-01 13:01:19.525,18,0,0,45.891,-22.959744,-67.786924,-0.20,0.00,-3.20,2.00,-1.00,86.10,0,1,0,95,87,-77288,13859,45891,2971.50,52,WP,1,0,0,0,0,0,0,1764604879524,4277,4285,4281,4288,4284,4276,18,,,,,,,0,0,0,-20.00,-10.00,861.00,0.00,1.00,38.00,14,99.00,32.06,6.26,-2.00,0.00,-32.00,0,,,100,95,19,2,0,0,1,1,0,,,,,0.0,0.0,0.0,0.0,0.0,0.0,0
-22.959744,-67.786918,10.30,0.00,3.21,0.62,10.30,10.30,3.60,0.66,4535,2025-12-01 16:01:19.626,2025-12-01 13:01:19.626,18,0,0,45.891,-22.959744,-67.786924,-0.20,0.00,-3.20,2.10,-1.30,86.20,0,1,0,95,87,-77288,13859,45891,2971.50,52,WP,1,0,0,0,0,0,0,1764604879625,4277,4285,4281,4288,4284,4276,18,,,,,,,0,0,0,-21.00,-13.00,862.00,0.00,1.00,37.00,14,103.00,32.06,6.24,-2.00,0.00,-32.00,0,,,100,95,19,2,0,0,1,1,0,,,,,0.0,0.0,0.0,0.0,0.0,0.0,0
-22.959744,-67.786917,10.60,0.00,3.21,0.63,10.60,10.60,3.60,0.66,4634,2025-12-01 16:01:19.725,2025-12-01 13:01:19.725,18,0,0,45.891,-22.959744,-67.786924,-0.20,0.00,-3.20,2.20,-2.10,86.30,0,1,0,95,87,-77288,13859,45891,2971.50,52,WP,1,0,0,0,0,0,0,1764604879724,4277,4285,4281,4288,4284,4276,18,,,,,,,0,0,0,-22.00,-21.00,863.00,0.00,1.00,36.00,14,106.00,32.06,6.25,-2.00,0.00,-32.00,0,,,100,95,19,2,0,0,1,1,0,,,,,0.0,0.0,0.0,0.0,0.0,0.0,0
-22.959744,-67.786918,10.90,0.00,3.21,0.62,10.90,10.90,3.60,0.66,4734,2025-12-01 16:01:19.824,2025-12-01 13:01:19.824,18,0,0,45.891,-22.959744,-67.786924,-0.20,0.00,-3.20,2.10,-2.80,86.30,0,1,0,95,87,-77288,13859,45891,2971.50,52,WP,1,0,0,0,0,0,0,1764604879824,4277,4285,4281,4288,4284,4276,18,,,,,,,0,0,0,-21.00,-28.00,863.00,1.00,1.00,35.00,14,109.00,32.06,6.22,-2.00,0.00,-32.00,0,,,100,95,19,2,0,0,1,1,0,,,,,0.0,0.0,0.0,0.0,0.0,0.0,0
-22.959744,-67.786918,11.30,0.00,3.20,0.62,11.30,11.30,3.60,0.66,4837,2025-12-01 16:01:19.928,2025-12-01 13:01:19.928,18,0,0,45.891,-22.959744,-67.786924,-0.10,0.00,-3.20,2.00,-3.30,86.30,0,1,0,95,87,-77288,13859,45891,2971.50,52,WP,1,0,0,0,0,0,0,1764604879927,4277,4285,4281,4288,4284,4276,18,,,,,,,0,0,0,-20.00,-33.00,863.00,0.00,1.00,34.00,14,113.00,32.02,6.23,-1.00,0.00,-32.00,0,,,100,95,19,2,0,0,1,1,0,,,,,0.0,0.0,0.0,0.0,0.0,0.0,0
-22.959744,-67.786918,11.60,0.00,3.10,0.62,11.60,11.60,3.60,0.66,4939,2025-12-01 16:01:20.029,2025-12-01 13:01:20.029,18,0,0,45.891,-22.959744,-67.786924,-0.10,0.00,-3.10,1.90,-3.50,86.30,0,1,0,95,87,-77288,13859,45891,2971.50,52,WP,1,0,0,0,0,0,0,1764604880029,4277,4285,4281,4288,4284,4276,18,,,,,,,0,0,0,-19.00,-35.00,863.00,1.00,1.00,34.00,14,116.00,31.02,6.16,-1.00,0.00,-31.00,0,,,100,95,19,2,0,0,1,1,0,,,,,0.0,0.0,0.0,0.0,0.0,0.0,0
-22.959744,-67.786918,11.90,0.00,3.10,0.62,11.90,11.90,3.60,0.66,5040,2025-12-01 16:01:20.131,2025-12-01 13:01:20.131,18,0,0,45.891,-22.959744,-67.786924,-0.10,0.00,-3.10,1.90,-3.20,86.20,0,1,0,95,87,-77288,13859,45891,2971.50,52,WP,1,0,0,0,0,0,0,1764604880130,4277,4285,4281,4288,4284,4276,18,,,,,,,0,0,0,-19.00,-32.00,862.00,1.00,1.00,35.00,14,119.00,31.02,6.15,-1.00,0.00,-31.00,0,,,100,95,19,2,0,0,1,1,0,,,,,0.0,0.0,0.0,0.0,0.0,0.0,0
-22.959744,-67.786918,12.20,0.00,3.00,0.61,12.20,12.20,3.60,0.66,5141,2025-12-01 16:01:20.231,2025-12-01 13:01:20.231,18,0,0,45.891,-22.959744,-67.786924,0.00,0.00,-3.00,1.80,-2.50,86.20,0,1,0,95,87,-77288,13859,45891,2971.50,52,WP,1,0,0,0,0,0,0,1764604880231,4277,4285,4281,4288,4284,4276,18,,,,,,,0,0,0,-18.00,-25.00,862.00,1.00,1.00,35.00,14,122.00,30.00,6.08,0.00,0.00,-30.00,0,,,100,95,19,2,0,0,1,1,0,,,,,0.0,0.0,0.0,0.0,0.0,0.0,0
-22.959745,-67.786918,12.50,0.00,3.00,0.61,12.50,12.50,3.60,0.66,5249,2025-12-01 16:01:20.339,2025-12-01 13:01:20.340,18,0,0,45.891,-22.959744,-67.786924,0.00,0.00,-3.00,1.70,-1.90,86.20,0,1,0,95,87,-77288,13859,45891,2971.50,52,WP,1,0,0,0,0,0,0,1764604880339,4277,4285,4281,4288,4284,4276,18,,,,,,,0,0,0,-17.00,-19.00,862.00,0.00,1.00,35.00,14,125.00,30.00,6.07,0.00,0.00,-30.00,0,,,100,95,19,2,0,0,1,1,0,,,,,0.0,0.0,0.0,0.0,0.0,0.0,0
-22.959744,-67.786918,13.10,0.00,3.00,0.60,13.10,13.10,3.60,0.66,5437,2025-12-01 16:01:20.527,2025-12-01 13:01:20.528,18,0,0,45.891,-22.959744,-67.786924,0.00,0.00,-3.00,1.80,-0.80,86.00,0,1,0,95,87,-77288,13859,45891,2971.50,52,WP,1,0,0,0,0,0,0,1764604880527,4277,4285,4281,4288,4284,4276,18,,,,,,,0,0,0,-18.00,-8.00,860.00,1.00,1.00,36.00,14,131.00,30.00,5.99,0.00,0.00,-30.00,0,,,100,95,19,2,0,0,1,1,0,,,,,0.0,0.0,0.0,0.0,0.0,0.0,0
-22.959744,-67.786918,13.80,0.00,3.10,0.59,13.80,13.80,3.60,0.66,5646,2025-12-01 16:01:20.736,2025-12-01 13:01:20.736,18,0,0,45.891,-22.959744,-67.786924,-0.10,0.00,-3.10,1.90,-1.10,86.20,0,1,0,95,87,-77288,13859,45891,2971.50,52,WP,1,0,0,0,0,0,0,1764604880736,4277,4285,4281,4288,4284,4276,18,,,,,,,0,0,0,-19.00,-11.00,862.00,0.00,1.00,37.00,14,138.00,31.02,5.93,-1.00,0.00,-31.00,0,,,100,95,19,2,0,0,1,1,0,,,,,0.0,0.0,0.0,0.0,0.0,0.0,0
-22.959744,-67.786918,14.10,0.00,3.10,0.59,14.10,14.10,3.60,0.66,5750,2025-12-01 16:01:20.840,2025-12-01 13:01:20.840,18,0,0,45.891,-22.959744,-67.786924,-0.10,0.00,-3.10,2.30,-1.50,86.20,0,1,0,95,87,-77288,13859,45891,2971.50,52,WP,1,0,0,0,0,0,0,1764604880840,4277,4285,4281,4288,4284,4276,18,,,,,,,0,0,0,-23.00,-15.00,862.00,0.00,1.00,36.00,14,141.00,31.02,5.87,-1.00,0.00,-31.00,0,,,100,98,19,2,0,0,1,1,0,,,,,0.0,0.0,0.0,0.0,0.0,0.0,0
-22.959745,-67.786918,14.50,0.00,3.10,0.59,14.50,14.50,3.60,0.66,5846,2025-12-01 16:01:20.937,2025-12-01 13:01:20.937,18,0,0,45.891,-22.959744,-67.786924,-0.10,0.00,-3.10,2.50,-1.90,86.10,0,1,0,95,87,-77288,13859,45891,2971.50,52,WP,1,0,0,0,0,0,0,1764604880936,4277,4285,4281,4288,4284,4276,18,,,,,,,0,0,0,-25.00,-19.00,861.00,0.00,1.00,36.00,14,145.00,31.02,5.88,-1.00,0.00,-31.00,0,,,100,98,19,2,0,0,1,1,0,,,,,0.0,0.0,0.0,0.0,0.0,0.0,0
-22.959745,-67.786918,14.80,0.00,3.10,0.58,14.80,14.80,3.60,0.66,5950,2025-12-01 16:01:21.041,2025-12-01 13:01:21.041,18,0,0,45.891,-22.959744,-67.786924,-0.10,0.00,-3.10,2.70,-2.40,86.10,0,1,0,95,87,-77288,13859,45891,2971.50,52,WP,1,0,0,0,0,0,0,1764604881040,4277,4285,4281,4288,4284,4276,18,,,,,,,0,0,0,-27.00,-24.00,861.00,0.00,1.00,36.00,14,148.00,31.02,5.80,-1.00,0.00,-31.00,0,,,100,98,19,2,0,0,1,1,0,,,,,0.0,0.0,0.0,0.0,0.0,0.0,0
-22.959745,-67.786918,15.10,0.00,3.00,0.57,15.10,15.10,3.60,0.66,6050,2025-12-01 16:01:21.141,2025-12-01 13:01:21.141,18,0,0,45.285,-22.959744,-67.786924,-0.10,0.00,-3.00,2.70,-2.90,86.10,0,1,0,95,87,-59218,13859,45285,2971.50,52,WP,1,0,0,0,0,0,0,1764604881140,4277,4285,4281,4288,4284,4276,18,,,,,,,0,0,0,-27.00,-29.00,861.00,1.00,1.00,36.00,14,151.00,30.02,5.72,-1.00,0.00,-30.00,0,,,100,98,19,2,0,0,1,1,0,,,,,0.0,0.0,0.0,0.0,0.0,0.0,0
-22.959745,-67.786918,15.70,0.00,2.90,0.56,15.70,15.70,3.60,0.66,6247,2025-12-01 16:01:21.337,2025-12-01 13:01:21.337,18,0,0,45.285,-22.959744,-67.786924,-0.10,0.00,-2.90,2.40,-3.30,86.20,0,1,0,95,87,-59218,13859,45285,2971.50,52,WP,1,0,0,0,0,0,0,1764604881337,3772,3798,3819,3836,3794,3770,18,,,,,,,0,0,0,-24.00,-33.00,862.00,1.00,1.00,37.00,14,157.00,29.02,5.65,-1.00,0.00,-29.00,0,,,100,97,19,2,0,0,1,1,0,,,,,0.0,0.0,0.0,0.0,0.0,0.0,0
-22.959745,-67.786918,16.00,0.00,2.90,0.55,16.00,16.00,3.60,0.66,6350,2025-12-01 16:01:21.441,2025-12-01 13:01:21.441,18,0,0,45.285,-22.959744,-67.786924,0.00,0.00,-2.90,2.50,-3.40,86.20,0,1,0,95,87,-59218,13859,45285,2971.50,52,WP,1,0,0,0,0,0,0,1764604881440,3772,3798,3819,3836,3794,3770,18,,,,,,,0,0,0,-25.00,-34.00,862.00,0.00,1.00,35.00,14,160.00,29.00,5.54,0.00,0.00,-29.00,0,,,100,97,19,2,0,0,1,1,0,,,,,0.0,0.0,0.0,0.0,0.0,0.0,0
-22.959745,-67.786918,16.50,0.00,2.70,0.54,16.50,16.50,3.60,0.66,6552,2025-12-01 16:01:21.642,2025-12-01 13:01:21.642,18,0,0,45.285,-22.959744,-67.786924,0.00,0.00,-2.70,2.60,-3.50,86.10,0,1,0,95,87,-59218,13859,45285,2971.50,52,WP,1,0,0,0,0,0,0,1764604881642,3772,3798,3819,3836,3794,3770,18,,,,,,,0,0,0,-26.00,-35.00,861.00,0.00,1.00,36.00,14,165.00,27.00,5.36,0.00,0.00,-27.00,0,,,100,97,19,2,0,0,1,1,0,,,,,0.0,0.0,0.0,0.0,0.0,0.0,0
-22.959745,-67.786918,16.80,0.00,2.50,0.53,16.80,16.80,3.60,0.66,6646,2025-12-01 16:01:21.737,2025-12-01 13:01:21.737,18,0,0,45.285,-22.959744,-67.786924,0.00,0.00,-2.50,2.60,-3.20,86.10,0,1,0,95,87,-59218,13859,45285,2971.50,52,WP,1,0,0,0,0,0,0,1764604881736,3772,3798,3819,3836,3794,3770,18,,,,,,,0,0,0,-26.00,-32.00,861.00,0.00,1.00,36.00,14,168.00,25.00,5.30,0.00,0.00,-25.00,0,,,100,97,19,2,0,0,1,1,0,,,,,0.0,0.0,0.0,0.0,0.0,0.0,0
-22.959745,-67.786919,17.10,0.00,2.30,0.51,17.10,17.10,3.60,0.66,6751,2025-12-01 16:01:21.842,2025-12-01 13:01:21.842,18,0,0,45.285,-22.959744,-67.786924,0.00,0.00,-2.30,2.80,-2.90,86.00,0,1,0,95,87,-59218,13859,45285,2971.50,52,WP,1,0,0,0,0,0,0,1764604881841,3772,3798,3819,3836,3794,3770,18,,,,,,,0,0,0,-28.00,-29.00,860.00,0.00,1.00,37.00,14,171.00,23.00,5.12,0.00,0.00,-23.00,0,,,100,96,19,2,0,0,1,1,0,,,,,0.0,0.0,0.0,0.0,0.0,0.0,0
-22.959744,-67.786919,17.30,0.00,2.20,0.50,17.30,17.30,3.60,0.66,6853,2025-12-01 16:01:21.943,2025-12-01 13:01:21.943,18,0,0,45.285,-22.959744,-67.786924,0.00,0.00,-2.20,2.80,-2.60,86.10,0,1,0,95,87,-59218,13859,45285,2971.50,52,WP,1,0,0,0,0,0,0,1764604881943,3772,3798,3819,3836,3794,3770,18,,,,,,,0,0,0,-28.00,-26.00,861.00,0.00,1.00,37.00,14,173.00,22.00,5.02,0.00,0.00,-22.00,0,,,100,96,19,2,0,0,1,1,0,,,,,0.0,0.0,0.0,0.0,0.0,0.0,0
-22.959744,-67.786919,17.50,0.00,2.00,0.49,17.50,17.50,3.60,0.66,6950,2025-12-01 16:01:22.040,2025-12-01 13:01:22.040,18,0,0,45.285,-22.959744,-67.786924,0.00,0.00,-2.00,3.20,-2.20,86.10,0,1,0,95,87,-59218,13859,45285,2971.50,52,WP,1,0,0,0,0,0,0,1764604882040,3772,3798,3819,3836,3794,3770,18,,,,,,,0,0,0,-32.00,-22.00,861.00,0.00,2.00,37.00,14,175.00,20.00,4.90,0.00,0.00,-20.00,0,,,100,96,19,2,0,0,1,1,0,,,,,0.0,0.0,0.0,0.0,0.0,0.0,0
-22.959744,-67.786919,17.70,0.00,1.80,0.48,17.70,17.70,3.60,0.66,7051,2025-12-01 16:01:22.142,2025-12-01 13:01:22.142,18,0,0,45.285,-22.959744,-67.786924,0.00,0.00,-1.80,3.30,-2.00,86.10,0,1,0,95,87,-59218,13859,45285,2971.50,52,WP,1,0,0,0,0,0,0,1764604882141,3772,3798,3819,3836,3794,3770,18,,,,,,,0,0,0,-33.00,-20.00,861.00,0.00,2.00,37.00,14,177.00,18.00,4.84,0.00,0.00,-18.00,0,,,100,96,19,2,0,0,1,1,0,,,,,0.0,0.0,0.0,0.0,0.0,0.0,0
-22.959744,-67.786919,18.10,0.00,1.50,0.47,18.10,18.10,3.60,0.66,7261,2025-12-01 16:01:22.351,2025-12-01 13:01:22.351,18,0,0,45.285,-22.959744,-67.786924,0.00,0.00,-1.50,3.40,-1.70,86.00,0,1,0,95,87,-59218,13859,45285,2971.50,52,WP,1,0,0,0,0,0,0,1764604882351,3772,3798,3819,3836,3794,3770,18,,,,,,,0,0,0,-34.00,-17.00,860.00,0.00,1.00,37.00,14,181.00,15.00,4.74,0.00,0.00,-15.00,0,,,100,97,19,2,0,0,1,1,0,,,,,0.0,0.0,0.0,0.0,0.0,0.0,0
-22.959744,-67.786919,18.20,0.00,1.40,0.47,18.20,18.20,3.60,0.66,7356,2025-12-01 16:01:22.446,2025-12-01 13:01:22.446,18,0,0,45.285,-22.959744,-67.786924,0.00,0.00,-1.40,3.20,-1.40,86.00,0,1,0,95,87,-59218,13859,45285,2971.50,52,WP,1,0,0,0,0,0,0,1764604882446,3772,3798,3819,3836,3794,3770,18,,,,,,,0,0,0,-32.00,-14.00,860.00,0.00,1.00,37.00,14,182.00,14.00,4.70,0.00,0.00,-14.00,0,,,100,97,19,2,0,0,1,1,0,,,,,0.0,0.0,0.0,0.0,0.0,0.0,0
-22.959744,-67.786919,18.40,0.00,1.40,0.47,18.40,18.40,3.60,0.66,7454,2025-12-01 16:01:22.544,2025-12-01 13:01:22.544,18,0,0,45.285,-22.959744,-67.786924,0.00,0.00,-1.40,3.20,-1.30,86.10,0,1,0,95,87,-59218,13859,45285,2971.50,52,WP,1,0,0,0,0,0,0,1764604882544,3772,3798,3819,3836,3794,3770,18,,,,,,,0,0,0,-32.00,-13.00,861.00,0.00,1.00,37.00,14,184.00,14.00,4.68,0.00,0.00,-14.00,0,,,100,97,19,2,0,0,1,1,0,,,,,0.0,0.0,0.0,0.0,0.0,0.0,0
-22.959744,-67.786919,18.60,0.00,1.30,0.46,18.60,18.60,3.60,0.66,7565,2025-12-01 16:01:22.656,2025-12-01 13:01:22.656,18,0,0,45.285,-22.959744,-67.786924,0.00,0.00,-1.30,3.30,-1.10,86.10,0,1,0,95,87,-59218,13859,45285,2971.50,52,WP,1,0,0,0,0,0,0,1764604882655,3772,3798,3819,3836,3794,3770,18,,,,,,,0,0,0,-33.00,-11.00,861.00,0.00,1.00,37.00,14,186.00,13.00,4.63,0.00,0.00,-13.00,0,,,100,97,19,2,0,0,1,1,0,,,,,0.0,0.0,0.0,0.0,0.0,0.0,0
-22.959743,-67.786919,18.70,0.00,1.20,0.46,18.70,18.70,3.60,0.66,7665,2025-12-01 16:01:22.755,2025-12-01 13:01:22.755,18,0,0,45.285,-22.959744,-67.786924,0.00,0.00,-1.20,3.40,-1.00,86.00,0,1,0,95,87,-59218,13859,45285,2971.50,52,WP,1,0,0,0,0,0,0,1764604882755,3772,3798,3819,3836,3794,3770,18,,,,,,,0,0,0,-34.00,-10.00,860.00,0.00,1.00,37.00,14,187.00,12.00,4.62,0.00,0.00,-12.00,0,,,100,97,19,2,0,0,1,1,0,,,,,0.0,0.0,0.0,0.0,0.0,0.0,0
-22.959743,-67.786919,18.80,0.00,1.10,0.46,18.80,18.80,3.60,0.66,7758,2025-12-01 16:01:22.848,2025-12-01 13:01:22.848,18,0,0,45.285,-22.959744,-67.786924,0.00,0.00,-1.10,3.50,-0.80,86.10,0,1,0,95,87,-59218,13859,45285,2971.50,52,WP,1,0,0,0,0,0,0,1764604882848,3772,3798,3819,3836,3794,3770,18,,,,,,,0,0,0,-35.00,-8.00,861.00,0.00,1.00,37.00,14,188.00,11.00,4.57,0.00,0.00,-11.00,0,,,100,97,19,2,0,0,1,1,0,,,,,0.0,0.0,0.0,0.0,0.0,0.0,0
-22.959743,-67.786919,18.90,0.00,1.10,0.46,18.90,18.90,3.60,0.66,7865,2025-12-01 16:01:22.955,2025-12-01 13:01:22.955,18,0,0,45.285,-22.959744,-67.786924,0.00,0.00,-1.10,3.60,-0.70,86.20,0,1,0,95,87,-59218,13859,45285,2971.50,52,WP,1,0,0,0,0,0,0,1764604882955,3772,3798,3819,3836,3794,3770,18,,,,,,,0,0,0,-36.00,-7.00,862.00,0.00,1.00,36.00,14,189.00,11.00,4.55,0.00,0.00,-11.00,0,,,100,97,19,2,0,0,1,1,0,,,,,0.0,0.0,0.0,0.0,0.0,0.0,0
-22.959743,-67.786919,19.00,0.00,1.10,0.46,19.00,19.00,3.60,0.66,7966,2025-12-01 16:01:23.056,2025-12-01 13:01:23.056,18,0,0,45.285,-22.959744,-67.786924,0.00,0.00,-1.10,3.60,-0.40,86.20,0,1,0,95,87,-59218,13859,45285,2971.50,52,WP,1,0,0,0,0,0,0,1764604883056,3772,3798,3819,3836,3794,3770,18,,,,,,,0,0,0,-36.00,-4.00,862.00,0.00,1.00,36.00,14,190.00,11.00,4.56,0.00,0.00,-11.00,0,,,100,97,19,2,0,0,1,1,0,,,,,0.0,0.0,0.0,0.0,0.0,0.0,0
-22.959743,-67.786919,19.10,0.00,1.00,0.46,19.10,19.10,3.60,0.66,8059,2025-12-01 16:01:23.149,2025-12-01 13:01:23.149,18,0,0,45.229,-22.959744,-67.786924,0.00,0.00,-1.00,3.40,-0.50,86.20,0,1,0,95,87,-58631,13859,45229,2971.50,52,WP,1,0,0,0,0,0,0,1764604883149,3772,3798,3819,3836,3794,3770,18,,,,,,,0,0,0,-34.00,-5.00,862.00,0.00,1.00,36.00,14,191.00,10.00,4.59,0.00,0.00,-10.00,0,,,100,97,19,2,0,0,1,1,0,,,,,0.0,0.0,0.0,0.0,0.0,0.0,0
-22.959744,-67.786919,19.40,0.00,1.10,0.46,19.40,19.40,3.60,0.66,8263,2025-12-01 16:01:23.353,2025-12-01 13:01:23.353,18,0,0,45.229,-22.959744,-67.786924,-0.10,0.00,-1.10,3.10,-1.00,86.10,0,1,0,95,87,-58631,13859,45229,2971.50,52,WP,1,0,0,0,0,0,0,1764604883353,3772,3798,3819,3836,3794,3770,18,,,,,,,0,0,0,-31.00,-10.00,861.00,0.00,1.00,36.00,14,194.00,11.05,4.64,-1.00,0.00,-11.00,0,,,100,99,19,2,0,0,1,1,0,,,,,0.0,0.0,0.0,0.0,0.0,0.0,0
-22.959744,-67.786919,19.60,0.00,1.10,0.46,19.60,19.60,3.60,0.66,8366,2025-12-01 16:01:23.457,2025-12-01 13:01:23.457,18,0,0,45.229,-22.959744,-67.786924,-0.10,0.00,-1.10,3.10,-1.50,86.10,0,1,0,95,87,-58631,13859,45229,2971.50,52,WP,1,0,0,0,0,0,0,1764604883456,3772,3798,3819,3836,3794,3770,18,,,,,,,0,0,0,-31.00,-15.00,861.00,0.00,1.00,36.00,14,196.00,11.05,4.61,-1.00,0.00,-11.00,0,,,100,99,19,2,0,0,1,1,0,,,,,0.0,0.0,0.0,0.0,0.0,0.0,0
-22.959744,-67.786919,19.70,0.00,1.10,0.46,19.70,19.70,3.60,0.66,8461,2025-12-01 16:01:23.552,2025-12-01 13:01:23.552,18,0,0,45.229,-22.959744,-67.786924,-0.10,0.00,-1.10,3.50,-2.10,86.00,0,1,0,95,87,-58631,13859,45229,2971.50,52,WP,1,0,0,0,0,0,0,1764604883551,3772,3798,3819,3836,3794,3770,18,,,,,,,0,0,0,-35.00,-21.00,860.00,0.00,1.00,37.00,14,197.00,11.05,4.64,-1.00,0.00,-11.00,0,,,100,99,19,2,0,0,1,1,0,,,,,0.0,0.0,0.0,0.0,0.0,0.0,0
-22.959744,-67.786919,19.80,0.00,1.00,0.46,19.80,19.80,3.60,0.66,8565,2025-12-01 16:01:23.655,2025-12-01 13:01:23.655,18,0,0,45.229,-22.959744,-67.786924,-0.10,0.00,-1.00,3.40,-2.30,86.60,0,1,0,95,87,-58631,13859,45229,2971.50,52,WP,1,0,0,0,0,0,0,1764604883655,3772,3798,3819,3836,3794,3770,18,,,,,,,0,0,0,-34.00,-23.00,866.00,0.00,1.00,37.00,14,198.00,10.05,4.59,-1.00,0.00,-10.00,0,,,100,99,19,2,0,0,1,1,0,,,,,0.0,0.0,0.0,0.0,0.0,0.0,0
-22.959744,-67.786919,19.90,0.00,0.91,0.46,19.90,19.90,3.60,0.66,8666,2025-12-01 16:01:23.757,2025-12-01 13:01:23.757,18,0,0,45.229,-22.959744,-67.786924,-0.10,0.00,-0.90,3.60,-2.20,90.40,0,1,0,95,87,-58631,13859,45229,2971.50,52,WP,1,0,0,0,0,0,0,1764604883756,3772,3798,3819,3836,3794,3770,18,,,,,,,0,0,0,-36.00,-22.00,904.00,0.00,1.00,36.00,14,199.00,9.06,4.61,-1.00,0.00,-9.00,0,,,100,99,19,2,0,0,1,1,0,,,,,0.0,0.0,0.0,0.0,0.0,0.0,0
-22.959744,-67.786919,20.00,0.00,0.61,0.46,20.00,20.00,3.60,0.66,8764,2025-12-01 16:01:23.854,2025-12-01 13:01:23.854,18,0,0,45.229,-22.959744,-67.786924,-0.10,0.00,-0.60,3.90,-1.40,97.00,0,1,0,95,87,-58631,13859,45229,2971.50,52,WP,1,0,0,0,0,0,0,1764604883854,3772,3798,3819,3836,3794,3770,18,,,,,,,0,0,0,-39.00,-14.00,970.00,0.00,1.00,5.00,14,200.00,6.08,4.55,-1.00,0.00,-6.00,0,,,100,99,19,2,0,0,1,1,0,,,,,0.0,0.0,0.0,0.0,0.0,0.0,0
-22.959744,-67.786919,20.10,0.00,0.41,0.46,20.10,20.10,3.60,0.66,8868,2025-12-01 16:01:23.958,2025-12-01 13:01:23.958,18,0,0,45.229,-22.959744,-67.786924,-0.10,0.00,-0.40,4.40,-0.60,105.90,0,1,0,95,87,-58631,13859,45229,2971.50,52,WP,1,0,0,0,0,0,0,1764604883958,3772,3798,3819,3836,3794,3770,18,,,,,,,0,0,0,-44.00,-6.00,1059.00,1.00,1.00,-51.00,14,201.00,4.12,4.57,-1.00,0.00,-4.00,0,,,100,99,19,2,0,0,1,1,0,,,,,0.0,0.0,0.0,0.0,0.0,0.0,0
-22.959745,-67.786919,20.10,0.00,0.22,0.45,20.10,20.10,3.60,0.66,8969,2025-12-01 16:01:24.059,2025-12-01 13:01:24.059,18,0,0,45.229,-22.959744,-67.786924,-0.10,0.00,-0.20,4.70,-0.50,115.50,0,1,0,95,87,-58631,13859,45229,2971.50,52,WP,1,0,0,0,0,0,0,1764604884059,3772,3798,3819,3836,3794,3770,18,,,,,,,0,0,0,-47.00,-5.00,1155.00,0.00,1.00,-134.00,14,201.00,2.24,4.52,-1.00,0.00,-2.00,0,,,100,99,19,2,0,0,1,1,0,,,,,0.0,0.0,0.0,0.0,0.0,0.0,0
-22.959745,-67.786919,20.10,0.00,0.00,0.43,20.10,20.10,3.60,0.66,9271,2025-12-01 16:01:24.361,2025-12-01 13:01:24.361,18,0,0,45.229,-22.959744,-67.786924,0.00,0.00,0.00,5.00,-3.50,143.70,0,1,0,95,87,-58631,13859,45229,2971.50,52,WP,1,0,0,0,0,0,0,1764604884361,3772,3798,3819,3836,3794,3770,18,,,,,,,0,0,0,-50.00,-35.00,1437.00,0.00,2.00,-299.00,14,201.00,0.00,4.33,0.00,0.00,0.00,0,,,100,99,19,2,0,0,1,1,0,,,,,0.0,0.0,0.0,0.0,0.0,0.0,0
-22.959744,-67.786919,20.20,0.00,0.00,0.43,20.20,20.20,3.60,0.66,9368,2025-12-01 16:01:24.458,2025-12-01 13:01:24.458,18,0,0,45.229,-22.959744,-67.786924,0.00,0.00,0.00,5.00,-4.70,153.00,0,1,0,95,87,-58631,13859,45229,2971.50,52,WP,1,0,0,0,0,0,0,1764604884458,3772,3798,3819,3836,3794,3770,18,,,,,,,0,0,0,-50.00,-47.00,1530.00,0.00,2.00,-418.00,14,202.00,0.00,4.28,0.00,0.00,0.00,0,,,100,99,19,2,0,0,1,1,0,,,,,0.0,0.0,0.0,0.0,0.0,0.0,0
-22.959744,-67.786919,20.20,0.00,0.14,0.43,20.20,20.20,3.60,0.66,9470,2025-12-01 16:01:24.561,2025-12-01 13:01:24.561,18,0,0,45.229,-22.959744,-67.786924,0.10,0.10,0.00,5.10,-5.00,161.80,0,1,0,95,87,-58631,13859,45229,2971.50,52,WP,1,0,0,0,0,0,0,1764604884560,3772,3798,3819,3836,3794,3770,18,,,,,,,0,0,0,-51.00,-50.00,1618.00,0.00,1.00,-459.00,14,202.00,1.41,4.33,1.00,1.00,0.00,0,,,100,99,19,2,0,0,1,1,0,,,,,0.0,0.0,0.0,0.0,0.0,0.0,0
-22.959744,-67.786919,20.20,0.00,0.22,0.46,20.20,20.20,3.60,0.66,9583,2025-12-01 16:01:24.674,2025-12-01 13:01:24.674,18,0,0,45.229,-22.959744,-67.786924,0.10,0.20,0.00,4.50,-4.40,168.80,0,1,0,95,87,-58631,13859,45229,2971.50,52,WP,1,0,0,0,0,0,0,1764604884673,3772,3798,3819,3836,3794,3770,18,,,,,,,0,0,0,-45.00,-44.00,1688.00,-1.00,1.00,-488.00,14,202.00,2.24,4.58,1.00,2.00,0.00,0,,,100,99,19,2,0,0,1,1,0,,,,,0.0,0.0,0.0,0.0,0.0,0.0,0
-22.959744,-67.786919,20.20,0.00,0.36,0.49,20.20,20.20,3.60,0.66,9670,2025-12-01 16:01:24.760,2025-12-01 13:01:24.760,18,0,0,45.229,-22.959744,-67.786924,0.20,0.30,0.00,3.50,-2.50,173.70,0,1,0,95,87,-58631,13859,45229,2971.50,52,WP,1,0,0,0,0,0,0,1764604884760,3772,3798,3819,3836,3794,3770,18,,,,,,,0,0,0,-35.00,-25.00,1737.00,0.00,2.00,-507.00,14,202.00,3.61,4.94,2.00,3.00,0.00,0,,,100,99,19,2,0,0,1,1,0,,,,,0.0,0.0,0.0,0.0,0.0,0.0,0
-22.959744,-67.786918,20.20,0.00,0.45,0.56,20.20,20.20,3.60,0.66,9772,2025-12-01 16:01:24.863,2025-12-01 13:01:24.863,18,0,0,45.229,-22.959744,-67.786924,0.20,0.40,0.00,2.10,0.20,176.80,0,1,0,95,87,-58631,13859,45229,2971.50,52,WP,1,0,0,0,0,0,0,1764604884862,3772,3798,3819,3836,3794,3770,18,,,,,,,0,0,0,-21.00,2.00,1768.00,0.00,1.00,-486.00,14,202.00,4.47,5.60,2.00,4.00,0.00,0,,,100,99,19,2,0,0,1,1,0,,,,,0.0,0.0,0.0,0.0,0.0,0.0,0
-22.959743,-67.786917,20.20,0.00,0.45,0.63,20.20,20.20,3.60,0.66,9882,2025-12-01 16:01:24.972,2025-12-01 13:01:24.973,18,0,0,45.229,-22.959744,-67.786924,0.20,0.40,0.00,0.50,2.90,178.40,0,1,0,95,87,-58631,13859,45229,2971.50,52,WP,1,0,0,0,0,0,0,1764604884972,3772,3798,3819,3836,3794,3770,18,,,,,,,0,0,0,-5.00,29.00,1784.00,0.00,1.00,-449.00,14,202.00,4.47,6.31,2.00,4.00,0.00,0,,,100,99,19,2,0,0,1,1,0,,,,,0.0,0.0,0.0,0.0,0.0,0.0,0
-22.959743,-67.786917,20.20,0.00,0.45,0.69,20.20,20.20,3.60,0.69,9982,2025-12-01 16:01:25.073,2025-12-01 13:01:25.073,18,0,0,45.229,-22.959744,-67.786924,0.20,0.40,0.00,-0.80,4.00,178.90,0,1,0,95,87,-58631,13859,45229,2971.50,52,WP,1,0,0,0,0,0,0,1764604885072,3772,3798,3819,3836,3794,3770,18,,,,,,,0,0,0,8.00,40.00,1789.00,0.00,1.00,-400.00,14,202.00,4.47,6.95,2.00,4.00,0.00,0,,,100,99,19,2,0,0,1,1,0,,,,,0.0,0.0,0.0,0.0,0.0,0.0,0
-22.959743,-67.786916,20.20,0.00,0.41,0.76,20.20,20.20,3.60,0.76,10079,2025-12-01 16:01:25.169,2025-12-01 13:01:25.169,18,0,0,45.931,-22.959744,-67.786924,0.10,0.40,0.00,-2.80,4.30,179.20,0,1,0,95,87,-55811,13859,45931,2971.50,52,WP,1,0,0,0,0,0,0,1764604885169,3772,3798,3819,3836,3794,3770,18,,,,,,,0,0,0,28.00,43.00,1792.00,0.00,1.00,-349.00,14,202.00,4.12,7.58,1.00,4.00,0.00,0,,,100,99,19,2,0,0,1,1,0,,,,,0.0,0.0,0.0,0.0,0.0,0.0,0
-22.959743,-67.786916,20.20,0.00,0.40,0.82,20.20,20.20,3.60,0.82,10182,2025-12-01 16:01:25.273,2025-12-01 13:01:25.273,18,0,0,45.931,-22.959744,-67.786924,0.00,0.40,0.00,-4.90,4.10,179.20,0,1,0,95,87,-55811,13859,45931,2971.50,52,WP,1,0,0,0,0,0,0,1764604885272,3772,3798,3819,3836,3794,3770,18,,,,,,,0,0,0,49.00,41.00,1792.00,0.00,1.00,-305.00,14,202.00,4.00,8.18,0.00,4.00,0.00,0,,,100,99,19,2,0,0,1,1,0,,,,,0.0,0.0,0.0,0.0,0.0,0.0,0
-22.959743,-67.786915,20.20,0.00,0.40,0.87,20.20,20.20,3.60,0.87,10282,2025-12-01 16:01:25.373,2025-12-01 13:01:25.373,18,0,0,45.931,-22.959744,-67.786924,0.00,0.40,0.00,-7.50,3.80,179.20,0,1,0,95,87,-55811,13859,45931,2971.50,52,WP,1,0,0,0,0,0,0,1764604885372,3772,3798,3819,3836,3794,3770,18,,,,,,,0,0,0,75.00,38.00,1792.00,-1.00,1.00,-271.00,14,202.00,4.00,8.72,0.00,4.00,0.00,0,,,100,99,19,2,0,0,1,1,0,,,,,0.0,0.0,0.0,0.0,0.0,0.0,0
-22.959743,-67.786914,20.20,0.00,0.57,0.98,20.20,20.20,3.60,0.98,10477,2025-12-01 16:01:25.568,2025-12-01 13:01:25.568,18,0,0,45.931,-22.959744,-67.786924,-0.40,0.40,0.00,-11.40,4.60,178.80,0,1,0,95,87,-55811,13859,45931,2971.50,52,WP,1,0,0,0,0,0,0,1764604885567,3772,3798,3819,3836,3794,3770,18,,,,,,,0,0,0,114.00,46.00,1788.00,-1.00,1.00,-225.00,14,202.00,5.66,9.76,-4.00,4.00,0.00,0,,,100,99,19,2,0,0,1,1,0,,,,,0.0,0.0,0.0,0.0,0.0,0.0,0
-22.959744,-67.786914,20.20,0.00,0.72,1.03,20.20,20.20,3.60,1.03,10582,2025-12-01 16:01:25.673,2025-12-01 13:01:25.673,18,0,0,45.931,-22.959744,-67.786924,-0.60,0.40,0.00,-12.50,5.40,178.50,0,1,0,95,87,-55811,13859,45931,2971.50,52,WP,1,0,0,0,0,0,0,1764604885672,3772,3798,3819,3836,3794,3770,18,,,,,,,0,0,0,125.00,54.00,1785.00,0.00,1.00,-208.00,14,202.00,7.21,10.35,-6.00,4.00,0.00,0,,,100,99,19,2,0,0,1,1,0,,,,,0.0,0.0,0.0,0.0,0.0,0.0,0
-22.959745,-67.786913,20.20,0.00,0.98,1.09,20.20,20.20,3.60,1.09,10677,2025-12-01 16:01:25.768,2025-12-01 13:01:25.768,18,0,0,45.931,-22.959744,-67.786924,-0.90,0.40,0.00,-12.90,6.30,178.50,0,1,0,95,87,-55811,13859,45931,2971.50,52,WP,1,0,0,0,0,0,0,1764604885767,3772,3798,3819,3836,3794,3770,18,,,,,,,0,0,0,129.00,63.00,1785.00,-1.00,1.00,-193.00,14,202.00,9.85,10.92,-9.00,4.00,0.00,0,,,100,99,19,2,0,0,1,1,0,,,,,0.0,0.0,0.0,0.0,0.0,0.0,0
-22.959746,-67.786913,20.20,0.00,1.24,1.16,20.20,20.20,3.60,1.16,10781,2025-12-01 16:01:25.872,2025-12-01 13:01:25.872,18,0,0,45.931,-22.959744,-67.786924,-1.20,0.30,0.00,-13.10,7.30,178.30,0,1,0,95,87,-55811,13859,45931,2971.50,52,WP,1,0,0,0,0,0,0,1764604885871,3772,3798,3819,3836,3794,3770,18,,,,,,,0,0,0,131.00,73.00,1783.00,-1.00,1.00,-182.00,14,202.00,12.37,11.62,-12.00,3.00,0.00,0,,,100,100,19,2,0,0,1,1,0,,,,,0.0,0.0,0.0,0.0,0.0,0.0,0
-22.959748,-67.786912,20.20,0.00,1.43,1.24,20.20,20.20,3.60,1.24,10882,2025-12-01 16:01:25.972,2025-12-01 13:01:25.972,18,0,0,45.931,-22.959744,-67.786924,-1.40,0.30,0.00,-13.20,7.70,178.30,0,1,0,95,87,-55811,13859,45931,2971.50,52,WP,1,0,0,0,0,0,0,1764604885972,3772,3798,3819,3836,3794,3770,18,,,,,,,0,0,0,132.00,77.00,1783.00,0.00,1.00,-172.00,14,202.00,14.32,12.41,-14.00,3.00,0.00,0,,,100,100,19,2,0,0,1,1,0,,,,,0.0,0.0,0.0,0.0,0.0,0.0,0
-22.959749,-67.786912,20.20,0.00,1.71,1.36,20.20,20.20,3.60,1.36,10983,2025-12-01 16:01:26.073,2025-12-01 13:01:26.074,18,0,0,45.931,-22.959744,-67.786924,-1.70,0.20,0.00,-13.20,8.10,178.30,0,1,0,95,87,-55811,13859,45931,2971.50,52,WP,1,0,0,0,0,0,0,1764604886073,3772,3798,3819,3836,3794,3770,18,,,,,,,0,0,0,132.00,81.00,1783.00,0.00,1.00,-164.00,14,202.00,17.12,13.59,-17.00,2.00,0.00,0,,,100,100,19,2,0,0,1,1,0,,,,,0.0,0.0,0.0,0.0,0.0,0.0,0
-22.959751,-67.786912,20.20,0.00,1.91,1.49,20.20,20.20,3.60,1.49,11081,2025-12-01 16:01:26.171,2025-12-01 13:01:26.171,18,0,0,45.931,-22.959744,-67.786924,-1.90,0.20,0.00,-13.20,8.40,178.30,0,1,0,95,87,-55811,13859,45931,2971.50,52,WP,1,0,0,0,0,0,0,1764604886171,3772,3798,3819,3836,3794,3770,18,,,,,,,0,0,0,132.00,84.00,1783.00,0.00,1.00,-158.00,14,202.00,19.10,14.93,-19.00,2.00,0.00,0,,,100,100,19,2,0,0,1,1,0,,,,,0.0,0.0,0.0,0.0,0.0,0.0,0
-22.959757,-67.786911,20.30,0.00,2.40,1.90,20.30,20.30,3.60,1.90,11286,2025-12-01 16:01:26.376,2025-12-01 13:01:26.377,18,0,0,45.931,-22.959744,-67.786924,-2.40,0.10,-0.10,-12.80,8.40,178.50,0,1,0,95,87,-55811,13859,45931,2971.50,52,WP,1,0,0,0,0,0,0,1764604886376,3772,3798,3819,3836,3794,3770,18,,,,,,,0,0,0,128.00,84.00,1785.00,0.00,1.00,-152.00,14,203.00,24.04,19.03,-24.00,1.00,-1.00,0,,,100,98,19,2,0,0,1,1,0,,,,,0.0,0.0,0.0,0.0,0.0,0.0,0
-22.959759,-67.786911,20.30,0.00,2.70,2.13,20.30,20.30,3.60,2.13,11386,2025-12-01 16:01:26.476,2025-12-01 13:01:26.477,18,0,0,45.931,-22.959744,-67.786924,-2.70,0.00,-0.10,-12.80,8.10,178.60,0,1,0,95,87,-55811,13859,45931,2971.50,52,WP,1,0,0,0,0,0,0,1764604886476,3772,3798,3819,3836,3794,3770,18,,,,,,,0,0,0,128.00,81.00,1786.00,0.00,1.00,-152.00,14,203.00,27.02,21.30,-27.00,0.00,-1.00,0,,,100,98,19,2,0,0,1,1,0,,,,,0.0,0.0,0.0,0.0,0.0,0.0,0
-22.959762,-67.786911,20.30,0.00,2.90,2.40,20.30,20.30,3.60,2.40,11484,2025-12-01 16:01:26.574,2025-12-01 13:01:26.574,18,0,0,45.931,-22.959744,-67.786924,-2.90,0.00,-0.10,-12.70,7.50,178.60,0,1,0,95,87,-55811,13859,45931,2971.50,52,WP,1,0,0,0,0,0,0,1764604886574,3772,3798,3819,3836,3794,3770,18,,,,,,,0,0,0,127.00,75.00,1786.00,0.00,1.00,-140.00,14,203.00,29.02,24.00,-29.00,0.00,-1.00,0,,,100,98,19,2,0,0,1,1,0,,,,,0.0,0.0,0.0,0.0,0.0,0.0,0
-22.959766,-67.786911,20.30,0.00,3.10,2.71,20.30,20.30,3.60,2.71,11586,2025-12-01 16:01:26.676,2025-12-01 13:01:26.676,18,0,0,45.931,-22.959744,-67.786924,-3.10,0.00,-0.10,-12.60,7.10,178.50,0,1,0,95,87,-55811,13859,45931,2971.50,52,WP,1,0,0,0,0,0,0,1764604886676,3772,3798,3819,3836,3794,3770,18,,,,,,,0,0,0,126.00,71.00,1785.00,0.00,1.00,-136.00,14,203.00,31.02,27.13,-31.00,0.00,-1.00,0,,,100,98,19,2,0,0,1,1,0,,,,,0.0,0.0,0.0,0.0,0.0,0.0,0
-22.959769,-67.786912,20.40,0.00,3.30,3.04,20.40,20.40,3.60,3.04,11688,2025-12-01 16:01:26.778,2025-12-01 13:01:26.778,18,0,0,45.931,-22.959744,-67.786924,-3.30,-0.10,0.00,-12.80,6.60,178.50,0,1,0,95,87,-55811,13859,45931,2971.50,52,WP,1,0,0,0,0,0,0,1764604886778,3772,3798,3819,3836,3794,3770,18,,,,,,,0,0,0,128.00,66.00,1785.00,0.00,1.00,-132.00,14,204.00,33.02,30.42,-33.00,-1.00,0.00,0,,,100,98,19,2,0,0,1,1,0,,,,,0.0,0.0,0.0,0.0,0.0,0.0,0
-22.959773,-67.786912,20.40,0.00,3.50,3.42,20.40,20.40,3.60,3.42,11797,2025-12-01 16:01:26.888,2025-12-01 13:01:26.888,18,0,0,45.931,-22.959744,-67.786924,-3.50,-0.10,0.00,-13.40,6.40,178.50,0,1,0,95,87,-55811,13859,45931,2971.50,52,WP,1,0,0,0,0,0,0,1764604886887,3772,3798,3819,3836,3794,3770,18,,,,,,,0,0,0,134.00,64.00,1785.00,0.00,1.00,-128.00,14,204.00,35.01,34.25,-35.00,-1.00,0.00,0,,,100,97,19,2,0,0,1,1,0,,,,,0.0,0.0,0.0,0.0,0.0,0.0,0
-22.959777,-67.786912,20.40,0.00,3.81,3.82,20.40,20.40,3.81,3.82,11889,2025-12-01 16:01:26.980,2025-12-01 13:01:26.980,18,0,0,45.931,-22.959744,-67.786924,-3.80,-0.20,0.00,-14.00,6.00,178.40,0,1,0,95,87,-55811,13859,45931,2971.50,52,WP,1,0,0,0,0,0,0,1764604886979,3772,3798,3819,3836,3794,3770,18,,,,,,,0,0,0,140.00,60.00,1784.00,0.00,1.00,-125.00,14,204.00,38.05,38.18,-38.00,-2.00,0.00,0,,,100,97,19,2,0,0,1,1,0,,,,,0.0,0.0,0.0,0.0,0.0,0.0,0
-22.959781,-67.786912,20.40,0.00,4.10,4.26,20.40,20.40,4.10,4.26,11998,2025-12-01 16:01:27.089,2025-12-01 13:01:27.089,18,0,0,45.931,-22.959744,-67.786924,-4.10,-0.20,0.00,-14.40,5.80,178.40,0,1,0,95,87,-55811,13859,45931,2971.50,52,WP,1,0,0,0,0,0,0,1764604887088,3772,3798,3819,3836,3794,3770,18,,,,,,,0,0,0,144.00,58.00,1784.00,0.00,1.00,-121.00,14,204.00,41.05,42.61,-41.00,-2.00,0.00,0,,,100,97,19,2,0,0,1,1,0,,,,,0.0,0.0,0.0,0.0,0.0,0.0,0
-22.959785,-67.786913,20.40,0.00,4.30,4.72,20.40,20.40,4.30,4.72,12087,2025-12-01 16:01:27.178,2025-12-01 13:01:27.178,18,0,0,45.637,-22.959744,-67.786924,-4.30,-0.20,0.00,-14.30,5.40,178.50,0,1,0,94,87,-57038,13762,45637,2981.50,52,WP,1,0,0,0,0,0,0,1764604887177,3772,3798,3819,3836,3794,3770,18,,,,,,,0,0,0,143.00,54.00,1785.00,0.00,1.00,-119.00,14,204.00,43.05,47.16,-43.00,-2.00,0.00,0,,,100,97,19,2,0,0,1,1,0,,,,,0.0,0.0,0.0,0.0,0.0,0.0,0
-22.959795,-67.786913,20.40,0.00,4.81,5.73,20.40,20.40,4.81,5.73,12295,2025-12-01 16:01:27.385,2025-12-01 13:01:27.385,18,0,0,45.637,-22.959744,-67.786924,-4.80,-0.30,0.00,-13.30,5.50,178.70,0,1,0,94,87,-57038,13762,45637,2981.50,52,WP,1,0,0,0,0,0,0,1764604887385,3772,3798,3819,3836,3794,3770,18,,,,,,,0,0,0,133.00,55.00,1787.00,1.00,1.00,-116.00,14,204.00,48.09,57.35,-48.00,-3.00,0.00,0,,,100,97,19,2,0,0,1,1,0,,,,,0.0,0.0,0.0,0.0,0.0,0.0,0
-22.959800,-67.786914,20.40,0.00,5.11,6.30,20.40,20.40,5.11,6.30,12394,2025-12-01 16:01:27.485,2025-12-01 13:01:27.485,18,0,0,45.637,-22.959744,-67.786924,-5.10,-0.30,0.00,-12.40,5.80,178.90,0,1,0,94,87,-57038,13762,45637,2981.50,52,WP,1,0,0,0,0,0,0,1764604887484,3772,3798,3819,3836,3794,3770,18,,,,,,,0,0,0,124.00,58.00,1789.00,1.00,1.00,-115.00,14,204.00,51.09,63.00,-51.00,-3.00,0.00,0,,,100,97,19,2,0,0,1,1,0,,,,,0.0,0.0,0.0,0.0,0.0,0.0,0
-22.959805,-67.786914,20.40,0.00,5.32,6.87,20.40,20.40,5.32,6.87,12515,2025-12-01 16:01:27.605,2025-12-01 13:01:27.605,18,0,0,45.637,-22.959744,-67.786924,-5.30,-0.40,0.10,-11.50,5.60,179.10,0,1,0,94,87,-57038,13762,45637,2981.50,52,WP,1,0,0,0,0,0,0,1764604887605,3772,3798,3819,3836,3794,3770,18,,,,,,,0,0,0,115.00,56.00,1791.00,1.00,1.00,-114.00,14,204.00,53.16,68.66,-53.00,-4.00,1.00,0,,,100,97,19,2,0,0,1,1,0,,,,,0.0,0.0,0.0,0.0,0.0,0.0,0
-22.959811,-67.786914,20.40,0.00,5.52,7.48,20.40,20.40,5.52,7.48,12607,2025-12-01 16:01:27.698,2025-12-01 13:01:27.698,18,0,0,45.637,-22.959744,-67.786924,-5.50,-0.40,0.10,-10.70,5.40,179.30,0,1,0,94,87,-57038,13762,45637,2981.50,52,WP,1,0,0,0,0,0,0,1764604887697,3772,3798,3819,3836,3794,3770,18,,,,,,,0,0,0,107.00,54.00,1793.00,1.00,1.00,-114.00,14,204.00,55.15,74.78,-55.00,-4.00,1.00,0,,,100,97,19,2,0,0,1,1,0,,,,,0.0,0.0,0.0,0.0,0.0,0.0,0
-22.959817,-67.786915,20.40,0.00,5.72,8.09,20.40,20.40,5.72,8.09,12697,2025-12-01 16:01:27.787,2025-12-01 13:01:27.787,18,0,0,45.637,-22.959744,-67.786924,-5.70,-0.50,0.00,-10.10,4.80,179.40,0,1,0,94,87,-57038,13762,45637,2981.50,52,WP,1,0,0,0,0,0,0,1764604887787,3772,3798,3819,3836,3794,3770,18,,,,,,,0,0,0,101.00,48.00,1794.00,1.00,1.00,-114.00,14,204.00,57.22,80.87,-57.00,-5.00,0.00,0,,,100,97,19,2,0,0,1,1,0,,,,,0.0,0.0,0.0,0.0,0.0,0.0,0
-22.959823,-67.786916,20.40,0.00,5.92,8.74,20.40,20.40,5.92,8.74,12796,2025-12-01 16:01:27.887,2025-12-01 13:01:27.887,18,0,0,45.637,-22.959744,-67.786924,-5.90,-0.50,0.00,-9.80,4.10,179.40,0,1,0,94,87,-57038,13762,45637,2981.50,52,WP,1,0,0,0,0,0,0,1764604887886,3772,3798,3819,3836,3794,3770,18,,,,,,,0,0,0,98.00,41.00,1794.00,1.00,1.00,-113.00,14,204.00,59.21,87.39,-59.00,-5.00,0.00,0,,,100,96,19,2,0,0,1,1,0,,,,,0.0,0.0,0.0,0.0,0.0,0.0,0
-22.959828,-67.786916,20.40,0.00,6.12,9.39,20.40,20.40,6.12,9.39,12899,2025-12-01 16:01:27.989,2025-12-01 13:01:27.990,18,0,0,45.637,-22.959744,-67.786924,-6.10,-0.50,0.00,-9.90,3.40,179.50,0,1,0,94,87,-57038,13762,45637,2981.50,52,WP,1,0,0,0,0,0,0,1764604887989,3772,3798,3819,3836,3794,3770,18,,,,,,,0,0,0,99.00,34.00,1795.00,1.00,1.00,-113.00,14,204.00,61.20,93.86,-61.00,-5.00,0.00,0,,,100,96,19,2,0,0,1,1,0,,,,,0.0,0.0,0.0,0.0,0.0,0.0,0
-22.959835,-67.786917,20.40,0.00,6.33,10.06,20.40,20.40,6.33,10.06,12997,2025-12-01 16:01:28.088,2025-12-01 13:01:28.088,18,0,0,45.637,-22.959744,-67.786924,-6.30,-0.60,0.00,-10.40,2.80,179.50,0,1,0,94,87,-57038,13762,45637,2981.50,52,WP,1,0,0,0,0,0,0,1764604888087,3772,3798,3819,3836,3794,3770,18,,,,,,,0,0,0,104.00,28.00,1795.00,1.00,1.00,-110.00,14,204.00,63.29,100.58,-63.00,-6.00,0.00,0,,,100,96,19,2,0,0,1,1,0,,,,,0.0,0.0,0.0,0.0,0.0,0.0,0
-22.959841,-67.786918,20.40,0.00,6.53,10.73,20.40,20.40,6.53,10.73,13097,2025-12-01 16:01:28.188,2025-12-01 13:01:28.188,18,0,0,45.637,-22.959744,-67.786924,-6.50,-0.60,0.00,-10.90,2.40,179.50,0,1,0,94,87,-57038,13762,45637,2981.50,52,WP,1,0,0,0,0,0,0,1764604888187,3772,3798,3819,3836,3794,3770,18,,,,,,,0,0,0,109.00,24.00,1795.00,0.00,1.00,-108.00,14,204.00,65.28,107.32,-65.00,-6.00,0.00,0,,,100,96,19,2,0,0,1,1,0,,,,,0.0,0.0,0.0,0.0,0.0,0.0,0
-22.959847,-67.786918,20.40,0.00,6.73,11.47,20.40,20.40,6.73,11.47,13200,2025-12-01 16:01:28.291,2025-12-01 13:01:28.291,18,0,0,45.637,-22.959744,-67.786924,-6.70,-0.60,0.00,-11.20,1.80,179.50,0,1,0,94,87,-57038,13762,45637,2981.50,52,WP,1,0,0,0,0,0,0,1764604888290,3772,3798,3819,3836,3794,3770,18,,,,,,,0,0,0,112.00,18.00,1795.00,0.00,1.00,-107.00,14,204.00,67.27,114.67,-67.00,-6.00,0.00,0,,,100,96,19,2,0,0,1,1,0,,,,,0.0,0.0,0.0,0.0,0.0,0.0,0
-22.959854,-67.786919,20.50,0.00,6.92,12.19,20.50,20.50,6.92,12.19,13306,2025-12-01 16:01:28.396,2025-12-01 13:01:28.396,18,0,0,45.637,-22.959744,-67.786924,-6.90,-0.50,0.00,-11.50,1.10,179.50,0,1,0,94,87,-57038,13762,45637,2981.50,52,WP,1,0,0,0,0,0,0,1764604888396,3772,3798,3819,3836,3794,3770,18,,,,,,,0,0,0,115.00,11.00,1795.00,2.00,2.00,-105.00,14,205.00,69.18,121.90,-69.00,-5.00,0.00,0,,,100,97,19,2,0,0,1,1,0,,,,,0.0,0.0,0.0,0.0,0.0,0.0,0
-22.959861,-67.786919,20.50,0.00,7.02,12.92,20.50,20.50,7.02,12.92,13400,2025-12-01 16:01:28.491,2025-12-01 13:01:28.491,18,0,0,45.637,-22.959744,-67.786924,-7.00,-0.50,0.00,-11.80,0.70,179.50,0,1,0,94,87,-57038,13762,45637,2981.50,52,WP,1,0,0,0,0,0,0,1764604888490,3772,3798,3819,3836,3794,3770,18,,,,,,,0,0,0,118.00,7.00,1795.00,4.00,1.00,-103.00,14,205.00,70.18,129.23,-70.00,-5.00,0.00,0,,,100,97,19,2,0,0,1,1,0,,,,,0.0,0.0,0.0,0.0,0.0,0.0,0
-22.959874,-67.786920,20.50,0.00,7.41,14.46,20.50,20.50,7.41,14.46,13603,2025-12-01 16:01:28.693,2025-12-01 13:01:28.693,18,0,0,45.637,-22.959744,-67.786924,-7.40,-0.40,0.00,-13.10,1.20,179.30,0,1,0,94,87,-57038,13762,45637,2981.50,52,WP,1,0,0,0,0,0,0,1764604888693,3772,3798,3819,3836,3794,3770,18,,,,,,,0,0,0,131.00,12.00,1793.00,3.00,1.00,-101.00,14,205.00,74.11,144.58,-74.00,-4.00,0.00,0,,,100,97,19,2,0,0,1,1,0,,,,,0.0,0.0,0.0,0.0,0.0,0.0,0
-22.959882,-67.786920,20.60,0.00,7.61,15.25,20.60,20.60,7.61,15.25,13704,2025-12-01 16:01:28.794,2025-12-01 13:01:28.794,18,0,0,45.637,-22.959744,-67.786924,-7.60,-0.40,-0.10,-13.70,1.30,179.30,0,1,0,94,87,-57038,13762,45637,2981.50,52,WP,1,0,0,0,0,0,0,1764604888794,3772,3798,3819,3836,3794,3770,18,,,,,,,0,0,0,137.00,13.00,1793.00,2.00,1.00,-96.00,14,206.00,76.11,152.48,-76.00,-4.00,-1.00,0,,,100,97,19,2,0,0,1,1,0,,,,,0.0,0.0,0.0,0.0,0.0,0.0,0
-22.959889,-67.786921,20.60,0.00,7.81,16.09,20.60,20.60,7.81,16.09,13817,2025-12-01 16:01:28.907,2025-12-01 13:01:28.907,18,0,0,45.637,-22.959744,-67.786924,-7.80,-0.40,0.00,-13.90,1.40,179.30,0,1,0,94,87,-57038,13762,45637,2981.50,52,WP,1,0,0,0,0,0,0,1764604888907,3772,3798,3819,3836,3794,3770,18,,,,,,,0,0,0,139.00,14.00,1793.00,4.00,1.00,-94.00,14,206.00,78.10,160.88,-78.00,-4.00,0.00,0,,,100,91,19,2,0,0,1,1,0,,,,,0.0,0.0,0.0,0.0,0.0,0.0,0
-22.959897,-67.786921,20.60,0.00,8.01,17.00,20.60,20.60,8.01,17.00,13915,2025-12-01 16:01:29.005,2025-12-01 13:01:29.005,18,0,0,45.637,-22.959744,-67.786924,-8.00,-0.30,0.00,-13.90,2.20,179.30,0,1,0,94,87,-57038,13762,45637,2981.50,52,WP,1,0,0,0,0,0,0,1764604889005,3772,3798,3819,3836,3794,3770,18,,,,,,,0,0,0,139.00,22.00,1793.00,3.00,1.00,-93.00,14,206.00,80.06,169.97,-80.00,-3.00,0.00,0,,,100,91,19,2,0,0,1,1,0,,,,,0.0,0.0,0.0,0.0,0.0,0.0,0
-22.959905,-67.786921,20.60,0.00,8.21,17.82,20.60,20.60,8.21,17.82,14007,2025-12-01 16:01:29.097,2025-12-01 13:01:29.097,18,0,0,45.637,-22.959744,-67.786924,-8.20,-0.30,0.00,-13.70,2.40,179.30,0,1,0,94,87,-57038,13762,45637,2981.50,52,WP,1,0,0,0,0,0,0,1764604889097,3772,3798,3819,3836,3794,3770,18,,,,,,,0,0,0,137.00,24.00,1793.00,5.00,1.00,-91.00,14,206.00,82.05,178.21,-82.00,-3.00,0.00,0,,,100,91,19,2,0,0,1,1,0,,,,,0.0,0.0,0.0,0.0,0.0,0.0,0
-22.959913,-67.786922,20.70,0.00,8.41,18.70,20.70,20.70,8.41,18.70,14114,2025-12-01 16:01:29.204,2025-12-01 13:01:29.205,18,0,0,44.647,-22.959744,-67.786924,-8.40,-0.30,0.00,-12.70,2.70,179.40,0,1,0,94,87,-62628,13762,44647,2981.50,52,WP,1,0,0,0,0,0,0,1764604889204,3772,3798,3819,3836,3794,3770,18,,,,,,,0,0,0,127.00,27.00,1794.00,5.00,1.00,-90.00,14,207.00,84.05,187.01,-84.00,-3.00,0.00,0,,,100,91,19,2,0,0,1,1,0,,,,,0.0,0.0,0.0,0.0,0.0,0.0,0
-22.959929,-67.786922,20.60,0.00,8.71,20.54,20.70,20.70,8.71,20.54,14313,2025-12-01 16:01:29.404,2025-12-01 13:01:29.404,18,0,0,44.647,-22.959744,-67.786924,-8.70,-0.30,0.00,-8.80,2.60,179.40,0,1,0,94,87,-62628,13762,44647,2981.50,52,WP,1,0,0,0,0,0,0,1764604889403,3772,3798,3819,3836,3794,3770,18,,,,,,,0,0,0,88.00,26.00,1794.00,4.00,1.00,-87.00,14,206.00,87.05,205.43,-87.00,-3.00,0.00,0,,,100,91,19,2,0,0,1,1,0,,,,,0.0,0.0,0.0,0.0,0.0,0.0,0
-22.959938,-67.786922,20.70,0.00,8.81,21.49,20.70,20.70,8.81,21.49,14415,2025-12-01 16:01:29.506,2025-12-01 13:01:29.506,18,0,0,44.647,-22.959744,-67.786924,-8.80,-0.30,0.00,-6.90,2.30,179.40,0,1,0,94,87,-62628,13762,44647,2981.50,52,WP,1,0,0,0,0,0,0,1764604889505,3772,3798,3819,3836,3794,3770,18,,,,,,,0,0,0,69.00,23.00,1794.00,5.00,1.00,-85.00,14,207.00,88.05,214.89,-88.00,-3.00,0.00,0,,,100,93,19,2,0,0,1,1,0,,,,,0.0,0.0,0.0,0.0,0.0,0.0,0
-22.959946,-67.786923,20.70,0.00,8.91,22.42,20.70,20.70,8.91,22.42,14515,2025-12-01 16:01:29.606,2025-12-01 13:01:29.606,18,0,0,44.647,-22.959744,-67.786924,-8.90,-0.30,0.00,-5.00,2.10,179.50,0,1,0,94,87,-62628,13762,44647,2981.50,52,WP,1,0,0,0,0,0,0,1764604889605,3772,3798,3819,3836,3794,3770,18,,,,,,,0,0,0,50.00,21.00,1795.00,7.00,1.00,-83.00,14,207.00,89.05,224.15,-89.00,-3.00,0.00,0,,,100,93,19,2,0,0,1,1,0,,,,,0.0,0.0,0.0,0.0,0.0,0.0,0
-22.959955,-67.786923,20.70,0.00,8.91,23.35,20.70,20.70,8.91,23.35,14609,2025-12-01 16:01:29.699,2025-12-01 13:01:29.699,18,0,0,44.647,-22.959744,-67.786924,-8.90,-0.30,0.00,-3.40,1.70,179.50,0,1,0,94,87,-62628,13762,44647,2981.50,52,WP,1,0,0,0,0,0,0,1764604889699,3772,3798,3819,3836,3794,3770,18,,,,,,,0,0,0,34.00,17.00,1795.00,8.00,1.00,-82.00,14,207.00,89.05,233.49,-89.00,-3.00,0.00,0,,,100,93,19,2,0,0,1,1,0,,,,,0.0,0.0,0.0,0.0,0.0,0.0,0
-22.959963,-67.786923,20.80,0.00,8.91,24.27,20.80,20.80,8.91,24.27,14712,2025-12-01 16:01:29.802,2025-12-01 13:01:29.802,18,0,0,44.647,-22.959744,-67.786924,-8.90,-0.30,0.00,-2.10,1.90,179.50,0,1,0,94,87,-62628,13762,44647,2981.50,52,WP,1,0,0,0,0,0,0,1764604889802,3772,3798,3819,3836,3794,3770,18,,,,,,,0,0,0,21.00,19.00,1795.00,5.00,1.00,-81.00,14,208.00,89.05,242.68,-89.00,-3.00,0.00,0,,,100,93,19,2,0,0,1,1,0,,,,,0.0,0.0,0.0,0.0,0.0,0.0,0
-22.959972,-67.786923,20.80,0.00,8.91,25.20,20.80,20.80,8.91,25.20,14814,2025-12-01 16:01:29.905,2025-12-01 13:01:29.905,18,0,0,44.647,-22.959744,-67.786924,-8.90,-0.30,-0.10,-0.80,1.20,179.50,0,1,0,94,87,-62628,13762,44647,2981.50,52,WP,1,0,0,0,0,0,0,1764604889904,3772,3798,3819,3836,3794,3770,18,,,,,,,0,0,0,8.00,12.00,1795.00,2.00,1.00,-79.00,14,208.00,89.06,252.02,-89.00,-3.00,-1.00,0,,,100,93,19,2,0,0,1,1,0,,,,,0.0,0.0,0.0,0.0,0.0,0.0,0
-22.959980,-67.786924,20.90,0.00,8.91,26.12,20.90,20.90,8.91,26.12,14915,2025-12-01 16:01:30.006,2025-12-01 13:01:30.006,18,0,0,44.647,-22.959744,-67.786924,-8.90,-0.30,-0.10,0.40,0.70,179.30,0,1,0,94,87,-62628,13762,44647,2981.50,52,WP,1,0,0,0,0,0,0,1764604890005,3772,3798,3819,3836,3794,3770,18,,,,,,,0,0,0,-4.00,7.00,1793.00,3.00,0.00,-77.00,14,209.00,89.06,261.17,-89.00,-3.00,-1.00,0,,,100,93,19,2,0,0,1,1,0,,,,,0.0,0.0,0.0,0.0,0.0,0.0,0
