latitude,longitude,altitude(m),ultrasonicHeight(m),speed(mps),distance(m),max_altitude(m),max_ascent(m),max_speed(mps),max_distance(m),time(millisecond),datetime(utc),datetime(local),satellites,pressure(Pa),temperature(F),voltage(v),home_latitude,home_longitude,velocityX(mps),velocityY(mps),velocityZ(mps),pitch(deg),roll(deg),yaw(deg),powerlevel,isflying,istakingphoto,remainPowerPercent,remainLifePercent,currentCurrent,currentElectricity,currentVoltage,batteryTemperature,dischargeCount,flightmode,isMotorsOn,isTakingVideo,Rc_elevator,Rc_aileron,Rc_throttle,Rc_rudder,Rc_gyro,timestamp,Battery_Cell1,Battery_Cell2,Battery_Cell3,Battery_Cell4,Battery_Cell5,Battery_Cell6,Dronetype,AppVersion,Planename,FlyControllerSerialNumber,RemoteSerialNumber,BatterySerialNumber,CENTER_BATTERY.productDate,CENTER_BATTERY.serialNo,CENTER_BATTERY.fullCapacity,CENTER_BATTERY.productDateRaw,pitchRaw,rollRaw,yawRaw,gimbalPitchRaw,gimbalRollRaw,gimbalYawRaw,flyState,altitudeRaw,speedRaw,distanceRaw,velocityXRaw,velocityYRaw,velocityZRaw,data_reuse,App_Tip,App_Warning,downlinkSignalQuality,uplinkSignalQuality,transmissionChannel,rcModeSwitch,rcHome,rcPause,rcTransform,rcJoystickMode,appMode,FlyControllerSerialNumber_legacy,RemoteSerialNumber_legacy,BatterySerialNumber_legacy,Battery2SerialNumber,frontAvoidDist,backAvoidDist,rightAvoidDist,leftAvoidDist,upAvoidDist,downAvoidDist,isBrakingToAvoid
-22.959735,-67.786913,0.70,0.00,0.81,0.09,0.70,0.70,0.81,0.09,4,2025-11-30 14:28:54.259,2025-11-30 11:28:54.259,18,0,0,51.994,-22.959735,-67.786914,0.00,0.10,-0.80,0.00,-0.10,97.20,0,1,0,99,89,-1968,13853,51994,2981.50,45,TakeOff,1,0,0,0,0,0,0,1764512934258,4306,4340,4323,4320,4336,4329,18,Litchi_iOS_2.15.7,EIK Matrice 1,0670131556,03LLCA05XT,,,0,13949,0,-0.00,-1.00,972.00,-2.00,3.00,7.00,11,7.00,8.06,0.86,0.00,1.00,-8.00,0,,,100,100,20,2,0,0,1,1,0,(null),(null),(null),(null),0.0,0.0,0.0,0.0,0.0,0.0,0
-22.959735,-67.786913,0.80,0.00,0.71,0.10,0.80,0.80,0.81,0.10,100,2025-11-30 14:28:54.354,2025-11-30 11:28:54.354,18,0,0,51.994,-22.959735,-67.786914,0.00,0.10,-0.70,0.20,0.40,97.30,0,1,0,99,89,-1968,13853,51994,2981.50,45,TakeOff,1,0,0,0,0,0,0,1764512934354,4306,4340,4323,4320,4336,4329,18,,,,,,,0,0,0,-2.00,4.00,973.00,-1.00,3.00,6.00,11,8.00,7.07,0.98,0.00,1.00,-7.00,0,,,100,100,20,2,0,0,1,1,0,,,,,0.0,0.0,0.0,0.0,0.0,0.0,0
-22.959735,-67.786913,0.80,0.00,0.61,0.11,0.80,0.80,0.81,0.11,202,2025-11-30 14:28:54.457,2025-11-30 11:28:54.457,18,0,0,51.994,-22.959735,-67.786914,0.00,0.10,-0.60,0.50,0.70,97.30,0,1,0,99,89,-1968,13853,51994,2981.50,45,TakeOff,1,0,0,0,0,0,0,1764512934456,4306,4340,4323,4320,4336,4329,18,,,,,,,0,0,0,-5.00,7.00,973.00,0.00,3.00,6.00,11,8.00,6.08,1.08,0.00,1.00,-6.00,0,,,100,100,20,2,0,0,1,1,0,,,,,0.0,0.0,0.0,0.0,0.0,0.0,0
-22.959735,-67.786913,0.90,0.00,0.51,0.12,0.90,0.90,0.81,0.12,302,2025-11-30 14:28:54.557,2025-11-30 11:28:54.557,18,0,0,51.994,-22.959735,-67.786914,0.00,0.10,-0.50,0.70,0.80,97.30,0,1,0,99,89,-1968,13853,51994,2981.50,45,TakeOff,1,0,0,0,0,0,0,1764512934556,4306,4340,4323,4320,4336,4329,18,,,,,,,0,0,0,-7.00,8.00,973.00,0.00,3.00,6.00,11,9.00,5.10,1.17,0.00,1.00,-5.00,0,,,100,100,20,2,0,0,1,1,0,,,,,0.0,0.0,0.0,0.0,0.0,0.0,0
-22.959735,-67.786913,0.90,0.00,0.41,0.13,0.90,0.90,0.81,0.13,406,2025-11-30 14:28:54.661,2025-11-30 11:28:54.661,18,0,0,51.994,-22.959735,-67.786914,0.00,0.10,-0.40,0.90,0.60,97.30,0,1,0,99,89,-1968,13853,51994,2981.50,45,TakeOff,1,0,0,0,0,0,0,1764512934660,4306,4340,4323,4320,4336,4329,18,,,,,,,0,0,0,-9.00,6.00,973.00,0.00,3.00,6.00,11,9.00,4.12,1.26,0.00,1.00,-4.00,0,,,100,100,20,2,0,0,1,1,0,,,,,0.0,0.0,0.0,0.0,0.0,0.0,0
-22.959735,-67.786912,0.90,0.00,0.30,0.13,0.90,0.90,0.81,0.13,506,2025-11-30 14:28:54.761,2025-11-30 11:28:54.761,18,0,0,51.994,-22.959735,-67.786914,0.00,0.00,-0.30,1.20,0.20,97.30,0,1,0,99,89,-1968,13853,51994,2981.50,45,TakeOff,1,0,0,0,0,0,0,1764512934760,4306,4340,4323,4320,4336,4329,18,,,,,,,0,0,0,-12.00,2.00,973.00,0.00,2.00,5.00,11,9.00,3.00,1.33,0.00,0.00,-3.00,0,,,100,100,20,2,0,0,1,1,0,,,,,0.0,0.0,0.0,0.0,0.0,0.0,0
-22.959735,-67.786912,0.90,0.00,0.30,0.14,0.90,0.90,0.81,0.14,603,2025-11-30 14:28:54.858,2025-11-30 11:28:54.858,18,0,0,51.994,-22.959735,-67.786914,0.00,0.00,-0.30,1.50,-0.30,97.30,0,1,0,99,89,-1968,13853,51994,2981.50,45,TakeOff,1,0,0,0,0,0,0,1764512934857,4306,4340,4323,4320,4336,4329,18,,,,,,,0,0,0,-15.00,-3.00,973.00,0.00,2.00,5.00,11,9.00,3.00,1.40,0.00,0.00,-3.00,0,,,100,100,20,2,0,0,1,1,0,,,,,0.0,0.0,0.0,0.0,0.0,0.0,0
-22.959735,-67.786912,1.00,0.00,0.20,0.15,1.00,1.00,0.81,0.15,706,2025-11-30 14:28:54.961,2025-11-30 11:28:54.961,18,0,0,51.994,-22.959735,-67.786914,0.00,0.00,-0.20,1.70,-0.80,97.30,0,1,0,99,89,-1968,13853,51994,2981.50,45,TakeOff,1,0,0,0,0,0,0,1764512934960,4306,4340,4323,4320,4336,4329,18,,,,,,,0,0,0,-17.00,-8.00,973.00,0.00,3.00,6.00,11,10.00,2.00,1.46,0.00,0.00,-2.00,0,,,100,100,20,2,0,0,1,1,0,,,,,0.0,0.0,0.0,0.0,0.0,0.0,0
-22.959735,-67.786912,1.00,0.00,0.20,0.15,1.00,1.00,0.81,0.15,818,2025-11-30 14:28:55.072,2025-11-30 11:28:55.073,18,0,0,51.994,-22.959735,-67.786914,0.00,0.00,-0.20,1.80,-1.10,97.30,0,1,0,99,89,-1968,13853,51994,2981.50,45,TakeOff,1,0,0,0,0,0,0,1764512935072,4306,4340,4323,4320,4336,4329,18,,,,,,,0,0,0,-18.00,-11.00,973.00,0.00,3.00,6.00,11,10.00,2.00,1.51,0.00,0.00,-2.00,0,,,100,100,20,2,0,0,1,1,0,,,,,0.0,0.0,0.0,0.0,0.0,0.0,0
-22.959735,-67.786912,1.00,0.00,0.20,0.15,1.00,1.00,0.81,0.15,908,2025-11-30 14:28:55.163,2025-11-30 11:28:55.163,18,0,0,51.994,-22.959735,-67.786914,0.00,0.00,-0.20,1.80,-1.10,97.30,0,1,0,99,89,-1968,13853,51994,2981.50,45,GPS,1,0,0,0,0,0,0,1764512935162,4306,4340,4323,4320,4336,4329,18,,,,,,,0,0,0,-18.00,-11.00,973.00,0.00,2.00,6.00,6,10.00,2.00,1.54,0.00,0.00,-2.00,0,,,100,100,20,2,0,0,1,1,0,,,,,0.0,0.0,0.0,0.0,0.0,0.0,0
-22.959735,-67.786912,1.00,0.00,0.20,0.15,1.00,1.00,0.81,0.15,1017,2025-11-30 14:28:55.272,2025-11-30 11:28:55.272,18,0,0,51.994,-22.959735,-67.786914,0.00,0.00,-0.20,1.60,-0.90,97.30,0,1,0,99,89,-1968,13853,51994,2981.50,45,WP,1,0,0,0,0,0,0,1764512935271,4306,4340,4323,4320,4336,4329,18,,,,,,,0,0,0,-16.00,-9.00,973.00,0.00,2.00,6.00,14,10.00,2.00,1.54,0.00,0.00,-2.00,0,,,100,100,20,2,0,0,1,1,0,,,,,0.0,0.0,0.0,0.0,0.0,0.0,0
-22.959735,-67.786912,1.10,0.00,0.10,0.15,1.10,1.10,0.81,0.15,1109,2025-11-30 14:28:55.363,2025-11-30 11:28:55.363,18,0,0,51.994,-22.959735,-67.786914,0.00,0.00,-0.10,0.80,-0.60,97.20,0,1,0,99,89,-1968,13853,51994,2981.50,45,WP,1,0,0,0,0,0,0,1764512935363,4306,4340,4323,4320,4336,4329,18,,,,,,,0,0,0,-8.00,-6.00,972.00,0.00,3.00,6.00,14,11.00,1.00,1.49,0.00,0.00,-1.00,0,,,100,100,20,2,0,0,1,1,0,,,,,0.0,0.0,0.0,0.0,0.0,0.0,0
-22.959735,-67.786912,1.10,0.00,0.20,0.14,1.10,1.10,0.81,0.15,1214,2025-11-30 14:28:55.469,2025-11-30 11:28:55.469,18,0,0,51.994,-22.959735,-67.786914,0.00,0.00,-0.20,0.10,-0.30,97.30,0,1,0,99,89,-1968,13853,51994,2981.50,45,WP,1,0,0,0,0,0,0,1764512935468,4306,4340,4323,4320,4336,4329,18,,,,,,,0,0,0,-1.00,-3.00,973.00,-1.00,3.00,6.00,14,11.00,2.00,1.44,0.00,0.00,-2.00,0,,,100,100,20,2,0,0,1,1,0,,,,,0.0,0.0,0.0,0.0,0.0,0.0,0
-22.959735,-67.786912,1.10,0.00,0.20,0.14,1.10,1.10,0.81,0.15,1315,2025-11-30 14:28:55.570,2025-11-30 11:28:55.570,17,0,0,51.994,-22.959735,-67.786914,0.00,0.00,-0.20,-0.10,-0.20,97.20,0,1,0,99,89,-1968,13853,51994,2981.50,45,WP,1,0,0,0,0,0,0,1764512935569,4306,4340,4323,4320,4336,4329,18,,,,,,,0,0,0,1.00,-2.00,972.00,-1.00,3.00,6.00,14,11.00,2.00,1.38,0.00,0.00,-2.00,0,,,100,100,20,2,0,0,1,1,0,,,,,0.0,0.0,0.0,0.0,0.0,0.0,0
-22.959735,-67.786912,1.10,0.00,0.30,0.14,1.10,1.10,0.81,0.15,1410,2025-11-30 14:28:55.664,2025-11-30 11:28:55.664,17,0,0,51.994,-22.959735,-67.786914,0.00,0.00,-0.30,-0.10,-0.20,97.30,0,1,0,99,89,-1968,13853,51994,2981.50,45,WP,1,0,0,0,0,0,0,1764512935664,4306,4340,4323,4320,4336,4329,18,,,,,,,0,0,0,1.00,-2.00,973.00,0.00,3.00,6.00,14,11.00,3.00,1.37,0.00,0.00,-3.00,0,,,100,100,20,2,0,0,1,1,0,,,,,0.0,0.0,0.0,0.0,0.0,0.0,0
-22.959735,-67.786912,1.20,0.00,0.40,0.14,1.20,1.20,0.81,0.15,1518,2025-11-30 14:28:55.773,2025-11-30 11:28:55.773,17,0,0,49.852,-22.959735,-67.786914,0.00,0.00,-0.40,0.10,-0.30,97.30,0,1,0,99,89,-51975,13853,49852,2981.50,45,WP,1,0,0,0,0,0,0,1764512935772,4306,4340,4323,4320,4336,4329,18,,,,,,,0,0,0,-1.00,-3.00,973.00,0.00,3.00,6.00,14,12.00,4.00,1.36,0.00,0.00,-4.00,0,,,100,100,20,2,0,0,1,1,0,,,,,0.0,0.0,0.0,0.0,0.0,0.0,0
-22.959735,-67.786912,1.20,0.00,0.60,0.14,1.20,1.20,0.81,0.15,1618,2025-11-30 14:28:55.872,2025-11-30 11:28:55.872,17,0,0,49.852,-22.959735,-67.786914,0.00,0.00,-0.60,0.50,-0.50,97.30,0,1,0,99,89,-51975,13853,49852,2981.50,45,WP,1,0,0,0,0,0,0,1764512935872,4306,4340,4323,4320,4336,4329,18,,,,,,,0,0,0,-5.00,-5.00,973.00,0.00,3.00,6.00,14,12.00,6.00,1.37,0.00,0.00,-6.00,0,,,100,100,20,2,0,0,1,1,0,,,,,0.0,0.0,0.0,0.0,0.0,0.0,0
-22.959735,-67.786912,1.30,0.00,0.80,0.14,1.30,1.30,0.81,0.15,1716,2025-11-30 14:28:55.970,2025-11-30 11:28:55.970,17,0,0,49.852,-22.959735,-67.786914,0.00,0.00,-0.80,0.80,-0.40,97.20,0,1,0,99,89,-51975,13853,49852,2981.50,45,WP,1,0,0,0,0,0,0,1764512935970,4306,4340,4323,4320,4336,4329,18,,,,,,,0,0,0,-8.00,-4.00,972.00,0.00,3.00,6.00,14,13.00,8.00,1.36,0.00,0.00,-8.00,0,,,100,100,20,2,0,0,1,1,0,,,,,0.0,0.0,0.0,0.0,0.0,0.0,0
-22.959735,-67.786912,1.40,0.00,1.00,0.13,1.40,1.40,1.00,0.15,1815,2025-11-30 14:28:56.070,2025-11-30 11:28:56.070,17,0,0,49.852,-22.959735,-67.786914,0.00,0.00,-1.00,1.00,-0.20,97.20,0,1,0,99,89,-51975,13853,49852,2981.50,45,WP,1,0,0,0,0,0,0,1764512936069,4306,4340,4323,4320,4336,4329,18,,,,,,,0,0,0,-10.00,-2.00,972.00,0.00,3.00,6.00,14,14.00,10.00,1.34,0.00,0.00,-10.00,0,,,100,100,20,2,0,0,1,1,0,,,,,0.0,0.0,0.0,0.0,0.0,0.0,0
-22.959735,-67.786912,1.50,0.00,1.30,0.13,1.50,1.50,1.30,0.15,1917,2025-11-30 14:28:56.171,2025-11-30 11:28:56.172,17,0,0,49.852,-22.959735,-67.786914,0.10,0.00,-1.30,0.90,0.10,97.20,0,1,0,99,89,-51975,13853,49852,2981.50,45,WP,1,0,0,0,0,0,0,1764512936171,4306,4340,4323,4320,4336,4329,18,,,,,,,0,0,0,-9.00,1.00,972.00,0.00,3.00,7.00,14,15.00,13.04,1.32,1.00,0.00,-13.00,0,,,100,100,20,2,0,0,1,1,0,,,,,0.0,0.0,0.0,0.0,0.0,0.0,0
-22.959735,-67.786912,1.70,0.00,1.60,0.13,1.70,1.70,1.60,0.15,2013,2025-11-30 14:28:56.268,2025-11-30 11:28:56.268,17,0,0,49.852,-22.959735,-67.786914,0.00,0.00,-1.60,0.80,0.60,97.20,0,1,0,99,89,-51975,13853,49852,2981.50,45,WP,1,0,0,0,0,0,0,1764512936267,4306,4340,4323,4320,4336,4329,18,,,,,,,0,0,0,-8.00,6.00,972.00,0.00,3.00,7.00,14,17.00,16.00,1.33,0.00,0.00,-16.00,0,,,100,100,20,2,0,0,1,1,0,,,,,0.0,0.0,0.0,0.0,0.0,0.0,0
-22.959735,-67.786912,1.90,0.00,1.90,0.13,1.90,1.90,1.90,0.15,2116,2025-11-30 14:28:56.370,2025-11-30 11:28:56.370,17,0,0,49.852,-22.959735,-67.786914,0.00,0.00,-1.90,0.60,1.20,97.20,0,1,0,99,89,-51975,13853,49852,2981.50,45,WP,1,0,0,0,0,0,0,1764512936370,4306,4340,4323,4320,4336,4329,18,,,,,,,0,0,0,-6.00,12.00,972.00,0.00,3.00,7.00,14,19.00,19.00,1.31,0.00,0.00,-19.00,0,,,100,100,20,2,0,0,1,1,0,,,,,0.0,0.0,0.0,0.0,0.0,0.0,0
-22.959735,-67.786913,2.10,0.00,2.20,0.13,2.10,2.10,2.20,0.15,2217,2025-11-30 14:28:56.472,2025-11-30 11:28:56.472,17,0,0,49.852,-22.959735,-67.786914,0.00,0.00,-2.20,0.40,1.50,97.20,0,1,0,99,89,-51975,13853,49852,2981.50,45,WP,1,0,0,0,0,0,0,1764512936471,4306,4340,4323,4320,4336,4329,18,,,,,,,0,0,0,-4.00,15.00,972.00,0.00,3.00,7.00,14,21.00,22.00,1.27,0.00,0.00,-22.00,0,,,100,100,20,2,0,0,1,1,0,,,,,0.0,0.0,0.0,0.0,0.0,0.0,0
-22.959735,-67.786913,2.30,0.00,2.50,0.12,2.30,2.30,2.50,0.15,2317,2025-11-30 14:28:56.572,2025-11-30 11:28:56.572,17,0,0,49.852,-22.959735,-67.786914,0.00,0.00,-2.50,0.20,1.20,97.20,0,1,0,99,89,-51975,13853,49852,2981.50,45,WP,1,0,0,0,0,0,0,1764512936571,4306,4340,4323,4320,4336,4329,18,,,,,,,0,0,0,-2.00,12.00,972.00,0.00,3.00,7.00,14,23.00,25.00,1.21,0.00,0.00,-25.00,0,,,100,100,20,2,0,0,1,1,0,,,,,0.0,0.0,0.0,0.0,0.0,0.0,0
-22.959735,-67.786913,2.60,0.00,2.80,0.12,2.60,2.60,2.80,0.15,2421,2025-11-30 14:28:56.675,2025-11-30 11:28:56.676,17,0,0,49.852,-22.959735,-67.786914,0.00,0.00,-2.80,0.10,0.40,97.20,0,1,0,99,89,-51975,13853,49852,2981.50,45,WP,1,0,0,0,0,0,0,1764512936675,4306,4340,4323,4320,4336,4329,18,,,,,,,0,0,0,-1.00,4.00,972.00,0.00,2.00,7.00,14,26.00,28.00,1.16,0.00,0.00,-28.00,0,,,100,100,20,2,0,0,1,1,0,,,,,0.0,0.0,0.0,0.0,0.0,0.0,0
-22.959735,-67.786913,2.90,0.00,3.10,0.11,2.90,2.90,3.10,0.15,2522,2025-11-30 14:28:56.777,2025-11-30 11:28:56.777,18,0,0,49.852,-22.959735,-67.786914,0.00,0.00,-3.10,0.00,-0.30,97.10,0,1,0,99,89,-51975,13853,49852,2981.50,45,WP,1,0,0,0,0,0,0,1764512936776,4306,4340,4323,4320,4336,4329,18,,,,,,,0,0,0,-0.00,-3.00,971.00,0.00,2.00,7.00,14,29.00,31.00,1.09,0.00,0.00,-31.00,0,,,100,100,20,2,0,0,1,1,0,,,,,0.0,0.0,0.0,0.0,0.0,0.0,0
-22.959735,-67.786913,3.20,0.00,3.30,0.10,3.20,3.20,3.30,0.15,2619,2025-11-30 14:28:56.873,2025-11-30 11:28:56.873,18,0,0,49.852,-22.959735,-67.786914,0.00,0.00,-3.30,-0.20,-0.70,97.10,0,1,0,99,89,-51975,13853,49852,2981.50,45,WP,1,0,0,0,0,0,0,1764512936873,4306,4340,4323,4320,4336,4329,18,,,,,,,0,0,0,2.00,-7.00,971.00,0.00,3.00,8.00,14,32.00,33.00,1.03,0.00,0.00,-33.00,0,,,100,100,20,2,0,0,1,1,0,,,,,0.0,0.0,0.0,0.0,0.0,0.0,0
-22.959735,-67.786913,3.60,0.00,3.50,0.10,3.60,3.60,3.50,0.15,2722,2025-11-30 14:28:56.977,2025-11-30 11:28:56.977,18,0,0,49.852,-22.959735,-67.786914,0.00,0.00,-3.50,-0.40,-0.40,97.00,0,1,0,99,89,-51975,13853,49852,2981.50,45,WP,1,0,0,0,0,0,0,1764512936976,4306,4340,4323,4320,4336,4329,18,,,,,,,0,0,0,4.00,-4.00,970.00,-1.00,3.00,8.00,14,36.00,35.00,0.97,0.00,0.00,-35.00,0,,,100,100,20,2,0,0,1,1,0,,,,,0.0,0.0,0.0,0.0,0.0,0.0,0
-22.959735,-67.786913,3.90,0.00,3.50,0.10,3.90,3.90,3.50,0.15,2835,2025-11-30 14:28:57.089,2025-11-30 11:28:57.089,18,0,0,49.852,-22.959735,-67.786914,0.00,0.00,-3.50,-0.60,0.40,97.10,0,1,0,99,89,-51975,13853,49852,2981.50,45,WP,1,0,0,0,0,0,0,1764512937089,4306,4340,4323,4320,4336,4329,18,,,,,,,0,0,0,6.00,4.00,971.00,0.00,3.00,9.00,14,39.00,35.00,0.96,0.00,0.00,-35.00,0,,,100,100,20,2,0,0,1,1,0,,,,,0.0,0.0,0.0,0.0,0.0,0.0,0
-22.959735,-67.786913,4.20,0.00,3.50,0.10,4.20,4.20,3.50,0.15,2934,2025-11-30 14:28:57.188,2025-11-30 11:28:57.188,18,0,0,49.852,-22.959735,-67.786914,0.00,0.00,-3.50,-0.70,1.20,97.20,0,1,0,99,89,-51975,13853,49852,2981.50,45,WP,1,0,0,0,0,0,0,1764512937188,4306,4340,4323,4320,4336,4329,18,,,,,,,0,0,0,7.00,12.00,972.00,0.00,3.00,9.00,14,42.00,35.00,0.99,0.00,0.00,-35.00,0,,,100,100,20,2,0,0,1,1,0,,,,,0.0,0.0,0.0,0.0,0.0,0.0,0
-22.959735,-67.786913,4.60,0.00,3.50,0.11,4.60,4.60,3.50,0.15,3025,2025-11-30 14:28:57.279,2025-11-30 11:28:57.280,18,0,0,49.852,-22.959735,-67.786914,0.00,0.00,-3.50,-0.40,1.50,97.30,0,1,0,99,89,-51975,13853,49852,2981.50,45,WP,1,0,0,0,0,0,0,1764512937279,4306,4340,4323,4320,4336,4329,18,,,,,,,0,0,0,4.00,15.00,973.00,0.00,3.00,7.00,14,46.00,35.00,1.08,0.00,0.00,-35.00,0,,,100,100,20,2,0,0,1,1,0,,,,,0.0,0.0,0.0,0.0,0.0,0.0,0
-22.959735,-67.786913,4.90,0.00,3.40,0.12,4.90,4.90,3.50,0.15,3133,2025-11-30 14:28:57.387,2025-11-30 11:28:57.388,18,0,0,49.852,-22.959735,-67.786914,0.00,0.00,-3.40,0.00,1.40,97.30,0,1,0,99,89,-51975,13853,49852,2981.50,45,WP,1,0,0,0,0,0,0,1764512937387,4306,4340,4323,4320,4336,4329,18,,,,,,,0,0,0,-0.00,14.00,973.00,0.00,3.00,6.00,14,49.00,34.00,1.19,0.00,0.00,-34.00,0,,,100,100,20,2,0,0,1,1,0,,,,,0.0,0.0,0.0,0.0,0.0,0.0,0
-22.959735,-67.786913,5.20,0.00,3.30,0.13,5.20,5.20,3.50,0.15,3233,2025-11-30 14:28:57.488,2025-11-30 11:28:57.488,18,0,0,49.852,-22.959735,-67.786914,-0.10,0.00,-3.30,0.20,0.90,97.40,0,1,0,99,89,-51975,13853,49852,2981.50,45,WP,1,0,0,0,0,0,0,1764512937487,4306,4340,4323,4320,4336,4329,18,,,,,,,0,0,0,-2.00,9.00,974.00,0.00,3.00,6.00,14,52.00,33.02,1.32,-1.00,0.00,-33.00,0,,,100,100,20,2,0,0,1,1,0,,,,,0.0,0.0,0.0,0.0,0.0,0.0,0
-22.959736,-67.786913,5.50,0.00,3.20,0.15,5.50,5.50,3.50,0.15,3325,2025-11-30 14:28:57.580,2025-11-30 11:28:57.580,18,0,0,49.852,-22.959735,-67.786914,-0.10,0.00,-3.20,0.40,0.10,97.40,0,1,0,99,89,-51975,13853,49852,2981.50,45,WP,1,0,0,0,0,0,0,1764512937579,4306,4340,4323,4320,4336,4329,18,,,,,,,0,0,0,-4.00,1.00,974.00,0.00,3.00,5.00,14,55.00,32.02,1.46,-1.00,0.00,-32.00,0,,,100,100,20,2,0,0,1,1,0,,,,,0.0,0.0,0.0,0.0,0.0,0.0,0
-22.959736,-67.786913,5.80,0.00,3.10,0.16,5.80,5.80,3.50,0.16,3430,2025-11-30 14:28:57.684,2025-11-30 11:28:57.684,18,0,0,49.852,-22.959735,-67.786914,-0.10,0.00,-3.10,0.50,-0.70,97.40,0,1,0,99,89,-51975,13853,49852,2981.50,45,WP,1,0,0,0,0,0,0,1764512937684,4306,4340,4323,4320,4336,4329,18,,,,,,,0,0,0,-5.00,-7.00,974.00,0.00,3.00,5.00,14,58.00,31.02,1.63,-1.00,0.00,-31.00,0,,,100,100,20,2,0,0,1,1,0,,,,,0.0,0.0,0.0,0.0,0.0,0.0,0
-22.959736,-67.786912,6.10,0.00,3.00,0.18,6.10,6.10,3.50,0.18,3534,2025-11-30 14:28:57.788,2025-11-30 11:28:57.788,18,0,0,48.163,-22.959735,-67.786914,-0.10,0.00,-3.00,0.70,-1.60,97.50,0,1,0,99,89,-59701,13853,48163,2981.50,45,WP,1,0,0,0,0,0,0,1764512937788,4306,4340,4323,4320,4336,4329,18,,,,,,,0,0,0,-7.00,-16.00,975.00,0.00,3.00,4.00,14,61.00,30.02,1.80,-1.00,0.00,-30.00,0,,,100,100,20,2,0,0,1,1,0,,,,,0.0,0.0,0.0,0.0,0.0,0.0,0
-22.959736,-67.786912,6.30,0.00,3.00,0.20,6.30,6.30,3.50,0.20,3627,2025-11-30 14:28:57.881,2025-11-30 11:28:57.881,18,0,0,48.163,-22.959735,-67.786914,-0.10,0.00,-3.00,0.80,-2.30,97.50,0,1,0,99,89,-59701,13853,48163,2981.50,45,WP,1,0,0,0,0,0,0,1764512937881,4306,4340,4323,4320,4336,4329,18,,,,,,,0,0,0,-8.00,-23.00,975.00,0.00,3.00,4.00,14,63.00,30.02,1.98,-1.00,0.00,-30.00,0,,,100,100,20,2,0,0,1,1,0,,,,,0.0,0.0,0.0,0.0,0.0,0.0,0
-22.959736,-67.786912,6.60,0.00,3.00,0.21,6.60,6.60,3.50,0.21,3732,2025-11-30 14:28:57.987,2025-11-30 11:28:57.987,18,0,0,48.163,-22.959735,-67.786914,0.00,0.00,-3.00,0.70,-2.70,97.50,0,1,0,99,89,-59701,13853,48163,2981.50,45,WP,1,0,0,0,0,0,0,1764512937986,4306,4340,4323,4320,4336,4329,18,,,,,,,0,0,0,-7.00,-27.00,975.00,0.00,3.00,4.00,14,66.00,30.00,2.13,0.00,0.00,-30.00,0,,,100,100,20,2,0,0,1,1,0,,,,,0.0,0.0,0.0,0.0,0.0,0.0,0
-22.959736,-67.786912,6.90,0.00,3.00,0.22,6.90,6.90,3.50,0.22,3832,2025-11-30 14:28:58.087,2025-11-30 11:28:58.087,18,0,0,48.163,-22.959735,-67.786914,0.00,0.00,-3.00,0.50,-2.60,97.40,0,1,0,99,89,-59701,13853,48163,2981.50,45,WP,1,0,0,0,0,0,0,1764512938086,4306,4340,4323,4320,4336,4329,18,,,,,,,0,0,0,-5.00,-26.00,974.00,0.00,3.00,4.00,14,69.00,30.00,2.25,0.00,0.00,-30.00,0,,,100,100,20,2,0,0,1,1,0,,,,,0.0,0.0,0.0,0.0,0.0,0.0,0
-22.959737,-67.786912,7.20,0.00,2.90,0.23,7.20,7.20,3.50,0.23,3931,2025-11-30 14:28:58.186,2025-11-30 11:28:58.186,18,0,0,48.163,-22.959735,-67.786914,0.00,0.00,-2.90,0.30,-2.00,97.40,0,1,0,99,89,-59701,13853,48163,2981.50,45,WP,1,0,0,0,0,0,0,1764512938185,4306,4340,4323,4320,4336,4329,18,,,,,,,0,0,0,-3.00,-20.00,974.00,0.00,3.00,5.00,14,72.00,29.00,2.33,0.00,0.00,-29.00,0,,,100,100,20,2,0,0,1,1,0,,,,,0.0,0.0,0.0,0.0,0.0,0.0,0
-22.959737,-67.786912,7.50,0.00,3.00,0.24,7.50,7.50,3.50,0.24,4030,2025-11-30 14:28:58.285,2025-11-30 11:28:58.285,18,0,0,48.163,-22.959735,-67.786914,0.00,0.00,-3.00,0.40,-1.20,97.30,0,1,0,99,89,-59701,13853,48163,2981.50,45,WP,1,0,0,0,0,0,0,1764512938284,4306,4340,4323,4320,4336,4329,18,,,,,,,0,0,0,-4.00,-12.00,973.00,0.00,3.00,5.00,14,75.00,30.00,2.40,0.00,0.00,-30.00,0,,,100,100,20,2,0,0,1,1,0,,,,,0.0,0.0,0.0,0.0,0.0,0.0,0
-22.959737,-67.786912,7.80,0.00,3.00,0.24,7.80,7.80,3.50,0.24,4132,2025-11-30 14:28:58.386,2025-11-30 11:28:58.386,18,0,0,48.163,-22.959735,-67.786914,0.00,0.10,-3.00,0.50,-0.70,97.30,0,1,0,99,89,-59701,13853,48163,2981.50,45,WP,1,0,0,0,0,0,0,1764512938386,4306,4340,4323,4320,4336,4329,18,,,,,,,0,0,0,-5.00,-7.00,973.00,0.00,3.00,6.00,14,78.00,30.02,2.43,0.00,1.00,-30.00,0,,,100,100,20,2,0,0,1,1,0,,,,,0.0,0.0,0.0,0.0,0.0,0.0,0
-22.959736,-67.786912,8.10,0.00,3.10,0.25,8.10,8.10,3.50,0.25,4236,2025-11-30 14:28:58.490,2025-11-30 11:28:58.490,18,0,0,48.163,-22.959735,-67.786914,0.00,0.10,-3.10,0.70,-0.20,97.20,0,1,0,99,89,-59701,13853,48163,2981.50,45,WP,1,0,0,0,0,0,0,1764512938490,4306,4340,4323,4320,4336,4329,18,,,,,,,0,0,0,-7.00,-2.00,972.00,0.00,3.00,6.00,14,81.00,31.02,2.47,0.00,1.00,-31.00,0,,,100,100,20,2,0,0,1,1,0,,,,,0.0,0.0,0.0,0.0,0.0,0.0,0
-22.959736,-67.786912,8.40,0.00,3.10,0.25,8.40,8.40,3.50,0.25,4333,2025-11-30 14:28:58.587,2025-11-30 11:28:58.587,18,0,0,48.163,-22.959735,-67.786914,0.00,0.10,-3.10,0.80,0.20,97.20,0,1,0,99,89,-59701,13853,48163,2981.50,45,WP,1,0,0,0,0,0,0,1764512938587,4306,4340,4323,4320,4336,4329,18,,,,,,,0,0,0,-8.00,2.00,972.00,0.00,3.00,7.00,14,84.00,31.02,2.51,0.00,1.00,-31.00,0,,,100,100,20,2,0,0,1,1,0,,,,,0.0,0.0,0.0,0.0,0.0,0.0,0
-22.959736,-67.786912,9.10,0.00,3.20,0.27,9.10,9.10,3.50,0.27,4436,2025-11-30 14:28:58.690,2025-11-30 11:28:58.690,18,0,0,48.163,-22.959735,-67.786914,0.00,0.10,-3.20,1.20,0.80,97.20,0,1,0,99,89,-59701,13853,48163,2981.50,45,WP,1,0,0,0,0,0,0,1764512938690,4306,4340,4323,4320,4336,4329,18,,,,,,,0,0,0,-12.00,8.00,972.00,0.00,3.00,7.00,14,91.00,32.02,2.70,0.00,1.00,-32.00,0,,,100,100,20,2,0,0,1,1,0,,,,,0.0,0.0,0.0,0.0,0.0,0.0,0
-22.959736,-67.786912,9.40,0.00,3.20,0.28,9.40,9.40,3.50,0.28,4635,2025-11-30 14:28:58.889,2025-11-30 11:28:58.889,18,0,0,48.163,-22.959735,-67.786914,0.00,0.10,-3.20,1.80,0.60,97.20,0,1,0,99,89,-59701,13853,48163,2981.50,45,WP,1,0,0,0,0,0,0,1764512938889,4306,4340,4323,4320,4336,4329,18,,,,,,,0,0,0,-18.00,6.00,972.00,0.00,3.00,7.00,14,94.00,32.02,2.81,0.00,1.00,-32.00,0,,,100,100,20,2,0,0,1,1,0,,,,,0.0,0.0,0.0,0.0,0.0,0.0,0
-22.959737,-67.786912,9.70,0.00,3.10,0.30,9.70,9.70,3.50,0.30,4739,2025-11-30 14:28:58.993,2025-11-30 11:28:58.993,18,0,0,48.163,-22.959735,-67.786914,-0.10,0.10,-3.10,2.20,0.30,97.20,0,1,0,99,89,-59701,13853,48163,2981.50,45,WP,1,0,0,0,0,0,0,1764512938993,4306,4340,4323,4320,4336,4329,18,,,,,,,0,0,0,-22.00,3.00,972.00,0.00,3.00,6.00,14,97.00,31.03,2.96,-1.00,1.00,-31.00,0,,,100,100,20,2,0,0,1,1,0,,,,,0.0,0.0,0.0,0.0,0.0,0.0,0
-22.959737,-67.786911,10.10,0.00,3.10,0.31,10.10,10.10,3.50,0.31,4746,2025-11-30 14:28:59.001,2025-11-30 11:28:59.001,18,0,0,48.163,-22.959735,-67.786914,-0.10,0.10,-3.10,2.40,-0.20,97.20,0,1,0,99,89,-59701,13853,48163,2981.50,45,WP,1,0,0,0,0,0,0,1764512939000,4306,4340,4323,4320,4336,4329,18,,,,,,,0,0,0,-24.00,-2.00,972.00,0.00,3.00,6.00,14,101.00,31.03,3.10,-1.00,1.00,-31.00,0,,,100,100,20,2,0,0,1,1,0,,,,,0.0,0.0,0.0,0.0,0.0,0.0,0
-22.959737,-67.786911,10.40,0.00,3.10,0.33,10.40,10.40,3.50,0.33,4842,2025-11-30 14:28:59.097,2025-11-30 11:28:59.097,18,0,0,48.163,-22.959735,-67.786914,-0.10,0.00,-3.10,2.40,-0.60,97.20,0,1,0,99,89,-59701,13853,48163,2981.50,45,WP,1,0,0,0,0,0,0,1764512939096,4306,4340,4323,4320,4336,4329,18,,,,,,,0,0,0,-24.00,-6.00,972.00,0.00,3.00,6.00,14,104.00,31.02,3.25,-1.00,0.00,-31.00,0,,,100,96,20,2,0,0,1,1,0,,,,,0.0,0.0,0.0,0.0,0.0,0.0,0
-22.959737,-67.786911,10.70,0.00,3.10,0.34,10.70,10.70,3.50,0.34,5038,2025-11-30 14:28:59.293,2025-11-30 11:28:59.293,18,0,0,48.163,-22.959735,-67.786914,-0.10,0.00,-3.10,2.20,-1.00,97.30,0,1,0,99,89,-59701,13853,48163,2981.50,45,WP,1,0,0,0,0,0,0,1764512939292,4306,4340,4323,4320,4336,4329,18,,,,,,,0,0,0,-22.00,-10.00,973.00,0.00,3.00,6.00,14,107.00,31.02,3.40,-1.00,0.00,-31.00,0,,,100,96,20,2,0,0,1,1,0,,,,,0.0,0.0,0.0,0.0,0.0,0.0,0
-22.959737,-67.786911,11.00,0.00,3.00,0.35,11.00,11.00,3.50,0.35,5041,2025-11-30 14:28:59.295,2025-11-30 11:28:59.295,18,0,0,48.163,-22.959735,-67.786914,-0.10,0.00,-3.00,2.00,-1.20,97.30,0,1,0,99,89,-59701,13853,48163,2981.50,45,WP,1,0,0,0,0,0,0,1764512939295,4306,4340,4323,4320,4336,4329,18,,,,,,,0,0,0,-20.00,-12.00,973.00,0.00,3.00,6.00,14,110.00,30.02,3.53,-1.00,0.00,-30.00,0,,,100,96,20,2,0,0,1,1,0,,,,,0.0,0.0,0.0,0.0,0.0,0.0,0
-22.959737,-67.786911,11.30,0.00,3.00,0.36,11.30,11.30,3.50,0.36,5245,2025-11-30 14:28:59.500,2025-11-30 11:28:59.500,18,0,0,48.163,-22.959735,-67.786914,0.00,0.00,-3.00,1.80,-1.40,97.30,0,1,0,99,89,-59701,13853,48163,2981.50,45,WP,1,0,0,0,0,0,0,1764512939499,4306,4340,4323,4320,4336,4329,18,,,,,,,0,0,0,-18.00,-14.00,973.00,0.00,3.00,6.00,14,113.00,30.00,3.62,0.00,0.00,-30.00,0,,,100,96,20,2,0,0,1,1,0,,,,,0.0,0.0,0.0,0.0,0.0,0.0,0
-22.959737,-67.786911,11.60,0.00,3.00,0.37,11.60,11.60,3.50,0.37,5250,2025-11-30 14:28:59.504,2025-11-30 11:28:59.504,18,0,0,48.163,-22.959735,-67.786914,0.00,0.00,-3.00,1.80,-1.50,97.30,0,1,0,99,89,-59701,13853,48163,2981.50,45,WP,1,0,0,0,0,0,0,1764512939504,4306,4340,4323,4320,4336,4329,18,,,,,,,0,0,0,-18.00,-15.00,973.00,0.00,3.00,6.00,14,116.00,30.00,3.73,0.00,0.00,-30.00,0,,,100,96,20,2,0,0,1,1,0,,,,,0.0,0.0,0.0,0.0,0.0,0.0,0
-22.959737,-67.786911,11.90,0.00,3.00,0.38,11.90,11.90,3.50,0.38,5342,2025-11-30 14:28:59.597,2025-11-30 11:28:59.597,18,0,0,48.163,-22.959735,-67.786914,0.00,0.00,-3.00,1.90,-1.50,97.30,0,1,0,99,89,-59701,13853,48163,2981.50,45,WP,1,0,0,0,0,0,0,1764512939596,4306,4340,4323,4320,4336,4329,18,,,,,,,0,0,0,-19.00,-15.00,973.00,0.00,3.00,6.00,14,119.00,30.00,3.82,0.00,0.00,-30.00,0,,,100,95,20,2,0,0,1,1,0,,,,,0.0,0.0,0.0,0.0,0.0,0.0,0
-22.959737,-67.786911,12.20,0.00,3.00,0.39,12.20,12.20,3.50,0.39,5448,2025-11-30 14:28:59.702,2025-11-30 11:28:59.702,18,0,0,48.163,-22.959735,-67.786914,0.00,0.00,-3.00,2.00,-1.40,97.30,0,1,0,99,89,-59701,13853,48163,2981.50,45,WP,1,0,0,0,0,0,0,1764512939702,4306,4340,4323,4320,4336,4329,18,,,,,,,0,0,0,-20.00,-14.00,973.00,0.00,3.00,6.00,14,122.00,30.00,3.88,0.00,0.00,-30.00,0,,,100,95,20,2,0,0,1,1,0,,,,,0.0,0.0,0.0,0.0,0.0,0.0,0
-22.959737,-67.786911,12.40,0.00,3.00,0.39,12.40,12.40,3.50,0.39,5649,2025-11-30 14:28:59.903,2025-11-30 11:28:59.903,18,0,0,46.614,-22.959735,-67.786914,0.00,0.00,-3.00,2.10,-1.30,97.30,0,1,0,98,89,-52876,13757,46614,2991.50,45,WP,1,0,0,0,0,0,0,1764512939903,4306,4340,4323,4320,4336,4329,18,,,,,,,0,0,0,-21.00,-13.00,973.00,0.00,3.00,6.00,14,124.00,30.00,3.91,0.00,0.00,-30.00,0,,,100,95,20,2,0,0,1,1,0,,,,,0.0,0.0,0.0,0.0,0.0,0.0,0
-22.959737,-67.786911,12.80,0.00,3.00,0.39,12.80,12.80,3.50,0.39,5655,2025-11-30 14:28:59.910,2025-11-30 11:28:59.910,18,0,0,46.614,-22.959735,-67.786914,0.00,0.00,-3.00,2.20,-1.10,97.30,0,1,0,98,89,-52876,13757,46614,2991.50,45,WP,1,0,0,0,0,0,0,1764512939909,4306,4340,4323,4320,4336,4329,18,,,,,,,0,0,0,-22.00,-11.00,973.00,0.00,3.00,6.00,14,128.00,30.00,3.92,0.00,0.00,-30.00,0,,,100,95,20,2,0,0,1,1,0,,,,,0.0,0.0,0.0,0.0,0.0,0.0,0
-22.959737,-67.786911,13.10,0.00,3.00,0.39,13.10,13.10,3.50,0.39,5743,2025-11-30 14:28:59.997,2025-11-30 11:28:59.997,18,0,0,46.614,-22.959735,-67.786914,0.00,0.00,-3.00,2.20,-1.00,97.30,0,1,0,98,89,-52876,13757,46614,2991.50,45,WP,1,0,0,0,0,0,0,1764512939997,4306,4340,4323,4320,4336,4329,18,,,,,,,0,0,0,-22.00,-10.00,973.00,0.00,3.00,6.00,14,131.00,30.00,3.93,0.00,0.00,-30.00,0,,,100,95,20,2,0,0,1,1,0,,,,,0.0,0.0,0.0,0.0,0.0,0.0,0
-22.959737,-67.786911,13.40,0.00,3.00,0.39,13.40,13.40,3.50,0.39,5946,2025-11-30 14:29:00.200,2025-11-30 11:29:00.200,18,0,0,46.614,-22.959735,-67.786914,0.00,0.00,-3.00,2.20,-1.00,97.20,0,1,0,98,89,-52876,13757,46614,2991.50,45,WP,1,0,0,0,0,0,0,1764512940200,4306,4340,4323,4320,4336,4329,18,,,,,,,0,0,0,-22.00,-10.00,972.00,0.00,3.00,7.00,14,134.00,30.00,3.93,0.00,0.00,-30.00,0,,,100,95,20,2,0,0,1,1,0,,,,,0.0,0.0,0.0,0.0,0.0,0.0,0
-22.959737,-67.786911,13.70,0.00,3.00,0.39,13.70,13.70,3.50,0.39,5951,2025-11-30 14:29:00.205,2025-11-30 11:29:00.205,18,0,0,46.614,-22.959735,-67.786914,0.00,0.00,-3.00,2.20,-1.10,97.30,0,1,0,98,89,-52876,13757,46614,2991.50,45,WP,1,0,0,0,0,0,0,1764512940205,4306,4340,4323,4320,4336,4329,18,,,,,,,0,0,0,-22.00,-11.00,973.00,0.00,3.00,6.00,14,137.00,30.00,3.93,0.00,0.00,-30.00,0,,,100,96,20,2,0,0,1,1,0,,,,,0.0,0.0,0.0,0.0,0.0,0.0,0
-22.959737,-67.786911,14.00,0.00,3.00,0.39,14.00,14.00,3.50,0.39,6047,2025-11-30 14:29:00.302,2025-11-30 11:29:00.302,18,0,0,46.614,-22.959735,-67.786914,0.00,0.00,-3.00,2.20,-1.30,97.30,0,1,0,98,89,-52876,13757,46614,2991.50,45,WP,1,0,0,0,0,0,0,1764512940301,4306,4340,4323,4320,4336,4329,18,,,,,,,0,0,0,-22.00,-13.00,973.00,0.00,3.00,6.00,14,140.00,30.00,3.93,0.00,0.00,-30.00,0,,,100,96,20,2,0,0,1,1,0,,,,,0.0,0.0,0.0,0.0,0.0,0.0,0
-22.959737,-67.786911,14.30,0.00,3.00,0.39,14.30,14.30,3.50,0.39,6147,2025-11-30 14:29:00.401,2025-11-30 11:29:00.401,18,0,0,46.614,-22.959735,-67.786914,0.00,0.00,-3.00,2.20,-1.30,97.30,0,1,0,98,89,-52876,13757,46614,2991.50,45,WP,1,0,0,0,0,0,0,1764512940401,4306,4340,4323,4320,4336,4329,18,,,,,,,0,0,0,-22.00,-13.00,973.00,0.00,3.00,6.00,14,143.00,30.00,3.92,0.00,0.00,-30.00,0,,,100,96,20,2,0,0,1,1,0,,,,,0.0,0.0,0.0,0.0,0.0,0.0,0
-22.959737,-67.786911,14.60,0.00,3.00,0.39,14.60,14.60,3.50,0.39,6250,2025-11-30 14:29:00.505,2025-11-30 11:29:00.505,18,0,0,46.614,-22.959735,-67.786914,0.00,0.00,-3.00,2.20,-1.20,97.30,0,1,0,98,89,-52876,13757,46614,2991.50,45,WP,1,0,0,0,0,0,0,1764512940504,4306,4340,4323,4320,4336,4329,18,,,,,,,0,0,0,-22.00,-12.00,973.00,0.00,3.00,6.00,14,146.00,30.00,3.91,0.00,0.00,-30.00,0,,,100,96,20,2,0,0,1,1,0,,,,,0.0,0.0,0.0,0.0,0.0,0.0,0
-22.959737,-67.786911,14.90,0.00,3.00,0.39,14.90,14.90,3.50,0.39,6449,2025-11-30 14:29:00.703,2025-11-30 11:29:00.704,18,0,0,46.614,-22.959735,-67.786914,0.00,0.00,-3.00,2.10,-1.20,97.40,0,1,0,98,89,-52876,13757,46614,2991.50,45,WP,1,0,0,0,0,0,0,1764512940703,4306,4340,4323,4320,4336,4329,18,,,,,,,0,0,0,-21.00,-12.00,974.00,0.00,3.00,6.00,14,149.00,30.00,3.87,0.00,0.00,-30.00,0,,,100,96,20,2,0,0,1,1,0,,,,,0.0,0.0,0.0,0.0,0.0,0.0,0
-22.959737,-67.786911,15.20,0.00,3.00,0.38,15.20,15.20,3.50,0.39,6463,2025-11-30 14:29:00.717,2025-11-30 11:29:00.717,18,0,0,46.614,-22.959735,-67.786914,0.00,0.00,-3.00,1.90,-1.20,97.40,0,1,0,98,89,-52876,13757,46614,2991.50,45,WP,1,0,0,0,0,0,0,1764512940717,4306,4340,4323,4320,4336,4329,18,,,,,,,0,0,0,-19.00,-12.00,974.00,0.00,3.00,5.00,14,152.00,30.00,3.81,0.00,0.00,-30.00,0,,,100,99,20,2,0,0,1,1,0,,,,,0.0,0.0,0.0,0.0,0.0,0.0,0
-22.959737,-67.786911,15.50,0.00,3.00,0.37,15.50,15.50,3.50,0.39,6548,2025-11-30 14:29:00.803,2025-11-30 11:29:00.803,18,0,0,46.614,-22.959735,-67.786914,0.00,0.00,-3.00,1.80,-1.10,97.40,0,1,0,98,89,-52876,13757,46614,2991.50,45,WP,1,0,0,0,0,0,0,1764512940802,4306,4340,4323,4320,4336,4329,18,,,,,,,0,0,0,-18.00,-11.00,974.00,0.00,3.00,5.00,14,155.00,30.00,3.73,0.00,0.00,-30.00,0,,,100,99,20,2,0,0,1,1,0,,,,,0.0,0.0,0.0,0.0,0.0,0.0,0
-22.959737,-67.786911,15.80,0.00,2.90,0.36,15.80,15.80,3.50,0.39,6650,2025-11-30 14:29:00.904,2025-11-30 11:29:00.904,18,0,0,46.614,-22.959735,-67.786914,0.00,0.00,-2.90,2.00,-1.20,97.50,0,1,0,98,89,-52876,13757,46614,2991.50,45,WP,1,0,0,0,0,0,0,1764512940904,4306,4340,4323,4320,4336,4329,18,,,,,,,0,0,0,-20.00,-12.00,975.00,0.00,3.00,5.00,14,158.00,29.00,3.62,0.00,0.00,-29.00,0,,,100,99,20,2,0,0,1,1,0,,,,,0.0,0.0,0.0,0.0,0.0,0.0,0
-22.959737,-67.786911,16.10,0.00,2.80,0.35,16.10,16.10,3.50,0.39,6754,2025-11-30 14:29:01.008,2025-11-30 11:29:01.008,18,0,0,46.614,-22.959735,-67.786914,0.00,0.00,-2.80,2.30,-1.50,97.50,0,1,0,98,89,-52876,13757,46614,2991.50,45,WP,1,0,0,0,0,0,0,1764512941008,4306,4340,4323,4320,4336,4329,18,,,,,,,0,0,0,-23.00,-15.00,975.00,0.00,3.00,4.00,14,161.00,28.00,3.51,0.00,0.00,-28.00,0,,,100,99,20,2,0,0,1,1,0,,,,,0.0,0.0,0.0,0.0,0.0,0.0,0
-22.959737,-67.786911,16.40,0.00,2.60,0.34,16.40,16.40,3.50,0.39,6853,2025-11-30 14:29:01.107,2025-11-30 11:29:01.107,18,0,0,46.614,-22.959735,-67.786914,0.10,0.00,-2.60,2.70,-1.60,97.50,0,1,0,98,89,-52876,13757,46614,2991.50,45,WP,1,0,0,0,0,0,0,1764512941107,4306,4340,4323,4320,4336,4329,18,,,,,,,0,0,0,-27.00,-16.00,975.00,0.00,3.00,4.00,14,164.00,26.02,3.37,1.00,0.00,-26.00,0,,,100,99,20,2,0,0,1,1,0,,,,,0.0,0.0,0.0,0.0,0.0,0.0,0
-22.959737,-67.786911,16.60,0.00,2.40,0.33,16.60,16.60,3.50,0.39,6955,2025-11-30 14:29:01.210,2025-11-30 11:29:01.210,18,0,0,46.614,-22.959735,-67.786914,0.10,0.00,-2.40,3.00,-1.70,97.50,0,1,0,98,89,-52876,13757,46614,2991.50,45,WP,1,0,0,0,0,0,0,1764512941209,4306,4340,4323,4320,4336,4329,18,,,,,,,0,0,0,-30.00,-17.00,975.00,0.00,3.00,4.00,14,166.00,24.02,3.25,1.00,0.00,-24.00,0,,,100,99,20,2,0,0,1,1,0,,,,,0.0,0.0,0.0,0.0,0.0,0.0,0
-22.959736,-67.786911,16.90,0.00,2.30,0.31,16.90,16.90,3.50,0.39,7056,2025-11-30 14:29:01.310,2025-11-30 11:29:01.310,18,0,0,46.614,-22.959735,-67.786914,0.10,0.00,-2.30,3.40,-1.30,97.40,0,1,0,98,89,-52876,13757,46614,2991.50,45,WP,1,0,0,0,0,0,0,1764512941310,4306,4340,4323,4320,4336,4329,18,,,,,,,0,0,0,-34.00,-13.00,974.00,0.00,3.00,5.00,14,169.00,23.02,3.09,1.00,0.00,-23.00,0,,,100,99,20,2,0,0,1,1,0,,,,,0.0,0.0,0.0,0.0,0.0,0.0,0
-22.959736,-67.786911,17.10,0.00,2.11,0.29,17.10,17.10,3.50,0.39,7167,2025-11-30 14:29:01.421,2025-11-30 11:29:01.421,18,0,0,46.614,-22.959735,-67.786914,0.20,0.00,-2.10,3.40,-0.70,97.40,0,1,0,98,89,-52876,13757,46614,2991.50,45,WP,1,0,0,0,0,0,0,1764512941421,4306,4340,4323,4320,4336,4329,18,,,,,,,0,0,0,-34.00,-7.00,974.00,0.00,3.00,5.00,14,171.00,21.10,2.92,2.00,0.00,-21.00,0,,,100,99,20,2,0,0,1,1,0,,,,,0.0,0.0,0.0,0.0,0.0,0.0,0
-22.959736,-67.786911,17.30,0.00,1.90,0.27,17.30,17.30,3.50,0.39,7262,2025-11-30 14:29:01.517,2025-11-30 11:29:01.517,18,0,0,46.614,-22.959735,-67.786914,0.10,0.00,-1.90,3.40,0.00,97.30,0,1,0,98,89,-52876,13757,46614,2991.50,45,WP,1,0,0,0,0,0,0,1764512941516,4306,4340,4323,4320,4336,4329,18,,,,,,,0,0,0,-34.00,0.00,973.00,0.00,3.00,5.00,14,173.00,19.03,2.72,1.00,0.00,-19.00,0,,,100,99,20,2,0,0,1,1,0,,,,,0.0,0.0,0.0,0.0,0.0,0.0,0
-22.959736,-67.786911,17.50,0.00,1.80,0.26,17.50,17.50,3.50,0.39,7366,2025-11-30 14:29:01.620,2025-11-30 11:29:01.620,18,0,0,46.614,-22.959735,-67.786914,0.10,0.00,-1.80,3.40,0.50,97.30,0,1,0,98,89,-52876,13757,46614,2991.50,45,WP,1,0,0,0,0,0,0,1764512941620,4306,4340,4323,4320,4336,4329,18,,,,,,,0,0,0,-34.00,5.00,973.00,0.00,3.00,6.00,14,175.00,18.03,2.56,1.00,0.00,-18.00,0,,,100,99,20,2,0,0,1,1,0,,,,,0.0,0.0,0.0,0.0,0.0,0.0,0
-22.959736,-67.786912,17.60,0.00,1.70,0.24,17.60,17.60,3.50,0.39,7467,2025-11-30 14:29:01.721,2025-11-30 11:29:01.721,18,0,0,46.614,-22.959735,-67.786914,0.10,0.00,-1.70,3.20,0.90,97.30,0,1,0,98,89,-52876,13757,46614,2991.50,45,WP,1,0,0,0,0,0,0,1764512941721,4306,4340,4323,4320,4336,4329,18,,,,,,,0,0,0,-32.00,9.00,973.00,0.00,3.00,6.00,14,176.00,17.03,2.44,1.00,0.00,-17.00,0,,,100,99,20,2,0,0,1,1,0,,,,,0.0,0.0,0.0,0.0,0.0,0.0,0
-22.959735,-67.786912,17.80,0.00,1.60,0.23,17.80,17.80,3.50,0.39,7558,2025-11-30 14:29:01.813,2025-11-30 11:29:01.813,17,0,0,46.614,-22.959735,-67.786914,0.10,0.00,-1.60,3.10,1.00,97.20,0,1,0,98,89,-52876,13757,46614,2991.50,45,WP,1,0,0,0,0,0,0,1764512941812,4306,4340,4323,4320,4336,4329,18,,,,,,,0,0,0,-31.00,10.00,972.00,0.00,3.00,7.00,14,178.00,16.03,2.34,1.00,0.00,-16.00,0,,,100,97,20,2,0,0,1,1,0,,,,,0.0,0.0,0.0,0.0,0.0,0.0,0
-22.959735,-67.786912,18.00,0.00,1.40,0.23,18.00,18.00,3.50,0.39,7663,2025-11-30 14:29:01.918,2025-11-30 11:29:01.918,17,0,0,46.614,-22.959735,-67.786914,0.00,0.00,-1.40,3.10,0.70,97.10,0,1,0,98,89,-52876,13757,46614,2991.50,45,WP,1,0,0,0,0,0,0,1764512941917,4306,4340,4323,4320,4336,4329,18,,,,,,,0,0,0,-31.00,7.00,971.00,-1.00,3.00,7.00,14,180.00,14.00,2.26,0.00,0.00,-14.00,0,,,100,97,20,2,0,0,1,1,0,,,,,0.0,0.0,0.0,0.0,0.0,0.0,0
-22.959735,-67.786912,18.10,0.00,1.30,0.22,18.10,18.10,3.50,0.39,7767,2025-11-30 14:29:02.021,2025-11-30 11:29:02.022,17,0,0,46.614,-22.959735,-67.786914,0.00,0.00,-1.30,3.20,0.40,97.10,0,1,0,98,89,-52876,13757,46614,2991.50,45,WP,1,0,0,0,0,0,0,1764512942021,4306,4340,4323,4320,4336,4329,18,,,,,,,0,0,0,-32.00,4.00,971.00,0.00,3.00,8.00,14,181.00,13.00,2.21,0.00,0.00,-13.00,0,,,100,97,20,2,0,0,1,1,0,,,,,0.0,0.0,0.0,0.0,0.0,0.0,0
-22.959735,-67.786912,18.30,0.00,1.20,0.22,18.30,18.30,3.50,0.39,7867,2025-11-30 14:29:02.121,2025-11-30 11:29:02.121,17,0,0,46.614,-22.959735,-67.786914,0.00,0.00,-1.20,3.20,0.40,97.00,0,1,0,98,89,-52876,13757,46614,2991.50,45,WP,1,0,0,0,0,0,0,1764512942121,4306,4340,4323,4320,4336,4329,18,,,,,,,0,0,0,-32.00,4.00,970.00,0.00,3.00,8.00,14,183.00,12.00,2.17,0.00,0.00,-12.00,0,,,100,97,20,2,0,0,1,1,0,,,,,0.0,0.0,0.0,0.0,0.0,0.0,0
-22.959735,-67.786912,18.40,0.00,1.20,0.21,18.40,18.40,3.50,0.39,7959,2025-11-30 14:29:02.214,2025-11-30 11:29:02.214,17,0,0,46.614,-22.959735,-67.786914,0.00,0.00,-1.20,3.00,0.20,97.10,0,1,0,98,89,-52876,13757,46614,2991.50,45,WP,1,0,0,0,0,0,0,1764512942213,4306,4340,4323,4320,4336,4329,18,,,,,,,0,0,0,-30.00,2.00,971.00,0.00,3.00,9.00,14,184.00,12.00,2.08,0.00,0.00,-12.00,0,,,100,97,20,2,0,0,1,1,0,,,,,0.0,0.0,0.0,0.0,0.0,0.0,0
-22.959735,-67.786912,18.50,0.00,1.10,0.20,18.50,18.50,3.50,0.39,8065,2025-11-30 14:29:02.320,2025-11-30 11:29:02.320,17,0,0,46.614,-22.959735,-67.786914,0.00,0.00,-1.10,2.80,0.00,97.10,0,1,0,98,89,-52876,13757,46614,2991.50,45,WP,1,0,0,0,0,0,0,1764512942319,4306,4340,4323,4320,4336,4329,18,,,,,,,0,0,0,-28.00,0.00,971.00,-1.00,3.00,8.00,14,185.00,11.00,2.02,0.00,0.00,-11.00,0,,,100,97,20,2,0,0,1,1,0,,,,,0.0,0.0,0.0,0.0,0.0,0.0,0
-22.959735,-67.786912,18.80,0.00,1.10,0.18,18.80,18.80,3.50,0.39,8264,2025-11-30 14:29:02.518,2025-11-30 11:29:02.518,17,0,0,46.614,-22.959735,-67.786914,0.00,0.00,-1.10,3.10,-0.50,97.20,0,1,0,98,89,-52876,13757,46614,2991.50,45,WP,1,0,0,0,0,0,0,1764512942518,4306,4340,4323,4320,4336,4329,18,,,,,,,0,0,0,-31.00,-5.00,972.00,0.00,3.00,7.00,14,188.00,11.00,1.81,0.00,0.00,-11.00,0,,,100,97,20,2,0,0,1,1,0,,,,,0.0,0.0,0.0,0.0,0.0,0.0,0
-22.959735,-67.786912,18.90,0.00,1.20,0.17,18.90,18.90,3.50,0.39,8379,2025-11-30 14:29:02.633,2025-11-30 11:29:02.634,17,0,0,46.614,-22.959735,-67.786914,0.00,0.00,-1.20,3.00,-0.90,97.30,0,1,0,98,89,-52876,13757,46614,2991.50,45,WP,1,0,0,0,0,0,0,1764512942633,4306,4340,4323,4320,4336,4329,18,,,,,,,0,0,0,-30.00,-9.00,973.00,0.00,3.00,7.00,14,189.00,12.00,1.71,0.00,0.00,-12.00,0,,,100,97,20,2,0,0,1,1,0,,,,,0.0,0.0,0.0,0.0,0.0,0.0,0
-22.959735,-67.786912,19.00,0.00,1.20,0.16,19.00,19.00,3.50,0.39,8466,2025-11-30 14:29:02.721,2025-11-30 11:29:02.721,17,0,0,46.614,-22.959735,-67.786914,0.00,0.00,-1.20,2.60,-1.20,97.40,0,1,0,98,89,-52876,13757,46614,2991.50,45,WP,1,0,0,0,0,0,0,1764512942720,4306,4340,4323,4320,4336,4329,18,,,,,,,0,0,0,-26.00,-12.00,974.00,0.00,3.00,6.00,14,190.00,12.00,1.58,0.00,0.00,-12.00,0,,,100,97,20,2,0,0,1,1,0,,,,,0.0,0.0,0.0,0.0,0.0,0.0,0
-22.959735,-67.786912,19.10,0.00,1.20,0.15,19.10,19.10,3.50,0.39,8565,2025-11-30 14:29:02.820,2025-11-30 11:29:02.820,17,0,0,46.614,-22.959735,-67.786914,0.00,0.00,-1.20,2.00,-1.60,97.60,0,1,0,98,89,-52876,13757,46614,2991.50,45,WP,1,0,0,0,0,0,0,1764512942819,3888,4007,3932,3966,3993,3984,18,,,,,,,0,0,0,-20.00,-16.00,976.00,-1.00,3.00,4.00,14,191.00,12.00,1.49,0.00,0.00,-12.00,0,,,100,97,20,2,0,0,1,1,0,,,,,0.0,0.0,0.0,0.0,0.0,0.0,0
-22.959736,-67.786913,19.30,0.00,1.10,0.14,19.30,19.30,3.50,0.39,8668,2025-11-30 14:29:02.923,2025-11-30 11:29:02.923,18,0,0,46.614,-22.959735,-67.786914,0.00,0.00,-1.10,1.80,-1.80,97.60,0,1,0,98,89,-52876,13757,46614,2991.50,45,WP,1,0,0,0,0,0,0,1764512942922,3888,4007,3932,3966,3993,3984,18,,,,,,,0,0,0,-18.00,-18.00,976.00,0.00,3.00,3.00,14,193.00,11.00,1.36,0.00,0.00,-11.00,0,,,100,95,20,2,0,0,1,1,0,,,,,0.0,0.0,0.0,0.0,0.0,0.0,0
-22.959736,-67.786913,19.40,0.00,1.10,0.13,19.40,19.40,3.50,0.39,8783,2025-11-30 14:29:03.038,2025-11-30 11:29:03.038,18,0,0,46.614,-22.959735,-67.786914,0.00,0.00,-1.10,1.80,-1.80,97.50,0,1,0,98,89,-52876,13757,46614,2991.50,45,WP,1,0,0,0,0,0,0,1764512943037,3888,4007,3932,3966,3993,3984,18,,,,,,,0,0,0,-18.00,-18.00,975.00,0.00,3.00,3.00,14,194.00,11.00,1.26,0.00,0.00,-11.00,0,,,100,95,20,2,0,0,1,1,0,,,,,0.0,0.0,0.0,0.0,0.0,0.0,0
-22.959736,-67.786913,19.50,0.00,0.90,0.11,19.50,19.50,3.50,0.39,8883,2025-11-30 14:29:03.138,2025-11-30 11:29:03.138,18,0,0,46.614,-22.959735,-67.786914,0.00,0.00,-0.90,1.80,-1.50,99.30,0,1,0,98,89,-52876,13757,46614,2991.50,45,WP,1,0,0,0,0,0,0,1764512943137,3888,4007,3932,3966,3993,3984,18,,,,,,,0,0,0,-18.00,-15.00,993.00,0.00,3.00,4.00,14,195.00,9.00,1.13,0.00,0.00,-9.00,0,,,100,95,20,2,0,0,1,1,0,,,,,0.0,0.0,0.0,0.0,0.0,0.0,0
-22.959735,-67.786913,19.60,0.00,0.70,0.11,19.60,19.60,3.50,0.39,8970,2025-11-30 14:29:03.225,2025-11-30 11:29:03.225,18,0,0,46.614,-22.959735,-67.786914,0.00,0.00,-0.70,1.60,-0.70,105.00,0,1,0,98,89,-52876,13757,46614,2991.50,45,WP,1,0,0,0,0,0,0,1764512943224,3888,4007,3932,3966,3993,3984,18,,,,,,,0,0,0,-16.00,-7.00,1050.00,0.00,3.00,-23.00,14,196.00,7.00,1.05,0.00,0.00,-7.00,0,,,100,95,20,2,0,0,1,1,0,,,,,0.0,0.0,0.0,0.0,0.0,0.0,0
-22.959735,-67.786913,19.60,0.00,0.30,0.10,19.60,19.60,3.50,0.39,9083,2025-11-30 14:29:03.337,2025-11-30 11:29:03.337,18,0,0,46.614,-22.959735,-67.786914,0.00,0.00,-0.30,1.00,0.10,113.50,0,1,0,98,89,-52876,13757,46614,2991.50,45,WP,1,0,0,0,0,0,0,1764512943337,3888,4007,3932,3966,3993,3984,18,,,,,,,0,0,0,-10.00,1.00,1135.00,0.00,3.00,-86.00,14,196.00,3.00,0.95,0.00,0.00,-3.00,0,,,100,95,20,2,0,0,1,1,0,,,,,0.0,0.0,0.0,0.0,0.0,0.0,0
-22.959735,-67.786913,19.70,0.00,0.00,0.09,19.70,19.70,3.50,0.39,9273,2025-11-30 14:29:03.527,2025-11-30 11:29:03.527,18,0,0,46.614,-22.959735,-67.786914,0.00,0.00,0.00,2.00,-0.40,132.40,0,1,0,98,89,-52876,13757,46614,2991.50,45,WP,1,0,0,0,0,0,0,1764512943527,3888,4007,3932,3966,3993,3984,18,,,,,,,0,0,0,-20.00,-4.00,1324.00,0.00,3.00,-174.00,14,197.00,0.00,0.90,0.00,0.00,0.00,0,,,100,95,20,2,0,0,1,1,0,,,,,0.0,0.0,0.0,0.0,0.0,0.0,0
-22.959735,-67.786913,19.70,0.00,0.00,0.09,19.70,19.70,3.50,0.39,9374,2025-11-30 14:29:03.629,2025-11-30 11:29:03.629,18,0,0,46.614,-22.959735,-67.786914,0.00,0.00,0.00,3.10,-0.80,141.80,0,1,0,98,89,-52876,13757,46614,2991.50,45,WP,1,0,0,0,0,0,0,1764512943628,3888,4007,3932,3966,3993,3984,18,,,,,,,0,0,0,-31.00,-8.00,1418.00,0.00,3.00,-329.00,14,197.00,0.00,0.94,0.00,0.00,0.00,0,,,100,95,20,2,0,0,1,1,0,,,,,0.0,0.0,0.0,0.0,0.0,0.0,0
-22.959735,-67.786913,19.70,0.00,0.22,0.09,19.70,19.70,3.50,0.39,9482,2025-11-30 14:29:03.736,2025-11-30 11:29:03.736,18,0,0,46.614,-22.959735,-67.786914,0.10,0.00,0.20,3.50,-1.20,151.10,0,1,0,98,89,-52876,13757,46614,2991.50,45,WP,1,0,0,0,0,0,0,1764512943736,3888,4007,3932,3966,3993,3984,18,,,,,,,0,0,0,-35.00,-12.00,1511.00,0.00,3.00,-389.00,14,197.00,2.24,0.88,1.00,0.00,2.00,0,,,100,95,20,2,0,0,1,1,0,,,,,0.0,0.0,0.0,0.0,0.0,0.0,0
-22.959735,-67.786913,19.60,0.00,0.22,0.08,19.70,19.70,3.50,0.39,9584,2025-11-30 14:29:03.838,2025-11-30 11:29:03.838,18,0,0,46.614,-22.959735,-67.786914,0.10,0.00,0.20,3.10,-1.40,160.10,0,1,0,98,89,-52876,13757,46614,2991.50,45,WP,1,0,0,0,0,0,0,1764512943838,3888,4007,3932,3966,3993,3984,18,,,,,,,0,0,0,-31.00,-14.00,1601.00,0.00,3.00,-432.00,14,196.00,2.24,0.80,1.00,0.00,2.00,0,,,100,95,20,2,0,0,1,1,0,,,,,0.0,0.0,0.0,0.0,0.0,0.0,0
-22.959735,-67.786913,19.60,0.00,0.22,0.07,19.70,19.70,3.50,0.39,9683,2025-11-30 14:29:03.937,2025-11-30 11:29:03.937,18,0,0,46.614,-22.959735,-67.786914,0.10,0.00,0.20,2.30,-1.30,167.30,0,1,0,98,89,-52876,13757,46614,2991.50,45,WP,1,0,0,0,0,0,0,1764512943937,3888,4007,3932,3966,3993,3984,18,,,,,,,0,0,0,-23.00,-13.00,1673.00,0.00,2.00,-464.00,14,196.00,2.24,0.70,1.00,0.00,2.00,0,,,100,90,20,2,0,0,1,1,0,,,,,0.0,0.0,0.0,0.0,0.0,0.0,0
-22.959735,-67.786913,19.60,0.00,0.30,0.08,19.70,19.70,3.50,0.39,9784,2025-11-30 14:29:04.038,2025-11-30 11:29:04.039,18,0,0,46.614,-22.959735,-67.786914,0.20,0.10,0.20,1.40,-0.70,172.50,0,1,0,98,89,-52876,13757,46614,2991.50,45,WP,1,0,0,0,0,0,0,1764512944038,3888,4007,3932,3966,3993,3984,18,,,,,,,0,0,0,-14.00,-7.00,1725.00,0.00,2.00,-474.00,14,196.00,3.00,0.79,2.00,1.00,2.00,0,,,100,90,20,2,0,0,1,1,0,,,,,0.0,0.0,0.0,0.0,0.0,0.0,0
-22.959734,-67.786913,19.60,0.00,0.24,0.11,19.70,19.70,3.50,0.39,9883,2025-11-30 14:29:04.138,2025-11-30 11:29:04.138,18,0,0,46.614,-22.959735,-67.786914,0.20,0.10,0.10,0.30,0.40,175.90,0,1,0,98,89,-52876,13757,46614,2991.50,45,WP,1,0,0,0,0,0,0,1764512944137,3888,4007,3932,3966,3993,3984,18,,,,,,,0,0,0,-3.00,4.00,1759.00,0.00,2.00,-453.00,14,196.00,2.45,1.06,2.00,1.00,1.00,0,,,100,90,20,2,0,0,1,1,0,,,,,0.0,0.0,0.0,0.0,0.0,0.0,0
-22.959734,-67.786913,19.60,0.00,0.22,0.14,19.70,19.70,3.50,0.39,9976,2025-11-30 14:29:04.231,2025-11-30 11:29:04.231,18,0,0,47.414,-22.959735,-67.786914,0.20,0.10,0.00,-0.60,1.70,177.80,0,1,0,97,89,-51488,13621,47414,2991.50,45,WP,1,0,0,0,0,0,0,1764512944230,3888,4007,3932,3966,3993,3984,18,,,,,,,0,0,0,6.00,17.00,1778.00,0.00,2.00,-421.00,14,196.00,2.24,1.40,2.00,1.00,0.00,0,,,100,90,20,2,0,0,1,1,0,,,,,0.0,0.0,0.0,0.0,0.0,0.0,0
-22.959734,-67.786912,19.60,0.00,0.22,0.18,19.70,19.70,3.50,0.39,10082,2025-11-30 14:29:04.337,2025-11-30 11:29:04.337,18,0,0,47.414,-22.959735,-67.786914,0.20,0.10,0.00,-1.00,2.50,178.40,0,1,0,97,89,-51488,13621,47414,2991.50,45,WP,1,0,0,0,0,0,0,1764512944336,3888,4007,3932,3966,3993,3984,18,,,,,,,0,0,0,10.00,25.00,1784.00,0.00,2.00,-378.00,14,196.00,2.24,1.75,2.00,1.00,0.00,0,,,100,90,20,2,0,0,1,1,0,,,,,0.0,0.0,0.0,0.0,0.0,0.0,0
-22.959733,-67.786912,19.70,0.00,0.14,0.22,19.70,19.70,3.50,0.39,10199,2025-11-30 14:29:04.454,2025-11-30 11:29:04.454,18,0,0,47.414,-22.959735,-67.786914,0.10,0.10,0.00,-2.10,2.90,178.50,0,1,0,97,89,-51488,13621,47414,2991.50,45,WP,1,0,0,0,0,0,0,1764512944453,3888,4007,3932,3966,3993,3984,18,,,,,,,0,0,0,21.00,29.00,1785.00,0.00,2.00,-330.00,14,197.00,1.41,2.19,1.00,1.00,0.00,0,,,100,90,20,2,0,0,1,1,0,,,,,0.0,0.0,0.0,0.0,0.0,0.0,0
-22.959733,-67.786912,19.70,0.00,0.17,0.26,19.70,19.70,3.50,0.39,10277,2025-11-30 14:29:04.532,2025-11-30 11:29:04.532,18,0,0,47.414,-22.959735,-67.786914,0.10,0.10,-0.10,-4.20,2.80,178.50,0,1,0,97,89,-51488,13621,47414,2991.50,45,WP,1,0,0,0,0,0,0,1764512944531,3888,4007,3932,3966,3993,3984,18,,,,,,,0,0,0,42.00,28.00,1785.00,-1.00,3.00,-289.00,14,197.00,1.73,2.58,1.00,1.00,-1.00,0,,,100,93,20,2,0,0,1,1,0,,,,,0.0,0.0,0.0,0.0,0.0,0.0,0
-22.959733,-67.786912,19.70,0.00,0.14,0.28,19.70,19.70,3.50,0.39,10382,2025-11-30 14:29:04.636,2025-11-30 11:29:04.636,18,0,0,47.414,-22.959735,-67.786914,0.00,0.10,-0.10,-6.40,2.60,178.50,0,1,0,97,89,-51488,13621,47414,2991.50,45,WP,1,0,0,0,0,0,0,1764512944636,3888,4007,3932,3966,3993,3984,18,,,,,,,0,0,0,64.00,26.00,1785.00,-1.00,3.00,-259.00,14,197.00,1.41,2.83,0.00,1.00,-1.00,0,,,100,93,20,2,0,0,1,1,0,,,,,0.0,0.0,0.0,0.0,0.0,0.0,0
-22.959733,-67.786912,19.70,0.00,0.14,0.29,19.70,19.70,3.50,0.39,10482,2025-11-30 14:29:04.737,2025-11-30 11:29:04.737,18,0,0,47.414,-22.959735,-67.786914,-0.10,0.00,-0.10,-8.80,2.10,178.40,0,1,0,97,89,-51488,13621,47414,2991.50,45,WP,1,0,0,0,0,0,0,1764512944736,3888,4007,3932,3966,3993,3984,18,,,,,,,0,0,0,88.00,21.00,1784.00,-1.00,2.00,-236.00,14,197.00,1.41,2.93,-1.00,0.00,-1.00,0,,,100,93,20,2,0,0,1,1,0,,,,,0.0,0.0,0.0,0.0,0.0,0.0,0
-22.959733,-67.786911,19.80,0.00,0.32,0.29,19.80,19.80,3.50,0.39,10581,2025-11-30 14:29:04.835,2025-11-30 11:29:04.835,18,0,0,47.414,-22.959735,-67.786914,-0.30,0.00,-0.10,-11.10,1.90,178.30,0,1,0,97,89,-51488,13621,47414,2991.50,45,WP,1,0,0,0,0,0,0,1764512944835,3888,4007,3932,3966,3993,3984,18,,,,,,,0,0,0,111.00,19.00,1783.00,-1.00,2.00,-218.00,14,198.00,3.16,2.86,-3.00,0.00,-1.00,0,,,100,93,20,2,0,0,1,1,0,,,,,0.0,0.0,0.0,0.0,0.0,0.0,0
-22.959734,-67.786911,19.80,0.00,0.51,0.27,19.80,19.80,3.50,0.39,10683,2025-11-30 14:29:04.938,2025-11-30 11:29:04.938,18,0,0,47.414,-22.959735,-67.786914,-0.50,0.00,-0.10,-13.20,1.90,178.20,0,1,0,97,89,-51488,13621,47414,2991.50,45,WP,1,0,0,0,0,0,0,1764512944937,3888,4007,3932,3966,3993,3984,18,,,,,,,0,0,0,132.00,19.00,1782.00,-1.00,2.00,-204.00,14,198.00,5.10,2.68,-5.00,0.00,-1.00,0,,,100,93,20,2,0,0,1,1,0,,,,,0.0,0.0,0.0,0.0,0.0,0.0,0
-22.959734,-67.786911,19.80,0.00,0.70,0.26,19.80,19.80,3.50,0.39,10784,2025-11-30 14:29:05.039,2025-11-30 11:29:05.039,18,0,0,47.414,-22.959735,-67.786914,-0.70,0.00,0.00,-14.60,2.30,178.10,0,1,0,97,89,-51488,13621,47414,2991.50,45,WP,1,0,0,0,0,0,0,1764512945038,3888,4007,3932,3966,3993,3984,18,,,,,,,0,0,0,146.00,23.00,1781.00,-1.00,2.00,-191.00,14,198.00,7.00,2.56,-7.00,0.00,0.00,0,,,100,98,20,2,0,0,1,1,0,,,,,0.0,0.0,0.0,0.0,0.0,0.0,0
-22.959735,-67.786911,19.80,0.00,0.90,0.27,19.80,19.80,3.50,0.39,10886,2025-11-30 14:29:05.140,2025-11-30 11:29:05.141,18,0,0,47.414,-22.959735,-67.786914,-0.90,0.00,0.00,-15.30,2.30,178.00,0,1,0,97,89,-51488,13621,47414,2991.50,45,WP,1,0,0,0,0,0,0,1764512945140,3888,4007,3932,3966,3993,3984,18,,,,,,,0,0,0,153.00,23.00,1780.00,-1.00,2.00,-191.00,14,198.00,9.00,2.66,-9.00,0.00,0.00,0,,,100,98,20,2,0,0,1,1,0,,,,,0.0,0.0,0.0,0.0,0.0,0.0,0
-22.959737,-67.786911,19.80,0.00,1.20,0.33,19.80,19.80,3.50,0.39,10982,2025-11-30 14:29:05.236,2025-11-30 11:29:05.236,18,0,0,47.414,-22.959735,-67.786914,-1.20,0.00,0.00,-15.60,2.30,177.90,0,1,0,97,89,-51488,13621,47414,2991.50,45,WP,1,0,0,0,0,0,0,1764512945236,3888,4007,3932,3966,3993,3984,18,,,,,,,0,0,0,156.00,23.00,1779.00,-1.00,2.00,-191.00,14,198.00,12.00,3.28,-12.00,0.00,0.00,0,,,100,98,20,2,0,0,1,1,0,,,,,0.0,0.0,0.0,0.0,0.0,0.0,0
-22.959738,-67.786911,19.80,0.00,1.50,0.45,19.80,19.80,3.50,0.45,11087,2025-11-30 14:29:05.341,2025-11-30 11:29:05.341,18,0,0,47.414,-22.959735,-67.786914,-1.50,0.00,0.00,-15.60,2.50,177.80,0,1,0,97,89,-51488,13621,47414,2991.50,45,WP,1,0,0,0,0,0,0,1764512945341,3888,4007,3932,3966,3993,3984,18,,,,,,,0,0,0,156.00,25.00,1778.00,-2.00,2.00,-163.00,14,198.00,15.00,4.54,-15.00,0.00,0.00,0,,,100,98,20,2,0,0,1,1,0,,,,,0.0,0.0,0.0,0.0,0.0,0.0,0
-22.959740,-67.786911,19.80,0.00,1.70,0.61,19.80,19.80,3.50,0.61,11188,2025-11-30 14:29:05.442,2025-11-30 11:29:05.442,18,0,0,47.414,-22.959735,-67.786914,-1.70,0.00,0.00,-15.40,2.90,177.90,0,1,0,97,89,-51488,13621,47414,2991.50,45,WP,1,0,0,0,0,0,0,1764512945442,3888,4007,3932,3966,3993,3984,18,,,,,,,0,0,0,154.00,29.00,1779.00,-2.00,2.00,-156.00,14,198.00,17.00,6.11,-17.00,0.00,0.00,0,,,100,98,20,2,0,0,1,1,0,,,,,0.0,0.0,0.0,0.0,0.0,0.0,0
-22.959742,-67.786911,19.80,0.00,2.00,0.84,19.80,19.80,3.50,0.84,11289,2025-11-30 14:29:05.543,2025-11-30 11:29:05.544,18,0,0,47.414,-22.959735,-67.786914,-2.00,0.00,0.00,-15.30,3.00,178.00,0,1,0,97,89,-51488,13621,47414,2991.50,45,WP,1,0,0,0,0,0,0,1764512945543,3888,4007,3932,3966,3993,3984,18,,,,,,,0,0,0,153.00,30.00,1780.00,-2.00,2.00,-151.00,14,198.00,20.00,8.38,-20.00,0.00,0.00,0,,,100,98,20,2,0,0,1,1,0,,,,,0.0,0.0,0.0,0.0,0.0,0.0,0
-22.959744,-67.786911,19.80,0.00,2.20,1.08,19.80,19.80,3.50,1.08,11392,2025-11-30 14:29:05.646,2025-11-30 11:29:05.646,18,0,0,47.414,-22.959735,-67.786914,-2.20,0.00,0.00,-15.10,3.40,178.00,0,1,0,97,89,-51488,13621,47414,2991.50,45,WP,1,0,0,0,0,0,0,1764512945646,3888,4007,3932,3966,3993,3984,18,,,,,,,0,0,0,151.00,34.00,1780.00,-1.00,2.00,-147.00,14,198.00,22.00,10.80,-22.00,0.00,0.00,0,,,100,98,20,2,0,0,1,1,0,,,,,0.0,0.0,0.0,0.0,0.0,0.0,0
-22.959747,-67.786911,19.70,0.00,2.50,1.37,19.80,19.80,3.50,1.37,11495,2025-11-30 14:29:05.749,2025-11-30 11:29:05.750,18,0,0,47.414,-22.959735,-67.786914,-2.50,0.00,0.10,-15.00,3.60,178.10,0,1,0,97,89,-51488,13621,47414,2991.50,45,WP,1,0,0,0,0,0,0,1764512945749,3888,4007,3932,3966,3993,3984,18,,,,,,,0,0,0,150.00,36.00,1781.00,-1.00,2.00,-143.00,14,197.00,25.02,13.66,-25.00,0.00,1.00,0,,,100,98,20,2,0,0,1,1,0,,,,,0.0,0.0,0.0,0.0,0.0,0.0,0
-22.959750,-67.786911,19.70,0.00,2.70,1.65,19.80,19.80,3.50,1.65,11598,2025-11-30 14:29:05.853,2025-11-30 11:29:05.853,18,0,0,47.414,-22.959735,-67.786914,-2.70,0.00,0.00,-15.10,3.60,178.10,0,1,0,97,89,-51488,13621,47414,2991.50,45,WP,1,0,0,0,0,0,0,1764512945852,3888,4007,3932,3966,3993,3984,18,,,,,,,0,0,0,151.00,36.00,1781.00,-1.00,2.00,-139.00,14,197.00,27.00,16.52,-27.00,0.00,0.00,0,,,100,98,20,2,0,0,1,1,0,,,,,0.0,0.0,0.0,0.0,0.0,0.0,0
-22.959753,-67.786911,19.70,0.00,3.00,2.01,19.80,19.80,3.50,2.01,11699,2025-11-30 14:29:05.954,2025-11-30 11:29:05.954,18,0,0,47.414,-22.959735,-67.786914,-3.00,0.00,0.00,-15.00,3.40,178.20,0,1,0,97,89,-51488,13621,47414,2991.50,45,WP,1,0,0,0,0,0,0,1764512945953,3888,4007,3932,3966,3993,3984,18,,,,,,,0,0,0,150.00,34.00,1782.00,0.00,2.00,-135.00,14,197.00,30.00,20.15,-30.00,0.00,0.00,0,,,100,98,20,2,0,0,1,1,0,,,,,0.0,0.0,0.0,0.0,0.0,0.0,0
-22.959756,-67.786911,19.70,0.00,3.20,2.37,19.80,19.80,3.50,2.37,11798,2025-11-30 14:29:06.053,2025-11-30 11:29:06.053,18,0,0,47.414,-22.959735,-67.786914,-3.20,0.00,0.00,-14.80,3.30,178.30,0,1,0,97,89,-51488,13621,47414,2991.50,45,WP,1,0,0,0,0,0,0,1764512946052,3888,4007,3932,3966,3993,3984,18,,,,,,,0,0,0,148.00,33.00,1783.00,0.00,2.00,-132.00,14,197.00,32.00,23.74,-32.00,0.00,0.00,0,,,100,98,20,2,0,0,1,1,0,,,,,0.0,0.0,0.0,0.0,0.0,0.0,0
-22.959760,-67.786911,19.70,0.00,3.40,2.78,19.80,19.80,3.50,2.78,11899,2025-11-30 14:29:06.154,2025-11-30 11:29:06.154,18,0,0,47.348,-22.959735,-67.786914,-3.40,0.00,0.00,-14.70,3.20,178.40,0,1,0,97,89,-52257,13621,47348,2991.50,45,WP,1,0,0,0,0,0,0,1764512946153,3888,4007,3932,3966,3993,3984,18,,,,,,,0,0,0,147.00,32.00,1784.00,0.00,2.00,-130.00,14,197.00,34.00,27.82,-34.00,0.00,0.00,0,,,100,99,20,2,0,0,1,1,0,,,,,0.0,0.0,0.0,0.0,0.0,0.0,0
-22.959764,-67.786911,19.70,0.00,3.70,3.19,19.80,19.80,3.70,3.19,11995,2025-11-30 14:29:06.249,2025-11-30 11:29:06.250,18,0,0,47.348,-22.959735,-67.786914,-3.70,0.00,0.00,-14.80,3.10,178.30,0,1,0,97,89,-52257,13621,47348,2991.50,45,WP,1,0,0,0,0,0,0,1764512946249,3888,4007,3932,3966,3993,3984,18,,,,,,,0,0,0,148.00,31.00,1783.00,0.00,2.00,-127.00,14,197.00,37.00,31.95,-37.00,0.00,0.00,0,,,100,99,20,2,0,0,1,1,0,,,,,0.0,0.0,0.0,0.0,0.0,0.0,0
-22.959767,-67.786911,19.70,0.00,3.90,3.60,19.80,19.80,3.90,3.60,12096,2025-11-30 14:29:06.350,2025-11-30 11:29:06.351,18,0,0,47.348,-22.959735,-67.786914,-3.90,0.00,0.00,-14.90,3.10,178.20,0,1,0,97,89,-52257,13621,47348,2991.50,45,WP,1,0,0,0,0,0,0,1764512946350,3888,4007,3932,3966,3993,3984,18,,,,,,,0,0,0,149.00,31.00,1782.00,0.00,2.00,-124.00,14,197.00,39.00,36.02,-39.00,0.00,0.00,0,,,100,99,20,2,0,0,1,1,0,,,,,0.0,0.0,0.0,0.0,0.0,0.0,0
-22.959771,-67.786911,19.70,0.00,4.10,4.03,19.80,19.80,4.10,4.03,12195,2025-11-30 14:29:06.449,2025-11-30 11:29:06.449,18,0,0,47.348,-22.959735,-67.786914,-4.10,-0.10,0.00,-15.10,3.10,178.20,0,1,0,97,89,-52257,13621,47348,2991.50,45,WP,1,0,0,0,0,0,0,1764512946449,3888,4007,3932,3966,3993,3984,18,,,,,,,0,0,0,151.00,31.00,1782.00,0.00,2.00,-120.00,14,197.00,41.01,40.29,-41.00,-1.00,0.00,0,,,100,99,20,2,0,0,1,1,0,,,,,0.0,0.0,0.0,0.0,0.0,0.0,0
-22.959776,-67.786912,19.70,0.00,4.40,4.53,19.80,19.80,4.40,4.53,12298,2025-11-30 14:29:06.553,2025-11-30 11:29:06.553,18,0,0,47.348,-22.959735,-67.786914,-4.40,-0.10,0.00,-15.30,3.20,178.10,0,1,0,97,89,-52257,13621,47348,2991.50,45,WP,1,0,0,0,0,0,0,1764512946552,3888,4007,3932,3966,3993,3984,18,,,,,,,0,0,0,153.00,32.00,1781.00,-1.00,2.00,-117.00,14,197.00,44.01,45.33,-44.00,-1.00,0.00,0,,,100,99,20,2,0,0,1,1,0,,,,,0.0,0.0,0.0,0.0,0.0,0.0,0
-22.959780,-67.786912,19.70,0.00,4.60,5.04,19.80,19.80,4.60,5.04,12400,2025-11-30 14:29:06.654,2025-11-30 11:29:06.654,18,0,0,47.348,-22.959735,-67.786914,-4.60,-0.10,0.00,-15.30,3.40,178.20,0,1,0,97,89,-52257,13621,47348,2991.50,45,WP,1,0,0,0,0,0,0,1764512946654,3888,4007,3932,3966,3993,3984,18,,,,,,,0,0,0,153.00,34.00,1782.00,0.00,3.00,-114.00,14,197.00,46.01,50.44,-46.00,-1.00,0.00,0,,,100,99,20,2,0,0,1,1,0,,,,,0.0,0.0,0.0,0.0,0.0,0.0,0
-22.959786,-67.786912,19.70,0.00,4.90,5.61,19.80,19.80,4.90,5.61,12497,2025-11-30 14:29:06.751,2025-11-30 11:29:06.751,18,0,0,47.348,-22.959735,-67.786914,-4.90,-0.10,0.00,-15.30,3.70,178.20,0,1,0,97,89,-52257,13621,47348,2991.50,45,WP,1,0,0,0,0,0,0,1764512946751,3888,4007,3932,3966,3993,3984,18,,,,,,,0,0,0,153.00,37.00,1782.00,0.00,3.00,-112.00,14,197.00,49.01,56.15,-49.00,-1.00,0.00,0,,,100,99,20,2,0,0,1,1,0,,,,,0.0,0.0,0.0,0.0,0.0,0.0,0
-22.959790,-67.786912,19.70,0.00,5.10,6.16,19.80,19.80,5.10,6.16,12600,2025-11-30 14:29:06.855,2025-11-30 11:29:06.855,18,0,0,47.348,-22.959735,-67.786914,-5.10,-0.10,0.00,-15.40,3.90,178.30,0,1,0,97,89,-56753,13621,47348,2991.50,45,WP,1,0,0,0,0,0,0,1764512946854,3888,4007,3932,3966,3993,3984,18,,,,,,,0,0,0,154.00,39.00,1783.00,0.00,3.00,-111.00,14,197.00,51.01,61.56,-51.00,-1.00,0.00,0,,,100,99,20,2,0,0,1,1,0,,,,,0.0,0.0,0.0,0.0,0.0,0.0,0
-22.959796,-67.786912,19.70,0.00,5.40,6.82,19.80,19.80,5.40,6.82,12700,2025-11-30 14:29:06.955,2025-11-30 11:29:06.955,17,0,0,47.348,-22.959735,-67.786914,-5.40,-0.20,0.00,-15.30,3.90,178.40,0,1,0,97,89,-56753,13621,47348,2991.50,45,WP,1,0,0,0,0,0,0,1764512946954,3888,4007,3932,3966,3993,3984,18,,,,,,,0,0,0,153.00,39.00,1784.00,0.00,3.00,-110.00,14,197.00,54.04,68.16,-54.00,-2.00,0.00,0,,,100,99,20,2,0,0,1,1,0,,,,,0.0,0.0,0.0,0.0,0.0,0.0,0
-22.959802,-67.786913,19.70,0.00,5.60,7.41,19.80,19.80,5.60,7.41,12800,2025-11-30 14:29:07.055,2025-11-30 11:29:07.055,17,0,0,47.348,-22.959735,-67.786914,-5.60,-0.20,0.00,-14.80,3.80,178.50,0,1,0,97,89,-56753,13621,47348,2991.50,45,WP,1,0,0,0,0,0,0,1764512947054,3888,4007,3932,3966,3993,3984,18,,,,,,,0,0,0,148.00,38.00,1785.00,1.00,3.00,-109.00,14,197.00,56.04,74.07,-56.00,-2.00,0.00,0,,,100,99,20,2,0,0,1,1,0,,,,,0.0,0.0,0.0,0.0,0.0,0.0,0
-22.959808,-67.786913,19.70,0.00,5.90,8.09,19.80,19.80,5.90,8.09,12900,2025-11-30 14:29:07.154,2025-11-30 11:29:07.154,18,0,0,47.348,-22.959735,-67.786914,-5.90,-0.20,0.00,-14.80,3.40,178.60,0,1,0,97,89,-56753,13621,47348,2991.50,45,WP,1,0,0,0,0,0,0,1764512947154,3888,4007,3932,3966,3993,3984,18,,,,,,,0,0,0,148.00,34.00,1786.00,0.00,2.00,-108.00,14,197.00,59.03,80.91,-59.00,-2.00,0.00,0,,,100,99,20,2,0,0,1,1,0,,,,,0.0,0.0,0.0,0.0,0.0,0.0,0
-22.959814,-67.786913,19.70,0.00,6.11,8.73,19.80,19.80,6.11,8.73,13003,2025-11-30 14:29:07.257,2025-11-30 11:29:07.257,18,0,0,47.348,-22.959735,-67.786914,-6.10,-0.30,0.00,-14.80,2.70,178.60,0,1,0,97,89,-56753,13621,47348,2991.50,45,WP,1,0,0,0,0,0,0,1764512947257,3888,4007,3932,3966,3993,3984,18,,,,,,,0,0,0,148.00,27.00,1786.00,0.00,2.00,-108.00,14,197.00,61.07,87.33,-61.00,-3.00,0.00,0,,,100,99,20,2,0,0,1,1,0,,,,,0.0,0.0,0.0,0.0,0.0,0.0,0
-22.959820,-67.786914,19.60,0.00,6.31,9.38,19.80,19.80,6.31,9.38,13101,2025-11-30 14:29:07.356,2025-11-30 11:29:07.356,18,0,0,47.348,-22.959735,-67.786914,-6.30,-0.30,0.00,-14.80,1.90,178.60,0,1,0,97,89,-56753,13621,47348,2991.50,45,WP,1,0,0,0,0,0,0,1764512947355,3888,4007,3932,3966,3993,3984,18,,,,,,,0,0,0,148.00,19.00,1786.00,0.00,2.00,-106.00,14,196.00,63.07,93.78,-63.00,-3.00,0.00,0,,,100,99,20,2,0,0,1,1,0,,,,,0.0,0.0,0.0,0.0,0.0,0.0,0
-22.959826,-67.786914,19.60,0.00,6.51,10.06,19.80,19.80,6.51,10.06,13202,2025-11-30 14:29:07.457,2025-11-30 11:29:07.457,18,0,0,47.348,-22.959735,-67.786914,-6.50,-0.30,0.00,-14.90,1.00,178.60,0,1,0,97,89,-56753,13621,47348,2991.50,45,WP,1,0,0,0,0,0,0,1764512947456,3888,4007,3932,3966,3993,3984,18,,,,,,,0,0,0,149.00,10.00,1786.00,0.00,2.00,-104.00,14,196.00,65.07,100.61,-65.00,-3.00,0.00,0,,,100,99,20,2,0,0,1,1,0,,,,,0.0,0.0,0.0,0.0,0.0,0.0,0
-22.959839,-67.786915,19.60,0.00,6.91,11.52,19.80,19.80,6.91,11.52,13404,2025-11-30 14:29:07.658,2025-11-30 11:29:07.658,18,0,0,47.348,-22.959735,-67.786914,-6.90,-0.30,0.00,-15.20,-0.10,178.50,0,1,0,97,89,-56753,13621,47348,2991.50,45,WP,1,0,0,0,0,0,0,1764512947658,3888,4007,3932,3966,3993,3984,18,,,,,,,0,0,0,152.00,-1.00,1785.00,0.00,3.00,-100.00,14,196.00,69.07,115.23,-69.00,-3.00,0.00,0,,,100,99,20,2,0,0,1,1,0,,,,,0.0,0.0,0.0,0.0,0.0,0.0,0
-22.959846,-67.786915,19.60,0.00,7.11,12.28,19.80,19.80,7.11,12.28,13507,2025-11-30 14:29:07.762,2025-11-30 11:29:07.762,18,0,0,47.348,-22.959735,-67.786914,-7.10,-0.30,0.00,-15.20,-0.90,178.60,0,1,0,97,89,-56753,13621,47348,2991.50,45,WP,1,0,0,0,0,0,0,1764512947761,3888,4007,3932,3966,3993,3984,18,,,,,,,0,0,0,152.00,-9.00,1786.00,2.00,3.00,-98.00,14,196.00,71.06,122.83,-71.00,-3.00,0.00,0,,,100,98,20,2,0,0,1,1,0,,,,,0.0,0.0,0.0,0.0,0.0,0.0,0
-22.959852,-67.786916,19.60,0.00,7.30,13.01,19.80,19.80,7.30,13.01,13607,2025-11-30 14:29:07.862,2025-11-30 11:29:07.862,18,0,0,47.348,-22.959735,-67.786914,-7.30,-0.20,0.00,-15.20,-1.20,178.50,0,1,0,97,89,-56753,13621,47348,2991.50,45,WP,1,0,0,0,0,0,0,1764512947861,3888,4007,3932,3966,3993,3984,18,,,,,,,0,0,0,152.00,-12.00,1785.00,1.00,3.00,-97.00,14,196.00,73.03,130.08,-73.00,-2.00,0.00,0,,,100,98,20,2,0,0,1,1,0,,,,,0.0,0.0,0.0,0.0,0.0,0.0,0
-22.959860,-67.786916,19.60,0.00,7.40,13.84,19.80,19.80,7.40,13.84,13704,2025-11-30 14:29:07.958,2025-11-30 11:29:07.958,17,0,0,47.348,-22.959735,-67.786914,-7.40,-0.10,0.00,-15.30,-1.70,178.50,0,1,0,97,89,-56753,13621,47348,2991.50,45,WP,1,0,0,0,0,0,0,1764512947958,3888,4007,3932,3966,3993,3984,18,,,,,,,0,0,0,153.00,-17.00,1785.00,2.00,3.00,-95.00,14,196.00,74.01,138.42,-74.00,-1.00,0.00,0,,,100,98,20,2,0,0,1,1,0,,,,,0.0,0.0,0.0,0.0,0.0,0.0,0
