latitude,longitude,altitude(m),ultrasonicHeight(m),speed(mps),distance(m),max_altitude(m),max_ascent(m),max_speed(mps),max_distance(m),time(millisecond),datetime(utc),datetime(local),satellites,pressure(Pa),temperature(F),voltage(v),home_latitude,home_longitude,velocityX(mps),velocityY(mps),velocityZ(mps),pitch(deg),roll(deg),yaw(deg),powerlevel,isflying,istakingphoto,remainPowerPercent,remainLifePercent,currentCurrent,currentElectricity,currentVoltage,batteryTemperature,dischargeCount,flightmode,isMotorsOn,isTakingVideo,Rc_elevator,Rc_aileron,Rc_throttle,Rc_rudder,Rc_gyro,timestamp,Battery_Cell1,Battery_Cell2,Battery_Cell3,Battery_Cell4,Battery_Cell5,Battery_Cell6,Dronetype,AppVersion,Planename,FlyControllerSerialNumber,RemoteSerialNumber,BatterySerialNumber,CENTER_BATTERY.productDate,CENTER_BATTERY.serialNo,CENTER_BATTERY.fullCapacity,CENTER_BATTERY.productDateRaw,pitchRaw,rollRaw,yawRaw,gimbalPitchRaw,gimbalRollRaw,gimbalYawRaw,flyState,altitudeRaw,speedRaw,distanceRaw,velocityXRaw,velocityYRaw,velocityZRaw,data_reuse,App_Tip,App_Warning,downlinkSignalQuality,uplinkSignalQuality,transmissionChannel,rcModeSwitch,rcHome,rcPause,rcTransform,rcJoystickMode,appMode,FlyControllerSerialNumber_legacy,RemoteSerialNumber_legacy,BatterySerialNumber_legacy,Battery2SerialNumber,frontAvoidDist,backAvoidDist,rightAvoidDist,leftAvoidDist,upAvoidDist,downAvoidDist,isBrakingToAvoid
-22.959737,-67.786904,0.50,0.00,0.51,0.23,0.50,0.50,0.51,0.23,1,2025-11-27 20:33:17.142,2025-11-27 21:33:17.142,16,0,0,51.850,-22.959739,-67.786905,-0.10,0.00,-0.50,0.60,0.40,-62.60,0,1,0,100,91,-2146,14858,51850,2901.50,39,TakeOff,1,0,0,0,0,0,0,1764275597141,4323,4325,4324,4331,4331,4328,18,Litchi_iOS_2.15.7,EIK Matrice 1,0670131556,03LLCA05XT,,,0,14858,0,-6.00,4.00,-626.00,0.00,0.00,43.00,11,5.00,5.10,2.26,-1.00,0.00,-5.00,0,,,100,98,20,2,0,0,1,1,0,(null),(null),(null),(null),0.0,0.0,0.0,0.0,0.0,0.0,0
-22.959738,-67.786904,0.60,0.00,0.52,0.20,0.60,0.60,0.52,0.23,107,2025-11-27 20:33:17.247,2025-11-27 21:33:17.247,16,0,0,51.850,-22.959736,-67.786904,-0.10,0.10,-0.50,0.50,-0.30,-62.60,0,1,0,100,91,-2146,14858,51850,2901.50,39,TakeOff,1,0,0,0,0,0,0,1764275597247,4323,4325,4324,4331,4331,4328,18,,,,,,,0,0,0,-5.00,-3.00,-626.00,0.00,0.00,43.00,11,6.00,5.20,2.01,-1.00,1.00,-5.00,0,,,100,99,20,2,0,0,1,1,0,,,,,0.0,0.0,0.0,0.0,0.0,0.0,0
-22.959738,-67.786904,0.60,0.00,0.52,0.22,0.60,0.60,0.52,0.23,202,2025-11-27 20:33:17.343,2025-11-27 21:33:17.343,16,0,0,51.850,-22.959736,-67.786904,-0.10,0.10,-0.50,0.00,-0.50,-62.40,0,1,0,100,91,-2146,14858,51850,2901.50,39,TakeOff,1,0,0,0,0,0,0,1764275597342,4323,4325,4324,4331,4331,4328,18,,,,,,,0,0,0,-0.00,-5.00,-624.00,0.00,0.00,42.00,11,6.00,5.20,2.22,-1.00,1.00,-5.00,0,,,100,99,20,2,0,0,1,1,0,,,,,0.0,0.0,0.0,0.0,0.0,0.0,0
-22.959738,-67.786903,0.60,0.00,0.52,0.24,0.60,0.60,0.52,0.24,307,2025-11-27 20:33:17.448,2025-11-27 21:33:17.448,16,0,0,51.850,-22.959736,-67.786904,-0.10,0.10,-0.50,-0.40,-0.40,-62.30,0,1,0,100,91,-2146,14858,51850,2901.50,39,TakeOff,1,0,0,0,0,0,0,1764275597447,4323,4325,4324,4331,4331,4328,18,,,,,,,0,0,0,4.00,-4.00,-623.00,0.00,0.00,41.00,11,6.00,5.20,2.45,-1.00,1.00,-5.00,0,,,100,99,20,2,0,0,1,1,0,,,,,0.0,0.0,0.0,0.0,0.0,0.0,0
-22.959738,-67.786903,0.70,0.00,0.42,0.26,0.70,0.70,0.52,0.26,405,2025-11-27 20:33:17.546,2025-11-27 21:33:17.546,16,0,0,51.850,-22.959736,-67.786904,-0.10,0.10,-0.40,-0.70,-0.20,-62.40,0,1,0,100,91,-2146,14858,51850,2901.50,39,TakeOff,1,0,0,0,0,0,0,1764275597545,4323,4325,4324,4331,4331,4328,18,,,,,,,0,0,0,7.00,-2.00,-624.00,0.00,0.00,40.00,11,7.00,4.24,2.63,-1.00,1.00,-4.00,0,,,100,99,20,2,0,0,1,1,0,,,,,0.0,0.0,0.0,0.0,0.0,0.0,0
-22.959738,-67.786903,0.70,0.00,0.42,0.29,0.70,0.70,0.52,0.29,509,2025-11-27 20:33:17.650,2025-11-27 21:33:17.650,16,0,0,51.850,-22.959736,-67.786904,-0.10,0.10,-0.40,-1.20,0.20,-62.40,0,1,0,100,91,-2146,14858,51850,2901.50,39,TakeOff,1,0,0,0,0,0,0,1764275597649,4323,4325,4324,4331,4331,4328,18,,,,,,,0,0,0,12.00,2.00,-624.00,0.00,0.00,41.00,11,7.00,4.24,2.85,-1.00,1.00,-4.00,0,,,100,99,20,2,0,0,1,1,0,,,,,0.0,0.0,0.0,0.0,0.0,0.0,0
-22.959738,-67.786903,0.80,0.00,0.42,0.31,0.80,0.80,0.52,0.31,607,2025-11-27 20:33:17.748,2025-11-27 21:33:17.748,16,0,0,51.850,-22.959736,-67.786904,-0.10,0.10,-0.40,-1.80,0.90,-62.50,0,1,0,100,91,-2146,14858,51850,2901.50,39,TakeOff,1,0,0,0,0,0,0,1764275597747,4323,4325,4324,4331,4331,4328,18,,,,,,,0,0,0,18.00,9.00,-625.00,0.00,0.00,41.00,11,8.00,4.24,3.08,-1.00,1.00,-4.00,0,,,100,99,20,2,0,0,1,1,0,,,,,0.0,0.0,0.0,0.0,0.0,0.0,0
-22.959739,-67.786903,0.80,0.00,0.32,0.33,0.80,0.80,0.52,0.33,710,2025-11-27 20:33:17.851,2025-11-27 21:33:17.851,16,0,0,51.850,-22.959736,-67.786904,0.00,0.10,-0.30,-2.50,1.60,-62.40,0,1,0,100,91,-2146,14858,51850,2901.50,39,TakeOff,1,0,0,0,0,0,0,1764275597850,4323,4325,4324,4331,4331,4328,18,,,,,,,0,0,0,25.00,16.00,-624.00,0.00,0.00,42.00,11,8.00,3.16,3.30,0.00,1.00,-3.00,0,,,100,99,20,2,0,0,1,1,0,,,,,0.0,0.0,0.0,0.0,0.0,0.0,0
-22.959739,-67.786902,0.80,0.00,0.32,0.35,0.80,0.80,0.52,0.35,810,2025-11-27 20:33:17.951,2025-11-27 21:33:17.951,16,0,0,51.850,-22.959736,-67.786904,0.00,0.10,-0.30,-3.00,1.70,-62.40,0,1,0,100,91,-2146,14858,51850,2901.50,39,TakeOff,1,0,0,0,0,0,0,1764275597950,4323,4325,4324,4331,4331,4328,18,,,,,,,0,0,0,30.00,17.00,-624.00,0.00,0.00,41.00,11,8.00,3.16,3.47,0.00,1.00,-3.00,0,,,100,99,20,2,0,0,1,1,0,,,,,0.0,0.0,0.0,0.0,0.0,0.0,0
-22.959739,-67.786902,0.90,0.00,0.32,0.36,0.90,0.90,0.52,0.36,911,2025-11-27 20:33:18.052,2025-11-27 21:33:18.052,16,0,0,51.850,-22.959736,-67.786904,0.00,0.10,-0.30,-3.10,1.30,-62.30,0,1,0,100,91,-2146,14858,51850,2901.50,39,TakeOff,1,0,0,0,0,0,0,1764275598051,4323,4325,4324,4331,4331,4328,18,,,,,,,0,0,0,31.00,13.00,-623.00,0.00,0.00,40.00,11,9.00,3.16,3.60,0.00,1.00,-3.00,0,,,100,99,20,2,0,0,1,1,0,,,,,0.0,0.0,0.0,0.0,0.0,0.0,0
-22.959739,-67.786902,0.90,0.00,0.32,0.36,0.90,0.90,0.52,0.36,1019,2025-11-27 20:33:18.159,2025-11-27 21:33:18.159,16,0,0,51.850,-22.959736,-67.786904,0.00,0.10,-0.30,-2.90,0.60,-62.30,0,1,0,100,91,-2146,14858,51850,2901.50,39,TakeOff,1,0,0,0,0,0,0,1764275598159,4323,4325,4324,4331,4331,4328,18,,,,,,,0,0,0,29.00,6.00,-623.00,0.00,0.00,40.00,11,9.00,3.16,3.63,0.00,1.00,-3.00,0,,,100,99,20,2,0,0,1,1,0,,,,,0.0,0.0,0.0,0.0,0.0,0.0,0
-22.959738,-67.786902,1.00,0.00,0.41,0.36,1.00,1.00,0.52,0.36,1120,2025-11-27 20:33:18.261,2025-11-27 21:33:18.261,16,0,0,51.850,-22.959736,-67.786904,0.10,0.00,-0.40,-2.60,0.00,-62.40,0,1,0,100,91,-2146,14858,51850,2901.50,39,TakeOff,1,0,0,0,0,0,0,1764275598260,4323,4325,4324,4331,4331,4328,18,,,,,,,0,0,0,26.00,0.00,-624.00,0.00,0.00,40.00,11,10.00,4.12,3.62,1.00,0.00,-4.00,0,,,100,99,20,2,0,0,1,1,0,,,,,0.0,0.0,0.0,0.0,0.0,0.0,0
-22.959738,-67.786902,1.00,0.00,0.41,0.36,1.00,1.00,0.52,0.36,1211,2025-11-27 20:33:18.351,2025-11-27 21:33:18.351,16,0,0,51.850,-22.959736,-67.786904,0.10,0.00,-0.40,-2.20,-0.60,-62.60,0,1,0,100,91,-2146,14858,51850,2901.50,39,TakeOff,1,0,0,0,0,0,0,1764275598351,4323,4325,4324,4331,4331,4328,18,,,,,,,0,0,0,22.00,-6.00,-626.00,0.00,0.00,41.00,11,10.00,4.12,3.61,1.00,0.00,-4.00,0,,,100,99,20,2,0,0,1,1,0,,,,,0.0,0.0,0.0,0.0,0.0,0.0,0
-22.959738,-67.786902,1.00,0.00,0.41,0.36,1.00,1.00,0.52,0.36,1318,2025-11-27 20:33:18.458,2025-11-27 21:33:18.458,16,0,0,51.850,-22.959736,-67.786904,0.10,0.00,-0.40,-1.60,-1.20,-62.80,0,1,0,100,91,-2146,14858,51850,2901.50,39,GPS,1,0,0,0,0,0,0,1764275598458,4323,4325,4324,4331,4331,4328,18,,,,,,,0,0,0,16.00,-12.00,-628.00,0.00,0.00,43.00,6,10.00,4.12,3.59,1.00,0.00,-4.00,0,,,100,99,20,2,0,0,1,1,0,,,,,0.0,0.0,0.0,0.0,0.0,0.0,0
-22.959738,-67.786902,1.10,0.00,0.41,0.36,1.10,1.10,0.52,0.36,1420,2025-11-27 20:33:18.561,2025-11-27 21:33:18.561,16,0,0,51.850,-22.959736,-67.786904,0.10,0.00,-0.40,-1.10,-1.40,-63.00,0,1,0,100,91,-2146,14858,51850,2901.50,39,WP,1,0,0,0,0,0,0,1764275598560,4323,4325,4324,4331,4331,4328,18,,,,,,,0,0,0,11.00,-14.00,-630.00,0.00,0.00,46.00,14,11.00,4.12,3.57,1.00,0.00,-4.00,0,,,100,99,20,2,0,0,1,1,0,,,,,0.0,0.0,0.0,0.0,0.0,0.0,0
-22.959738,-67.786901,1.20,0.00,0.30,0.36,1.20,1.20,0.52,0.36,1618,2025-11-27 20:33:18.759,2025-11-27 21:33:18.759,16,0,0,51.850,-22.959736,-67.786904,0.00,0.00,-0.30,0.40,-1.30,-63.20,0,1,0,100,91,-2146,14858,51850,2901.50,39,WP,1,0,0,0,0,0,0,1764275598758,4323,4325,4324,4331,4331,4328,18,,,,,,,0,0,0,-4.00,-13.00,-632.00,0.00,0.00,48.00,14,12.00,3.00,3.57,0.00,0.00,-3.00,0,,,100,95,20,2,0,0,1,1,0,,,,,0.0,0.0,0.0,0.0,0.0,0.0,0
-22.959738,-67.786901,1.20,0.00,0.32,0.36,1.20,1.20,0.52,0.36,1720,2025-11-27 20:33:18.861,2025-11-27 21:33:18.861,16,0,0,51.850,-22.959736,-67.786904,0.00,0.10,-0.30,0.30,-1.30,-63.10,0,1,0,100,91,-2146,14858,51850,2901.50,39,WP,1,0,0,0,0,0,0,1764275598860,4323,4325,4324,4331,4331,4328,18,,,,,,,0,0,0,-3.00,-13.00,-631.00,0.00,0.00,48.00,14,12.00,3.16,3.62,0.00,1.00,-3.00,0,,,100,95,20,2,0,0,1,1,0,,,,,0.0,0.0,0.0,0.0,0.0,0.0,0
-22.959738,-67.786901,1.20,0.00,0.41,0.38,1.20,1.20,0.52,0.38,1818,2025-11-27 20:33:18.959,2025-11-27 21:33:18.959,16,0,0,51.850,-22.959736,-67.786904,0.00,0.10,-0.40,-0.10,-1.50,-63.10,0,1,0,100,91,-2146,14858,51850,2901.50,39,WP,1,0,0,0,0,0,0,1764275598958,4323,4325,4324,4331,4331,4328,18,,,,,,,0,0,0,1.00,-15.00,-631.00,0.00,0.00,48.00,14,12.00,4.12,3.76,0.00,1.00,-4.00,0,,,100,95,20,2,0,0,1,1,0,,,,,0.0,0.0,0.0,0.0,0.0,0.0,0
-22.959738,-67.786901,1.30,0.00,0.41,0.39,1.30,1.30,0.52,0.39,1920,2025-11-27 20:33:19.061,2025-11-27 21:33:19.061,16,0,0,51.850,-22.959736,-67.786904,0.00,0.10,-0.40,-0.80,-1.80,-63.10,0,1,0,100,91,-2146,14858,51850,2901.50,39,WP,1,0,0,0,0,0,0,1764275599060,4323,4325,4324,4331,4331,4328,18,,,,,,,0,0,0,8.00,-18.00,-631.00,0.00,0.00,48.00,14,13.00,4.12,3.91,0.00,1.00,-4.00,0,,,100,95,20,2,0,0,1,1,0,,,,,0.0,0.0,0.0,0.0,0.0,0.0,0
-22.959738,-67.786901,1.30,0.00,0.51,0.42,1.30,1.30,0.52,0.42,2020,2025-11-27 20:33:19.161,2025-11-27 21:33:19.161,16,0,0,51.850,-22.959736,-67.786904,0.00,0.10,-0.50,-1.00,-2.00,-63.20,0,1,0,100,91,-2146,14858,51850,2901.50,39,WP,1,0,0,0,0,0,0,1764275599160,4323,4325,4324,4331,4331,4328,18,,,,,,,0,0,0,10.00,-20.00,-632.00,0.00,0.00,48.00,14,13.00,5.10,4.18,0.00,1.00,-5.00,0,,,100,95,20,2,0,0,1,1,0,,,,,0.0,0.0,0.0,0.0,0.0,0.0,0
-22.959738,-67.786901,1.40,0.00,0.71,0.44,1.40,1.40,0.71,0.44,2121,2025-11-27 20:33:19.261,2025-11-27 21:33:19.262,16,0,0,51.850,-22.959736,-67.786904,-0.10,0.10,-0.70,-0.90,-1.70,-63.10,0,1,0,100,91,-2146,14858,51850,2901.50,39,WP,1,0,0,0,0,0,0,1764275599261,4323,4325,4324,4331,4331,4328,18,,,,,,,0,0,0,9.00,-17.00,-631.00,0.00,0.00,48.00,14,14.00,7.14,4.42,-1.00,1.00,-7.00,0,,,100,93,20,2,0,0,1,1,0,,,,,0.0,0.0,0.0,0.0,0.0,0.0,0
-22.959738,-67.786900,1.50,0.00,0.91,0.47,1.50,1.50,0.91,0.47,2216,2025-11-27 20:33:19.357,2025-11-27 21:33:19.357,16,0,0,51.850,-22.959736,-67.786904,-0.10,0.10,-0.90,-0.50,-1.20,-63.00,0,1,0,100,91,-2146,14858,51850,2901.50,39,WP,1,0,0,0,0,0,0,1764275599356,4323,4325,4324,4331,4331,4328,18,,,,,,,0,0,0,5.00,-12.00,-630.00,0.00,0.00,48.00,14,15.00,9.11,4.72,-1.00,1.00,-9.00,0,,,100,93,20,2,0,0,1,1,0,,,,,0.0,0.0,0.0,0.0,0.0,0.0,0
-22.959738,-67.786900,1.60,0.00,1.21,0.50,1.60,1.60,1.21,0.50,2322,2025-11-27 20:33:19.462,2025-11-27 21:33:19.462,16,0,0,51.850,-22.959736,-67.786904,-0.10,0.10,-1.20,-0.80,-0.70,-62.90,0,1,0,100,91,-2146,14858,51850,2901.50,39,WP,1,0,0,0,0,0,0,1764275599462,4323,4325,4324,4331,4331,4328,18,,,,,,,0,0,0,8.00,-7.00,-629.00,0.00,0.00,47.00,14,16.00,12.08,4.96,-1.00,1.00,-12.00,0,,,100,93,20,2,0,0,1,1,0,,,,,0.0,0.0,0.0,0.0,0.0,0.0,0
-22.959738,-67.786900,1.70,0.00,1.41,0.53,1.70,1.70,1.41,0.53,2423,2025-11-27 20:33:19.564,2025-11-27 21:33:19.564,15,0,0,51.850,-22.959736,-67.786904,-0.10,0.10,-1.40,-1.90,0.20,-62.70,0,1,0,100,91,-2146,14858,51850,2901.50,39,WP,1,0,0,0,0,0,0,1764275599563,4323,4325,4324,4331,4331,4328,18,,,,,,,0,0,0,19.00,2.00,-627.00,0.00,0.00,45.00,14,17.00,14.07,5.28,-1.00,1.00,-14.00,0,,,100,93,20,2,0,0,1,1,0,,,,,0.0,0.0,0.0,0.0,0.0,0.0,0
-22.959739,-67.786900,1.90,0.00,1.70,0.55,1.90,1.90,1.70,0.55,2522,2025-11-27 20:33:19.662,2025-11-27 21:33:19.662,15,0,0,51.850,-22.959736,-67.786904,-0.10,0.00,-1.70,-3.20,0.70,-62.60,0,1,0,100,91,-2146,14858,51850,2901.50,39,WP,1,0,0,0,0,0,0,1764275599662,4323,4325,4324,4331,4331,4328,18,,,,,,,0,0,0,32.00,7.00,-626.00,0.00,0.00,44.00,14,19.00,17.03,5.51,-1.00,0.00,-17.00,0,,,100,93,20,2,0,0,1,1,0,,,,,0.0,0.0,0.0,0.0,0.0,0.0,0
-22.959739,-67.786900,2.10,0.00,2.00,0.57,2.10,2.10,2.00,0.57,2626,2025-11-27 20:33:19.767,2025-11-27 21:33:19.767,16,0,0,51.850,-22.959736,-67.786904,0.00,0.00,-2.00,-3.60,0.40,-62.50,0,1,0,100,91,-2146,14858,51850,2901.50,39,WP,1,0,0,0,0,0,0,1764275599766,4323,4325,4324,4331,4331,4328,18,,,,,,,0,0,0,36.00,4.00,-625.00,0.00,0.00,42.00,14,21.00,20.00,5.70,0.00,0.00,-20.00,0,,,100,93,20,2,0,0,1,1,0,,,,,0.0,0.0,0.0,0.0,0.0,0.0,0
-22.959739,-67.786900,2.30,0.00,2.30,0.58,2.30,2.30,2.30,0.58,2722,2025-11-27 20:33:19.862,2025-11-27 21:33:19.862,16,0,0,51.850,-22.959736,-67.786904,0.00,0.00,-2.30,-3.10,0.40,-62.40,0,1,0,100,91,-2146,14858,51850,2901.50,39,WP,1,0,0,0,0,0,0,1764275599862,4323,4325,4324,4331,4331,4328,18,,,,,,,0,0,0,31.00,4.00,-624.00,0.00,0.00,42.00,14,23.00,23.00,5.81,0.00,0.00,-23.00,0,,,100,93,20,2,0,0,1,1,0,,,,,0.0,0.0,0.0,0.0,0.0,0.0,0
-22.959739,-67.786900,2.50,0.00,2.50,0.58,2.50,2.50,2.50,0.58,2834,2025-11-27 20:33:19.975,2025-11-27 21:33:19.975,16,0,0,51.850,-22.959736,-67.786904,0.00,0.00,-2.50,-2.10,0.50,-62.30,0,1,0,100,91,-2146,14858,51850,2901.50,39,WP,1,0,0,0,0,0,0,1764275599974,4323,4325,4324,4331,4331,4328,18,,,,,,,0,0,0,21.00,5.00,-623.00,0.00,0.00,41.00,14,25.00,25.00,5.81,0.00,0.00,-25.00,0,,,100,93,20,2,0,0,1,1,0,,,,,0.0,0.0,0.0,0.0,0.0,0.0,0
-22.959739,-67.786900,2.80,0.00,2.80,0.58,2.80,2.80,2.80,0.58,2929,2025-11-27 20:33:20.069,2025-11-27 21:33:20.070,16,0,0,51.850,-22.959736,-67.786904,0.00,0.00,-2.80,-1.60,0.30,-62.50,0,1,0,100,91,-2146,14858,51850,2901.50,39,WP,1,0,0,0,0,0,0,1764275600069,4323,4325,4324,4331,4331,4328,18,,,,,,,0,0,0,16.00,3.00,-625.00,0.00,0.00,40.00,14,28.00,28.00,5.78,0.00,0.00,-28.00,0,,,100,93,20,2,0,0,1,1,0,,,,,0.0,0.0,0.0,0.0,0.0,0.0,0
-22.959739,-67.786900,3.10,0.00,3.00,0.57,3.10,3.10,3.00,0.58,3027,2025-11-27 20:33:20.168,2025-11-27 21:33:20.168,16,0,0,51.850,-22.959736,-67.786904,0.00,0.00,-3.00,-1.00,-0.10,-62.70,0,1,0,100,91,-2146,14858,51850,2901.50,39,WP,1,0,0,0,0,0,0,1764275600167,4323,4325,4324,4331,4331,4328,18,,,,,,,0,0,0,10.00,-1.00,-627.00,0.00,0.00,42.00,14,31.00,30.00,5.67,0.00,0.00,-30.00,0,,,100,93,20,2,0,0,1,1,0,,,,,0.0,0.0,0.0,0.0,0.0,0.0,0
-22.959738,-67.786900,3.40,0.00,3.20,0.56,3.40,3.40,3.20,0.58,3134,2025-11-27 20:33:20.274,2025-11-27 21:33:20.274,16,0,0,51.850,-22.959736,-67.786904,0.10,0.00,-3.20,-0.20,-0.20,-62.90,0,1,0,100,91,-2146,14858,51850,2901.50,39,WP,1,0,0,0,0,0,0,1764275600274,4323,4325,4324,4331,4331,4328,18,,,,,,,0,0,0,2.00,-2.00,-629.00,0.00,0.00,44.00,14,34.00,32.02,5.60,1.00,0.00,-32.00,0,,,100,97,20,2,0,0,1,1,0,,,,,0.0,0.0,0.0,0.0,0.0,0.0,0
-22.959738,-67.786900,3.70,0.00,3.30,0.55,3.70,3.70,3.30,0.58,3236,2025-11-27 20:33:20.377,2025-11-27 21:33:20.377,16,0,0,51.850,-22.959736,-67.786904,0.10,0.00,-3.30,0.20,0.00,-63.00,0,1,0,100,91,-2146,14858,51850,2901.50,39,WP,1,0,0,0,0,0,0,1764275600376,4323,4325,4324,4331,4331,4328,18,,,,,,,0,0,0,-2.00,0.00,-630.00,0.00,0.00,46.00,14,37.00,33.02,5.49,1.00,0.00,-33.00,0,,,100,97,20,2,0,0,1,1,0,,,,,0.0,0.0,0.0,0.0,0.0,0.0,0
-22.959738,-67.786900,4.00,0.00,3.50,0.55,4.00,4.00,3.50,0.58,3333,2025-11-27 20:33:20.473,2025-11-27 21:33:20.473,16,0,0,51.850,-22.959736,-67.786904,0.10,0.10,-3.50,0.30,0.20,-63.20,0,1,0,100,91,-2146,14858,51850,2901.50,39,WP,1,0,0,0,0,0,0,1764275600473,4323,4325,4324,4331,4331,4328,18,,,,,,,0,0,0,-3.00,2.00,-632.00,0.00,0.00,47.00,14,40.00,35.03,5.48,1.00,1.00,-35.00,0,,,100,97,20,2,0,0,1,1,0,,,,,0.0,0.0,0.0,0.0,0.0,0.0,0
-22.959738,-67.786899,4.30,0.00,3.50,0.55,4.30,4.30,3.50,0.58,3437,2025-11-27 20:33:20.577,2025-11-27 21:33:20.577,16,0,0,45.789,-22.959736,-67.786904,0.10,0.10,-3.50,0.30,-0.40,-63.20,0,1,0,99,91,-53201,14759,45789,2901.50,39,WP,1,0,0,0,0,0,0,1764275600577,4323,4325,4324,4331,4331,4328,18,,,,,,,0,0,0,-3.00,-4.00,-632.00,0.00,0.00,49.00,14,43.00,35.03,5.50,1.00,1.00,-35.00,0,,,100,97,20,2,0,0,1,1,0,,,,,0.0,0.0,0.0,0.0,0.0,0.0,0
-22.959738,-67.786899,4.70,0.00,3.51,0.56,4.70,4.70,3.51,0.58,3536,2025-11-27 20:33:20.676,2025-11-27 21:33:20.676,16,0,0,45.789,-22.959736,-67.786904,0.10,0.20,-3.50,-0.30,-1.90,-62.90,0,1,0,99,91,-53201,14759,45789,2901.50,39,WP,1,0,0,0,0,0,0,1764275600676,4323,4325,4324,4331,4331,4328,18,,,,,,,0,0,0,3.00,-19.00,-629.00,0.00,0.00,48.00,14,47.00,35.07,5.62,1.00,2.00,-35.00,0,,,100,97,20,2,0,0,1,1,0,,,,,0.0,0.0,0.0,0.0,0.0,0.0,0
-22.959738,-67.786899,5.00,0.00,3.51,0.58,5.00,5.00,3.51,0.58,3633,2025-11-27 20:33:20.773,2025-11-27 21:33:20.773,16,0,0,45.789,-22.959736,-67.786904,0.00,0.20,-3.50,-1.60,-3.00,-62.80,0,1,0,99,91,-53201,14759,45789,2901.50,39,WP,1,0,0,0,0,0,0,1764275600773,4323,4325,4324,4331,4331,4328,18,,,,,,,0,0,0,16.00,-30.00,-628.00,0.00,0.00,46.00,14,50.00,35.06,5.83,0.00,2.00,-35.00,0,,,100,99,20,2,0,0,1,1,0,,,,,0.0,0.0,0.0,0.0,0.0,0.0,0
-22.959737,-67.786899,5.30,0.00,3.41,0.61,5.30,5.30,3.51,0.61,3734,2025-11-27 20:33:20.875,2025-11-27 21:33:20.875,16,0,0,45.789,-22.959736,-67.786904,0.00,0.20,-3.40,-2.50,-2.90,-62.90,0,1,0,99,91,-53201,14759,45789,2901.50,39,WP,1,0,0,0,0,0,0,1764275600874,4323,4325,4324,4331,4331,4328,18,,,,,,,0,0,0,25.00,-29.00,-629.00,0.00,0.00,45.00,14,53.00,34.06,6.07,0.00,2.00,-34.00,0,,,100,99,20,2,0,0,1,1,0,,,,,0.0,0.0,0.0,0.0,0.0,0.0,0
-22.959737,-67.786898,5.60,0.00,3.30,0.63,5.60,5.60,3.51,0.63,3837,2025-11-27 20:33:20.977,2025-11-27 21:33:20.977,16,0,0,45.789,-22.959736,-67.786904,0.00,0.10,-3.30,-3.00,-2.30,-63.10,0,1,0,99,91,-53201,14759,45789,2901.50,39,WP,1,0,0,0,0,0,0,1764275600977,4323,4325,4324,4331,4331,4328,18,,,,,,,0,0,0,30.00,-23.00,-631.00,0.00,0.00,46.00,14,56.00,33.02,6.32,0.00,1.00,-33.00,0,,,100,99,20,2,0,0,1,1,0,,,,,0.0,0.0,0.0,0.0,0.0,0.0,0
-22.959737,-67.786898,5.90,0.00,3.20,0.65,5.90,5.90,3.51,0.65,3936,2025-11-27 20:33:21.076,2025-11-27 21:33:21.076,16,0,0,45.789,-22.959736,-67.786904,0.00,0.10,-3.20,-3.50,-1.60,-63.10,0,1,0,99,91,-53201,14759,45789,2901.50,39,WP,1,0,0,0,0,0,0,1764275601076,4323,4325,4324,4331,4331,4328,18,,,,,,,0,0,0,35.00,-16.00,-631.00,0.00,0.00,48.00,14,59.00,32.02,6.55,0.00,1.00,-32.00,0,,,100,99,20,2,0,0,1,1,0,,,,,0.0,0.0,0.0,0.0,0.0,0.0,0
-22.959737,-67.786898,6.20,0.00,3.10,0.68,6.20,6.20,3.51,0.68,4034,2025-11-27 20:33:21.175,2025-11-27 21:33:21.175,16,0,0,45.789,-22.959736,-67.786904,0.00,0.10,-3.10,-4.00,-1.10,-63.10,0,1,0,99,91,-53201,14759,45789,2901.50,39,WP,1,0,0,0,0,0,0,1764275601174,4323,4325,4324,4331,4331,4328,18,,,,,,,0,0,0,40.00,-11.00,-631.00,0.00,0.00,48.00,14,62.00,31.02,6.80,0.00,1.00,-31.00,0,,,100,99,20,2,0,0,1,1,0,,,,,0.0,0.0,0.0,0.0,0.0,0.0,0
-22.959738,-67.786897,6.80,0.00,3.00,0.72,6.80,6.80,3.51,0.72,4250,2025-11-27 20:33:21.391,2025-11-27 21:33:21.391,16,0,0,45.789,-22.959736,-67.786904,0.00,0.10,-3.00,-4.60,-1.80,-63.00,0,1,0,99,91,-53201,14759,45789,2901.50,39,WP,1,0,0,0,0,0,0,1764275601390,4323,4325,4324,4331,4331,4328,18,,,,,,,0,0,0,46.00,-18.00,-630.00,0.00,0.00,46.00,14,68.00,30.02,7.19,0.00,1.00,-30.00,0,,,100,100,20,2,0,0,1,1,0,,,,,0.0,0.0,0.0,0.0,0.0,0.0,0
-22.959738,-67.786897,7.00,0.00,3.00,0.73,7.00,7.00,3.51,0.73,4334,2025-11-27 20:33:21.475,2025-11-27 21:33:21.475,16,0,0,45.789,-22.959736,-67.786904,0.00,0.00,-3.00,-4.40,-2.00,-63.00,0,1,0,99,91,-53201,14759,45789,2901.50,39,WP,1,0,0,0,0,0,0,1764275601474,4323,4325,4324,4331,4331,4328,18,,,,,,,0,0,0,44.00,-20.00,-630.00,0.00,0.00,46.00,14,70.00,30.00,7.33,0.00,0.00,-30.00,0,,,100,100,20,2,0,0,1,1,0,,,,,0.0,0.0,0.0,0.0,0.0,0.0,0
-22.959738,-67.786897,7.30,0.00,2.90,0.74,7.30,7.30,3.51,0.74,4438,2025-11-27 20:33:21.579,2025-11-27 21:33:21.579,16,0,0,45.789,-22.959736,-67.786904,0.00,0.00,-2.90,-4.00,-1.80,-63.00,0,1,0,99,91,-53201,14759,45789,2901.50,39,WP,1,0,0,0,0,0,0,1764275601578,4323,4325,4324,4331,4331,4328,18,,,,,,,0,0,0,40.00,-18.00,-630.00,0.00,0.00,46.00,14,73.00,29.00,7.44,0.00,0.00,-29.00,0,,,100,100,20,2,0,0,1,1,0,,,,,0.0,0.0,0.0,0.0,0.0,0.0,0
-22.959738,-67.786897,7.60,0.00,2.90,0.75,7.60,7.60,3.51,0.75,4537,2025-11-27 20:33:21.678,2025-11-27 21:33:21.678,16,0,0,45.789,-22.959736,-67.786904,0.00,0.00,-2.90,-3.70,-1.60,-62.90,0,1,0,99,91,-53201,14759,45789,2901.50,39,WP,1,0,0,0,0,0,0,1764275601677,4323,4325,4324,4331,4331,4328,18,,,,,,,0,0,0,37.00,-16.00,-629.00,0.00,0.00,47.00,14,76.00,29.00,7.53,0.00,0.00,-29.00,0,,,100,100,20,2,0,0,1,1,0,,,,,0.0,0.0,0.0,0.0,0.0,0.0,0
-22.959737,-67.786897,7.90,0.00,3.00,0.76,7.90,7.90,3.51,0.76,4641,2025-11-27 20:33:21.782,2025-11-27 21:33:21.782,16,0,0,45.789,-22.959736,-67.786904,0.10,0.00,-3.00,-3.10,-1.00,-62.90,0,1,0,99,91,-53201,14759,45789,2901.50,39,WP,1,0,0,0,0,0,0,1764275601781,4323,4325,4324,4331,4331,4328,18,,,,,,,0,0,0,31.00,-10.00,-629.00,0.00,0.00,46.00,14,79.00,30.02,7.59,1.00,0.00,-30.00,0,,,100,100,20,2,0,0,1,1,0,,,,,0.0,0.0,0.0,0.0,0.0,0.0,0
-22.959737,-67.786897,8.20,0.00,3.00,0.77,8.20,8.20,3.51,0.77,4736,2025-11-27 20:33:21.876,2025-11-27 21:33:21.876,16,0,0,45.789,-22.959736,-67.786904,0.10,0.10,-3.00,-2.20,-0.60,-63.10,0,1,0,99,91,-53201,14759,45789,2901.50,39,WP,1,0,0,0,0,0,0,1764275601876,4323,4325,4324,4331,4331,4328,18,,,,,,,0,0,0,22.00,-6.00,-631.00,0.00,0.00,46.00,14,82.00,30.03,7.68,1.00,1.00,-30.00,0,,,100,100,20,2,0,0,1,1,0,,,,,0.0,0.0,0.0,0.0,0.0,0.0,0
-22.959737,-67.786897,8.50,0.00,3.10,0.78,8.50,8.50,3.51,0.78,4840,2025-11-27 20:33:21.981,2025-11-27 21:33:21.981,16,0,0,45.789,-22.959736,-67.786904,0.10,0.10,-3.10,-1.90,-0.90,-63.10,0,1,0,99,91,-53201,14759,45789,2901.50,39,WP,1,0,0,0,0,0,0,1764275601980,4323,4325,4324,4331,4331,4328,18,,,,,,,0,0,0,19.00,-9.00,-631.00,0.00,0.00,48.00,14,85.00,31.03,7.83,1.00,1.00,-31.00,0,,,100,100,20,2,0,0,1,1,0,,,,,0.0,0.0,0.0,0.0,0.0,0.0,0
-22.959737,-67.786897,8.90,0.00,3.10,0.80,8.90,8.90,3.51,0.80,4940,2025-11-27 20:33:22.081,2025-11-27 21:33:22.081,16,0,0,45.789,-22.959736,-67.786904,0.00,0.10,-3.10,-2.80,-1.90,-63.10,0,1,0,99,91,-53201,14759,45789,2901.50,39,WP,1,0,0,0,0,0,0,1764275602080,4323,4325,4324,4331,4331,4328,18,,,,,,,0,0,0,28.00,-19.00,-631.00,0.00,0.00,48.00,14,89.00,31.02,8.02,0.00,1.00,-31.00,0,,,100,100,20,2,0,0,1,1,0,,,,,0.0,0.0,0.0,0.0,0.0,0.0,0
-22.959737,-67.786896,9.20,0.00,3.21,0.83,9.20,9.20,3.51,0.83,5043,2025-11-27 20:33:22.183,2025-11-27 21:33:22.183,16,0,0,45.789,-22.959736,-67.786904,0.00,0.20,-3.20,-3.50,-2.60,-63.10,0,1,0,99,91,-53201,14759,45789,2901.50,39,WP,1,0,0,0,0,0,0,1764275602183,4323,4325,4324,4331,4331,4328,18,,,,,,,0,0,0,35.00,-26.00,-631.00,0.00,0.00,47.00,14,92.00,32.06,8.27,0.00,2.00,-32.00,0,,,100,100,20,2,0,0,1,1,0,,,,,0.0,0.0,0.0,0.0,0.0,0.0,0
-22.959737,-67.786896,9.90,0.00,3.31,0.88,9.90,9.90,3.51,0.88,5248,2025-11-27 20:33:22.389,2025-11-27 21:33:22.389,16,0,0,45.789,-22.959736,-67.786904,0.00,0.20,-3.30,-5.10,-4.30,-62.80,0,1,0,99,91,-53201,14759,45789,2901.50,39,WP,1,0,0,0,0,0,0,1764275602388,4323,4325,4324,4331,4331,4328,18,,,,,,,0,0,0,51.00,-43.00,-628.00,0.00,0.00,46.00,14,99.00,33.06,8.77,0.00,2.00,-33.00,0,,,100,100,20,2,0,0,1,1,0,,,,,0.0,0.0,0.0,0.0,0.0,0.0,0
-22.959737,-67.786896,10.20,0.00,3.40,0.90,10.20,10.20,3.51,0.90,5352,2025-11-27 20:33:22.493,2025-11-27 21:33:22.493,16,0,0,45.789,-22.959736,-67.786904,0.00,0.10,-3.40,-5.90,-4.50,-62.70,0,1,0,99,91,-53201,14759,45789,2901.50,39,WP,1,0,0,0,0,0,0,1764275602492,4323,4325,4324,4331,4331,4328,18,,,,,,,0,0,0,59.00,-45.00,-627.00,0.00,0.00,45.00,14,102.00,34.01,8.99,0.00,1.00,-34.00,0,,,100,100,20,2,0,0,1,1,0,,,,,0.0,0.0,0.0,0.0,0.0,0.0,0
-22.959737,-67.786895,10.60,0.00,3.40,0.92,10.60,10.60,3.51,0.92,5452,2025-11-27 20:33:22.593,2025-11-27 21:33:22.593,16,0,0,44.313,-22.959736,-67.786904,0.00,0.10,-3.40,-7.10,-3.80,-62.70,0,1,0,98,91,-71564,14659,44313,2901.50,39,WP,1,0,0,0,0,0,0,1764275602592,3593,3618,3618,3621,3606,3594,18,,,,,,,0,0,0,71.00,-38.00,-627.00,0.00,0.00,44.00,14,106.00,34.01,9.19,0.00,1.00,-34.00,0,,,100,100,20,2,0,0,1,1,0,,,,,0.0,0.0,0.0,0.0,0.0,0.0,0
-22.959737,-67.786895,11.00,0.00,3.40,0.93,11.00,11.00,3.51,0.93,5552,2025-11-27 20:33:22.693,2025-11-27 21:33:22.693,16,0,0,44.313,-22.959736,-67.786904,0.00,0.00,-3.40,-7.90,-2.70,-62.60,0,1,0,98,91,-71564,14659,44313,2901.50,39,WP,1,0,0,0,0,0,0,1764275602692,3593,3618,3618,3621,3606,3594,18,,,,,,,0,0,0,79.00,-27.00,-626.00,0.00,0.00,43.00,14,110.00,34.00,9.32,0.00,0.00,-34.00,0,,,100,100,20,2,0,0,1,1,0,,,,,0.0,0.0,0.0,0.0,0.0,0.0,0
-22.959737,-67.786895,11.70,0.00,3.30,0.93,11.70,11.70,3.51,0.93,5750,2025-11-27 20:33:22.891,2025-11-27 21:33:22.891,16,0,0,44.313,-22.959736,-67.786904,0.10,-0.10,-3.30,-7.80,-1.00,-62.40,0,1,0,98,91,-71564,14659,44313,2901.50,39,WP,1,0,0,0,0,0,0,1764275602890,3593,3618,3618,3621,3606,3594,18,,,,,,,0,0,0,78.00,-10.00,-624.00,0.00,0.00,41.00,14,117.00,33.03,9.26,1.00,-1.00,-33.00,0,,,100,100,20,2,0,0,1,1,0,,,,,0.0,0.0,0.0,0.0,0.0,0.0,0
-22.959737,-67.786896,12.00,0.00,3.21,0.90,12.00,12.00,3.51,0.93,5853,2025-11-27 20:33:22.993,2025-11-27 21:33:22.994,16,0,0,44.313,-22.959736,-67.786904,0.20,-0.20,-3.20,-7.00,-0.80,-62.50,0,1,0,98,91,-71564,14659,44313,2901.50,39,WP,1,0,0,0,0,0,0,1764275602993,3593,3618,3618,3621,3606,3594,18,,,,,,,0,0,0,70.00,-8.00,-625.00,0.00,0.00,41.00,14,120.00,32.12,9.00,2.00,-2.00,-32.00,0,,,100,100,20,2,0,0,1,1,0,,,,,0.0,0.0,0.0,0.0,0.0,0.0,0
-22.959737,-67.786896,12.30,0.00,3.21,0.87,12.30,12.30,3.51,0.93,5947,2025-11-27 20:33:23.087,2025-11-27 21:33:23.087,16,0,0,44.313,-22.959736,-67.786904,0.20,-0.20,-3.20,-5.40,-1.40,-62.70,0,1,0,98,91,-71564,14659,44313,2901.50,39,WP,1,0,0,0,0,0,0,1764275603087,3593,3618,3618,3621,3606,3594,18,,,,,,,0,0,0,54.00,-14.00,-627.00,0.00,0.00,43.00,14,123.00,32.12,8.69,2.00,-2.00,-32.00,0,,,100,100,20,2,0,0,1,1,0,,,,,0.0,0.0,0.0,0.0,0.0,0.0,0
-22.959737,-67.786896,12.60,0.00,3.12,0.82,12.60,12.60,3.51,0.93,6052,2025-11-27 20:33:23.192,2025-11-27 21:33:23.192,16,0,0,44.313,-22.959736,-67.786904,0.20,-0.30,-3.10,-3.70,-2.60,-62.80,0,1,0,98,91,-71564,14659,44313,2901.50,39,WP,1,0,0,0,0,0,0,1764275603192,3593,3618,3618,3621,3606,3594,18,,,,,,,0,0,0,37.00,-26.00,-628.00,0.00,0.00,45.00,14,126.00,31.21,8.21,2.00,-3.00,-31.00,0,,,100,100,20,2,0,0,1,1,0,,,,,0.0,0.0,0.0,0.0,0.0,0.0,0
-22.959736,-67.786897,12.90,0.00,3.02,0.77,12.90,12.90,3.51,0.93,6153,2025-11-27 20:33:23.293,2025-11-27 21:33:23.293,16,0,0,44.313,-22.959736,-67.786904,0.20,-0.30,-3.00,-2.10,-3.20,-62.80,0,1,0,98,91,-71564,14659,44313,2901.50,39,WP,1,0,0,0,0,0,0,1764275603293,3593,3618,3618,3621,3606,3594,18,,,,,,,0,0,0,21.00,-32.00,-628.00,0.00,0.00,45.00,14,129.00,30.22,7.73,2.00,-3.00,-30.00,0,,,100,98,20,2,0,0,1,1,0,,,,,0.0,0.0,0.0,0.0,0.0,0.0,0
-22.959736,-67.786897,13.20,0.00,2.92,0.73,13.20,13.20,3.51,0.93,6248,2025-11-27 20:33:23.389,2025-11-27 21:33:23.389,16,0,0,44.313,-22.959736,-67.786904,0.20,-0.30,-2.90,-0.70,-3.70,-63.00,0,1,0,98,91,-71564,14659,44313,2901.50,39,WP,1,0,0,0,0,0,0,1764275603388,3593,3618,3618,3621,3606,3594,18,,,,,,,0,0,0,7.00,-37.00,-630.00,0.00,0.00,45.00,14,132.00,29.22,7.27,2.00,-3.00,-29.00,0,,,100,98,20,2,0,0,1,1,0,,,,,0.0,0.0,0.0,0.0,0.0,0.0,0
-22.959736,-67.786898,13.50,0.00,2.91,0.69,13.50,13.50,3.51,0.93,6351,2025-11-27 20:33:23.491,2025-11-27 21:33:23.492,16,0,0,44.313,-22.959736,-67.786904,0.20,-0.20,-2.90,0.20,-4.00,-63.00,0,1,0,98,91,-71564,14659,44313,2901.50,39,WP,1,0,0,0,0,0,0,1764275603491,3593,3618,3618,3621,3606,3594,18,,,,,,,0,0,0,-2.00,-40.00,-630.00,0.00,0.00,46.00,14,135.00,29.14,6.88,2.00,-2.00,-29.00,0,,,100,98,20,2,0,0,1,1,0,,,,,0.0,0.0,0.0,0.0,0.0,0.0,0
-22.959735,-67.786898,13.80,0.00,2.91,0.65,13.80,13.80,3.51,0.93,6452,2025-11-27 20:33:23.593,2025-11-27 21:33:23.593,16,0,0,44.313,-22.959736,-67.786904,0.20,-0.20,-2.90,0.60,-4.60,-63.00,0,1,0,98,91,-71564,14659,44313,2901.50,39,WP,1,0,0,0,0,0,0,1764275603592,3593,3618,3618,3621,3606,3594,18,,,,,,,0,0,0,-6.00,-46.00,-630.00,0.00,0.00,47.00,14,138.00,29.14,6.54,2.00,-2.00,-29.00,0,,,100,98,20,2,0,0,1,1,0,,,,,0.0,0.0,0.0,0.0,0.0,0.0,0
-22.959735,-67.786898,14.10,0.00,2.90,0.63,14.10,14.10,3.51,0.93,6555,2025-11-27 20:33:23.695,2025-11-27 21:33:23.695,16,0,0,44.381,-22.959736,-67.786904,0.10,-0.10,-2.90,0.40,-5.10,-63.00,0,1,0,97,91,-61049,14559,44381,2901.50,39,WP,1,0,0,0,0,0,0,1764275603695,3593,3618,3618,3621,3606,3594,18,,,,,,,0,0,0,-4.00,-51.00,-630.00,0.00,0.00,47.00,14,141.00,29.03,6.28,1.00,-1.00,-29.00,0,,,100,98,20,2,0,0,1,1,0,,,,,0.0,0.0,0.0,0.0,0.0,0.0,0
-22.959735,-67.786898,14.40,0.00,2.90,0.62,14.40,14.40,3.51,0.93,6652,2025-11-27 20:33:23.792,2025-11-27 21:33:23.792,16,0,0,44.381,-22.959736,-67.786904,0.00,0.00,-2.90,0.00,-5.20,-63.00,0,1,0,97,91,-61049,14559,44381,2901.50,39,WP,1,0,0,0,0,0,0,1764275603792,3593,3618,3618,3621,3606,3594,18,,,,,,,0,0,0,-0.00,-52.00,-630.00,0.00,0.00,47.00,14,144.00,29.00,6.15,0.00,0.00,-29.00,0,,,100,98,20,2,0,0,1,1,0,,,,,0.0,0.0,0.0,0.0,0.0,0.0,0
-22.959735,-67.786898,14.70,0.00,2.90,0.61,14.70,14.70,3.51,0.93,6752,2025-11-27 20:33:23.893,2025-11-27 21:33:23.893,16,0,0,44.381,-22.959736,-67.786904,0.00,0.00,-2.90,-0.90,-4.80,-63.00,0,1,0,97,91,-61049,14559,44381,2901.50,39,WP,1,0,0,0,0,0,0,1764275603892,3593,3618,3618,3621,3606,3594,18,,,,,,,0,0,0,9.00,-48.00,-630.00,0.00,0.00,47.00,14,147.00,29.00,6.07,0.00,0.00,-29.00,0,,,100,98,20,2,0,0,1,1,0,,,,,0.0,0.0,0.0,0.0,0.0,0.0,0
-22.959735,-67.786898,15.00,0.00,2.90,0.61,15.00,15.00,3.51,0.93,6856,2025-11-27 20:33:23.997,2025-11-27 21:33:23.997,15,0,0,44.381,-22.959736,-67.786904,0.00,0.00,-2.90,-1.80,-4.20,-63.00,0,1,0,97,91,-61049,14559,44381,2901.50,39,WP,1,0,0,0,0,0,0,1764275603996,3593,3618,3618,3621,3606,3594,18,,,,,,,0,0,0,18.00,-42.00,-630.00,0.00,0.00,47.00,14,150.00,29.00,6.14,0.00,0.00,-29.00,0,,,100,98,20,2,0,0,1,1,0,,,,,0.0,0.0,0.0,0.0,0.0,0.0,0
-22.959735,-67.786898,15.30,0.00,2.90,0.62,15.30,15.30,3.51,0.93,6958,2025-11-27 20:33:24.098,2025-11-27 21:33:24.098,15,0,0,44.381,-22.959736,-67.786904,-0.10,0.00,-2.90,-2.50,-3.30,-63.00,0,1,0,97,91,-61049,14559,44381,2901.50,39,WP,1,0,0,0,0,0,0,1764275604098,3593,3618,3618,3621,3606,3594,18,,,,,,,0,0,0,25.00,-33.00,-630.00,0.00,0.00,47.00,14,153.00,29.02,6.20,-1.00,0.00,-29.00,0,,,100,98,20,2,0,0,1,1,0,,,,,0.0,0.0,0.0,0.0,0.0,0.0,0
-22.959736,-67.786898,16.00,0.00,2.90,0.65,16.00,16.00,3.51,0.93,7158,2025-11-27 20:33:24.298,2025-11-27 21:33:24.299,15,0,0,44.381,-22.959736,-67.786904,-0.10,0.10,-2.90,-4.00,-3.00,-62.90,0,1,0,97,91,-61049,14559,44381,2901.50,39,WP,1,0,0,0,0,0,0,1764275604298,3593,3618,3618,3621,3606,3594,18,,,,,,,0,0,0,40.00,-30.00,-629.00,0.00,0.00,46.00,14,160.00,29.03,6.49,-1.00,1.00,-29.00,0,,,100,92,20,2,0,0,1,1,0,,,,,0.0,0.0,0.0,0.0,0.0,0.0,0
-22.959736,-67.786898,16.30,0.00,2.80,0.67,16.30,16.30,3.51,0.93,7259,2025-11-27 20:33:24.400,2025-11-27 21:33:24.400,15,0,0,44.381,-22.959736,-67.786904,0.00,0.10,-2.80,-4.70,-3.20,-62.80,0,1,0,97,91,-61049,14559,44381,2901.50,39,WP,1,0,0,0,0,0,0,1764275604399,3593,3618,3618,3621,3606,3594,18,,,,,,,0,0,0,47.00,-32.00,-628.00,0.00,0.00,46.00,14,163.00,28.02,6.72,0.00,1.00,-28.00,0,,,100,92,20,2,0,0,1,1,0,,,,,0.0,0.0,0.0,0.0,0.0,0.0,0
-22.959736,-67.786898,16.50,0.00,2.60,0.69,16.50,16.50,3.51,0.93,7359,2025-11-27 20:33:24.499,2025-11-27 21:33:24.499,15,0,0,44.381,-22.959736,-67.786904,0.00,0.10,-2.60,-5.30,-3.90,-62.80,0,1,0,97,91,-61049,14559,44381,2901.50,39,WP,1,0,0,0,0,0,0,1764275604499,3593,3618,3618,3621,3606,3594,18,,,,,,,0,0,0,53.00,-39.00,-628.00,0.00,0.00,45.00,14,165.00,26.02,6.93,0.00,1.00,-26.00,0,,,100,92,20,2,0,0,1,1,0,,,,,0.0,0.0,0.0,0.0,0.0,0.0,0
-22.959736,-67.786897,16.80,0.00,2.50,0.72,16.80,16.80,3.51,0.93,7457,2025-11-27 20:33:24.598,2025-11-27 21:33:24.598,16,0,0,44.214,-22.959736,-67.786904,0.00,0.10,-2.50,-6.30,-5.00,-62.70,0,1,0,97,91,-61013,14559,44214,2901.50,39,WP,1,0,0,0,0,0,0,1764275604597,3593,3618,3618,3621,3606,3594,18,,,,,,,0,0,0,63.00,-50.00,-627.00,0.00,0.00,44.00,14,168.00,25.02,7.18,0.00,1.00,-25.00,0,,,100,92,20,2,0,0,1,1,0,,,,,0.0,0.0,0.0,0.0,0.0,0.0,0
-22.959737,-67.786897,17.00,0.00,2.30,0.74,17.00,17.00,3.51,0.93,7568,2025-11-27 20:33:24.708,2025-11-27 21:33:24.708,16,0,0,44.214,-22.959736,-67.786904,0.00,0.00,-2.30,-7.30,-5.40,-62.60,0,1,0,97,91,-61013,14559,44214,2901.50,39,WP,1,0,0,0,0,0,0,1764275604708,3593,3618,3618,3621,3606,3594,18,,,,,,,0,0,0,73.00,-54.00,-626.00,0.00,0.00,44.00,14,170.00,23.00,7.39,0.00,0.00,-23.00,0,,,100,92,20,2,0,0,1,1,0,,,,,0.0,0.0,0.0,0.0,0.0,0.0,0
-22.959737,-67.786897,17.30,0.00,2.10,0.76,17.30,17.30,3.51,0.93,7669,2025-11-27 20:33:24.809,2025-11-27 21:33:24.810,16,0,0,44.214,-22.959736,-67.786904,-0.10,0.00,-2.10,-8.00,-5.80,-62.60,0,1,0,97,91,-61013,14559,44214,2901.50,39,WP,1,0,0,0,0,0,0,1764275604809,3593,3618,3618,3621,3606,3594,18,,,,,,,0,0,0,80.00,-58.00,-626.00,0.00,0.00,43.00,14,173.00,21.02,7.58,-1.00,0.00,-21.00,0,,,100,93,20,2,0,0,1,1,0,,,,,0.0,0.0,0.0,0.0,0.0,0.0,0
-22.959737,-67.786897,17.50,0.00,1.90,0.77,17.50,17.50,3.51,0.93,7769,2025-11-27 20:33:24.909,2025-11-27 21:33:24.909,16,0,0,44.214,-22.959736,-67.786904,-0.10,0.00,-1.90,-8.00,-5.50,-62.60,0,1,0,97,91,-61013,14559,44214,2901.50,39,WP,1,0,0,0,0,0,0,1764275604909,3593,3618,3618,3621,3606,3594,18,,,,,,,0,0,0,80.00,-55.00,-626.00,0.00,0.00,43.00,14,175.00,19.03,7.74,-1.00,0.00,-19.00,0,,,100,93,20,2,0,0,1,1,0,,,,,0.0,0.0,0.0,0.0,0.0,0.0,0
-22.959737,-67.786897,17.60,0.00,1.70,0.78,17.60,17.60,3.51,0.93,7866,2025-11-27 20:33:25.006,2025-11-27 21:33:25.006,16,0,0,44.214,-22.959736,-67.786904,-0.10,0.00,-1.70,-7.80,-4.90,-62.70,0,1,0,97,91,-61013,14559,44214,2901.50,39,WP,1,0,0,0,0,0,0,1764275605006,3593,3618,3618,3621,3606,3594,18,,,,,,,0,0,0,78.00,-49.00,-627.00,0.00,0.00,44.00,14,176.00,17.03,7.78,-1.00,0.00,-17.00,0,,,100,93,20,2,0,0,1,1,0,,,,,0.0,0.0,0.0,0.0,0.0,0.0,0
-22.959737,-67.786897,17.80,0.00,1.51,0.78,17.80,17.80,3.51,0.93,7969,2025-11-27 20:33:25.109,2025-11-27 21:33:25.109,16,0,0,44.214,-22.959736,-67.786904,-0.10,-0.10,-1.50,-7.40,-4.10,-62.80,0,1,0,97,91,-61013,14559,44214,2901.50,39,WP,1,0,0,0,0,0,0,1764275605109,3593,3618,3618,3621,3606,3594,18,,,,,,,0,0,0,74.00,-41.00,-628.00,0.00,0.00,44.00,14,178.00,15.07,7.79,-1.00,-1.00,-15.00,0,,,100,93,20,2,0,0,1,1,0,,,,,0.0,0.0,0.0,0.0,0.0,0.0,0
-22.959738,-67.786897,18.00,0.00,1.31,0.77,18.00,18.00,3.51,0.93,8068,2025-11-27 20:33:25.209,2025-11-27 21:33:25.209,16,0,0,44.214,-22.959736,-67.786904,-0.10,-0.10,-1.30,-6.90,-3.50,-63.00,0,1,0,97,91,-61013,14559,44214,2901.50,39,WP,1,0,0,0,0,0,0,1764275605208,3593,3618,3618,3621,3606,3594,18,,,,,,,0,0,0,69.00,-35.00,-630.00,0.00,0.00,45.00,14,180.00,13.08,7.72,-1.00,-1.00,-13.00,0,,,100,93,20,2,0,0,1,1,0,,,,,0.0,0.0,0.0,0.0,0.0,0.0,0
-22.959738,-67.786897,18.10,0.00,1.21,0.76,18.10,18.10,3.51,0.93,8162,2025-11-27 20:33:25.303,2025-11-27 21:33:25.303,16,0,0,44.214,-22.959736,-67.786904,-0.10,-0.10,-1.20,-6.60,-2.90,-63.00,0,1,0,97,91,-61013,14559,44214,2901.50,39,WP,1,0,0,0,0,0,0,1764275605302,3593,3618,3618,3621,3606,3594,18,,,,,,,0,0,0,66.00,-29.00,-630.00,0.00,0.00,46.00,14,181.00,12.08,7.64,-1.00,-1.00,-12.00,0,,,100,96,20,2,0,0,1,1,0,,,,,0.0,0.0,0.0,0.0,0.0,0.0,0
-22.959738,-67.786897,18.20,0.00,1.11,0.74,18.20,18.20,3.51,0.93,8268,2025-11-27 20:33:25.408,2025-11-27 21:33:25.408,16,0,0,44.214,-22.959736,-67.786904,-0.10,-0.10,-1.10,-6.60,-2.80,-63.00,0,1,0,97,91,-61013,14559,44214,2901.50,39,WP,1,0,0,0,0,0,0,1764275605408,3593,3618,3618,3621,3606,3594,18,,,,,,,0,0,0,66.00,-28.00,-630.00,0.00,0.00,47.00,14,182.00,11.09,7.43,-1.00,-1.00,-11.00,0,,,100,96,20,2,0,0,1,1,0,,,,,0.0,0.0,0.0,0.0,0.0,0.0,0
-22.959738,-67.786898,18.30,0.00,1.02,0.72,18.30,18.30,3.51,0.93,8364,2025-11-27 20:33:25.505,2025-11-27 21:33:25.505,16,0,0,44.214,-22.959736,-67.786904,-0.10,-0.20,-1.00,-6.40,-2.40,-63.00,0,1,0,97,91,-61013,14559,44214,2901.50,39,WP,1,0,0,0,0,0,0,1764275605504,3593,3618,3618,3621,3606,3594,18,,,,,,,0,0,0,64.00,-24.00,-630.00,0.00,0.00,47.00,14,183.00,10.25,7.25,-1.00,-2.00,-10.00,0,,,100,96,20,2,0,0,1,1,0,,,,,0.0,0.0,0.0,0.0,0.0,0.0,0
-22.959738,-67.786898,18.50,0.00,1.02,0.69,18.50,18.50,3.51,0.93,8467,2025-11-27 20:33:25.608,2025-11-27 21:33:25.608,16,0,0,44.214,-22.959736,-67.786904,0.00,-0.20,-1.00,-6.10,-2.20,-62.90,0,1,0,97,91,-61013,14559,44214,2901.50,39,WP,1,0,0,0,0,0,0,1764275605607,3593,3618,3618,3621,3606,3594,18,,,,,,,0,0,0,61.00,-22.00,-629.00,0.00,0.00,47.00,14,185.00,10.20,6.91,0.00,-2.00,-10.00,0,,,100,96,20,2,0,0,1,1,0,,,,,0.0,0.0,0.0,0.0,0.0,0.0,0
-22.959738,-67.786898,18.60,0.00,1.02,0.66,18.60,18.60,3.51,0.93,8568,2025-11-27 20:33:25.709,2025-11-27 21:33:25.709,16,0,0,44.214,-22.959736,-67.786904,0.00,-0.20,-1.00,-5.60,-2.00,-62.90,0,1,0,97,91,-61013,14559,44214,2901.50,39,WP,1,0,0,0,0,0,0,1764275605708,3593,3618,3618,3621,3606,3594,18,,,,,,,0,0,0,56.00,-20.00,-629.00,0.00,0.00,46.00,14,186.00,10.20,6.65,0.00,-2.00,-10.00,0,,,100,96,20,2,0,0,1,1,0,,,,,0.0,0.0,0.0,0.0,0.0,0.0,0
-22.959738,-67.786899,18.70,0.00,1.02,0.63,18.70,18.70,3.51,0.93,8667,2025-11-27 20:33:25.807,2025-11-27 21:33:25.807,16,0,0,44.214,-22.959736,-67.786904,0.00,-0.20,-1.00,-5.00,-1.70,-62.90,0,1,0,97,91,-61013,14559,44214,2901.50,39,WP,1,0,0,0,0,0,0,1764275605807,3593,3618,3618,3621,3606,3594,18,,,,,,,0,0,0,50.00,-17.00,-629.00,0.00,0.00,46.00,14,187.00,10.20,6.30,0.00,-2.00,-10.00,0,,,100,100,20,2,0,0,1,1,0,,,,,0.0,0.0,0.0,0.0,0.0,0.0,0
-22.959738,-67.786899,18.80,0.00,1.10,0.60,18.80,18.80,3.51,0.93,8769,2025-11-27 20:33:25.909,2025-11-27 21:33:25.909,16,0,0,44.214,-22.959736,-67.786904,0.00,-0.10,-1.10,-4.30,-1.60,-63.00,0,1,0,97,91,-61013,14559,44214,2901.50,39,WP,1,0,0,0,0,0,0,1764275605909,3593,3618,3618,3621,3606,3594,18,,,,,,,0,0,0,43.00,-16.00,-630.00,0.00,0.00,46.00,14,188.00,11.05,6.04,0.00,-1.00,-11.00,0,,,100,100,20,2,0,0,1,1,0,,,,,0.0,0.0,0.0,0.0,0.0,0.0,0
-22.959738,-67.786899,19.00,0.00,1.10,0.58,19.00,19.00,3.51,0.93,8871,2025-11-27 20:33:26.011,2025-11-27 21:33:26.011,15,0,0,44.214,-22.959736,-67.786904,0.00,-0.10,-1.10,-4.10,-1.80,-63.00,0,1,0,97,91,-61013,14559,44214,2901.50,39,WP,1,0,0,0,0,0,0,1764275606011,3593,3618,3618,3621,3606,3594,18,,,,,,,0,0,0,41.00,-18.00,-630.00,0.00,0.00,47.00,14,190.00,11.05,5.76,0.00,-1.00,-11.00,0,,,100,100,20,2,0,0,1,1,0,,,,,0.0,0.0,0.0,0.0,0.0,0.0,0
-22.959738,-67.786899,19.10,0.00,1.10,0.56,19.10,19.10,3.51,0.93,8969,2025-11-27 20:33:26.109,2025-11-27 21:33:26.109,15,0,0,44.214,-22.959736,-67.786904,0.00,-0.10,-1.10,-4.00,-2.70,-62.90,0,1,0,97,91,-61013,14559,44214,2901.50,39,WP,1,0,0,0,0,0,0,1764275606109,3593,3618,3618,3621,3606,3594,18,,,,,,,0,0,0,40.00,-27.00,-629.00,0.00,0.00,47.00,14,191.00,11.05,5.55,0.00,-1.00,-11.00,0,,,100,100,20,2,0,0,1,1,0,,,,,0.0,0.0,0.0,0.0,0.0,0.0,0
-22.959738,-67.786900,19.20,0.00,1.10,0.53,19.20,19.20,3.51,0.93,9073,2025-11-27 20:33:26.213,2025-11-27 21:33:26.213,16,0,0,44.214,-22.959736,-67.786904,0.00,-0.10,-1.10,-4.10,-3.50,-62.90,0,1,0,97,91,-61013,14559,44214,2901.50,39,WP,1,0,0,0,0,0,0,1764275606213,3593,3618,3618,3621,3606,3594,18,,,,,,,0,0,0,41.00,-35.00,-629.00,0.00,0.00,46.00,14,192.00,11.05,5.32,0.00,-1.00,-11.00,0,,,100,100,20,2,0,0,1,1,0,,,,,0.0,0.0,0.0,0.0,0.0,0.0,0
-22.959738,-67.786900,19.40,0.00,1.10,0.52,19.40,19.40,3.51,0.93,9173,2025-11-27 20:33:26.313,2025-11-27 21:33:26.313,16,0,0,44.214,-22.959736,-67.786904,0.00,0.00,-1.10,-4.30,-4.00,-62.90,0,1,0,97,91,-61013,14559,44214,2901.50,39,WP,1,0,0,0,0,0,0,1764275606313,3593,3618,3618,3621,3606,3594,18,,,,,,,0,0,0,43.00,-40.00,-629.00,0.00,0.00,45.00,14,194.00,11.00,5.17,0.00,0.00,-11.00,0,,,100,100,20,2,0,0,1,1,0,,,,,0.0,0.0,0.0,0.0,0.0,0.0,0
-22.959738,-67.786900,19.50,0.00,1.10,0.50,19.50,19.50,3.51,0.93,9274,2025-11-27 20:33:26.414,2025-11-27 21:33:26.414,16,0,0,44.214,-22.959736,-67.786904,0.00,0.00,-1.10,-4.30,-4.50,-62.50,0,1,0,97,91,-61013,14559,44214,2901.50,39,WP,1,0,0,0,0,0,0,1764275606414,3593,3618,3618,3621,3606,3594,18,,,,,,,0,0,0,43.00,-45.00,-625.00,0.00,0.00,45.00,14,195.00,11.00,5.05,0.00,0.00,-11.00,0,,,100,100,20,2,0,0,1,1,0,,,,,0.0,0.0,0.0,0.0,0.0,0.0,0
-22.959738,-67.786900,19.70,0.00,0.70,0.50,19.70,19.70,3.51,0.93,9474,2025-11-27 20:33:26.615,2025-11-27 21:33:26.615,16,0,0,44.257,-22.959736,-67.786904,0.00,0.00,-0.70,-2.50,-5.00,-53.90,0,1,0,97,91,-49696,14559,44257,2901.50,39,WP,1,0,0,0,0,0,0,1764275606614,3593,3618,3618,3621,3606,3594,18,,,,,,,0,0,0,25.00,-50.00,-539.00,0.00,0.00,1.00,14,197.00,7.00,5.00,0.00,0.00,-7.00,0,,,100,100,20,2,0,0,1,1,0,,,,,0.0,0.0,0.0,0.0,0.0,0.0,0
-22.959738,-67.786900,19.80,0.00,0.50,0.51,19.80,19.80,3.51,0.93,9575,2025-11-27 20:33:26.715,2025-11-27 21:33:26.715,16,0,0,44.257,-22.959736,-67.786904,0.00,0.00,-0.50,-1.80,-5.20,-46.20,0,1,0,97,91,-49696,14559,44257,2901.50,39,WP,1,0,0,0,0,0,0,1764275606715,3593,3618,3618,3621,3606,3594,18,,,,,,,0,0,0,18.00,-52.00,-462.00,0.00,0.00,-59.00,14,198.00,5.00,5.06,0.00,0.00,-5.00,0,,,100,100,20,2,0,0,1,1,0,,,,,0.0,0.0,0.0,0.0,0.0,0.0,0
-22.959738,-67.786900,19.80,0.00,0.20,0.53,19.80,19.80,3.51,0.93,9677,2025-11-27 20:33:26.817,2025-11-27 21:33:26.817,16,0,0,44.257,-22.959736,-67.786904,0.00,0.00,-0.20,-1.70,-5.10,-37.00,0,1,0,97,91,-49696,14559,44257,2901.50,39,WP,1,0,0,0,0,0,0,1764275606817,3593,3618,3618,3621,3606,3594,18,,,,,,,0,0,0,17.00,-51.00,-370.00,0.00,0.00,-129.00,14,198.00,2.00,5.27,0.00,0.00,-2.00,0,,,100,98,20,2,0,0,1,1,0,,,,,0.0,0.0,0.0,0.0,0.0,0.0,0
-22.959738,-67.786899,19.80,0.00,0.10,0.55,19.80,19.80,3.51,0.93,9777,2025-11-27 20:33:26.918,2025-11-27 21:33:26.918,16,0,0,44.257,-22.959736,-67.786904,-0.10,0.00,0.00,-2.10,-5.10,-27.80,0,1,0,97,91,-49696,14559,44257,2901.50,39,WP,1,0,0,0,0,0,0,1764275606917,3593,3618,3618,3621,3606,3594,18,,,,,,,0,0,0,21.00,-51.00,-278.00,0.00,2.00,-158.00,14,198.00,1.00,5.49,-1.00,0.00,0.00,0,,,100,98,20,2,0,0,1,1,0,,,,,0.0,0.0,0.0,0.0,0.0,0.0,0
-22.959738,-67.786899,19.80,0.00,0.14,0.58,19.80,19.80,3.51,0.93,9885,2025-11-27 20:33:27.025,2025-11-27 21:33:27.025,16,0,0,44.257,-22.959736,-67.786904,-0.10,0.10,0.00,-2.80,-4.60,-18.40,0,1,0,97,91,-49696,14559,44257,2901.50,39,WP,1,0,0,0,0,0,0,1764275607025,3593,3618,3618,3621,3606,3594,18,,,,,,,0,0,0,28.00,-46.00,-184.00,0.00,3.00,-177.00,14,198.00,1.41,5.82,-1.00,1.00,0.00,0,,,100,98,20,2,0,0,1,1,0,,,,,0.0,0.0,0.0,0.0,0.0,0.0,0
-22.959738,-67.786899,19.80,0.00,0.14,0.61,19.80,19.80,3.51,0.93,9985,2025-11-27 20:33:27.125,2025-11-27 21:33:27.125,16,0,0,44.257,-22.959736,-67.786904,0.00,0.10,0.10,-4.10,-4.20,-9.00,0,1,0,97,91,-49696,14559,44257,2901.50,39,WP,1,0,0,0,0,0,0,1764275607125,3593,3618,3618,3621,3606,3594,18,,,,,,,0,0,0,41.00,-42.00,-90.00,0.00,3.00,-177.00,14,198.00,1.41,6.10,0.00,1.00,1.00,0,,,100,98,20,2,0,0,1,1,0,,,,,0.0,0.0,0.0,0.0,0.0,0.0,0
-22.959739,-67.786899,19.80,0.00,0.14,0.63,19.80,19.80,3.51,0.93,10081,2025-11-27 20:33:27.222,2025-11-27 21:33:27.222,16,0,0,44.257,-22.959736,-67.786904,0.00,0.10,0.10,-5.20,-4.00,0.30,0,1,0,97,91,-49696,14559,44257,2901.50,39,WP,1,0,0,0,0,0,0,1764275607221,3593,3618,3618,3621,3606,3594,18,,,,,,,0,0,0,52.00,-40.00,3.00,0.00,6.00,-190.00,14,198.00,1.41,6.31,0.00,1.00,1.00,0,,,100,98,20,2,0,0,1,1,0,,,,,0.0,0.0,0.0,0.0,0.0,0.0,0
-22.959739,-67.786899,19.80,0.00,0.28,0.65,19.80,19.80,3.51,0.93,10184,2025-11-27 20:33:27.325,2025-11-27 21:33:27.325,16,0,0,44.257,-22.959736,-67.786904,0.00,0.20,0.20,-5.60,-4.60,9.70,0,1,0,97,91,-49696,14559,44257,2901.50,39,WP,1,0,0,0,0,0,0,1764275607324,3593,3618,3618,3621,3606,3594,18,,,,,,,0,0,0,56.00,-46.00,97.00,0.00,6.00,-190.00,14,198.00,2.83,6.50,0.00,2.00,2.00,0,,,100,96,20,2,0,0,1,1,0,,,,,0.0,0.0,0.0,0.0,0.0,0.0,0
-22.959738,-67.786898,19.70,0.00,0.24,0.67,19.80,19.80,3.51,0.93,10284,2025-11-27 20:33:27.425,2025-11-27 21:33:27.425,16,0,0,44.257,-22.959736,-67.786904,0.10,0.20,0.10,-4.90,-5.40,18.90,0,1,0,97,91,-49696,14559,44257,2901.50,39,WP,1,0,0,0,0,0,0,1764275607424,3593,3618,3618,3621,3606,3594,18,,,,,,,0,0,0,49.00,-54.00,189.00,0.00,8.00,-199.00,14,197.00,2.45,6.69,1.00,2.00,1.00,0,,,100,96,20,2,0,0,1,1,0,,,,,0.0,0.0,0.0,0.0,0.0,0.0,0
-22.959738,-67.786898,19.70,0.00,0.36,0.69,19.80,19.80,3.51,0.93,10382,2025-11-27 20:33:27.523,2025-11-27 21:33:27.523,16,0,0,44.257,-22.959736,-67.786904,0.30,0.20,0.00,-2.70,-5.70,27.90,0,1,0,97,91,-49696,14559,44257,2901.50,39,WP,1,0,0,0,0,0,0,1764275607522,3593,3618,3618,3621,3606,3594,18,,,,,,,0,0,0,27.00,-57.00,279.00,0.00,6.00,-193.00,14,197.00,3.61,6.91,3.00,2.00,0.00,0,,,100,96,20,2,0,0,1,1,0,,,,,0.0,0.0,0.0,0.0,0.0,0.0,0
-22.959738,-67.786898,19.80,0.00,0.50,0.71,19.80,19.80,3.51,0.93,10481,2025-11-27 20:33:27.622,2025-11-27 21:33:27.622,16,0,0,44.257,-22.959736,-67.786904,0.40,0.30,0.00,0.10,-4.60,36.90,0,1,0,97,91,-49696,14559,44257,2901.50,39,WP,1,0,0,0,0,0,0,1764275607621,3593,3618,3618,3621,3606,3594,18,,,,,,,0,0,0,-1.00,-46.00,369.00,0.00,6.00,-193.00,14,198.00,5.00,7.14,4.00,3.00,0.00,0,,,100,96,20,2,0,0,1,1,0,,,,,0.0,0.0,0.0,0.0,0.0,0.0,0
-22.959737,-67.786897,19.80,0.00,0.50,0.75,19.80,19.80,3.51,0.93,10585,2025-11-27 20:33:27.725,2025-11-27 21:33:27.725,16,0,0,44.257,-22.959736,-67.786904,0.40,0.30,0.00,3.20,-3.00,45.90,0,1,0,97,91,-49696,14559,44257,2901.50,39,WP,1,0,0,0,0,0,0,1764275607725,3593,3618,3618,3621,3606,3594,18,,,,,,,0,0,0,-32.00,-30.00,459.00,0.00,-2.00,-198.00,14,198.00,5.00,7.48,4.00,3.00,0.00,0,,,100,96,20,2,0,0,1,1,0,,,,,0.0,0.0,0.0,0.0,0.0,0.0,0
-22.959737,-67.786897,19.80,0.00,0.57,0.78,19.80,19.80,3.51,0.93,10684,2025-11-27 20:33:27.825,2025-11-27 21:33:27.825,16,0,0,44.257,-22.959736,-67.786904,0.40,0.40,-0.10,5.60,-1.20,54.90,0,1,0,97,91,-49696,14559,44257,2901.50,39,WP,1,0,0,0,0,0,0,1764275607824,3593,3618,3618,3621,3606,3594,18,,,,,,,0,0,0,-56.00,-12.00,549.00,0.00,-7.00,-192.00,14,198.00,5.74,7.84,4.00,4.00,-1.00,0,,,100,94,20,2,0,0,1,1,0,,,,,0.0,0.0,0.0,0.0,0.0,0.0,0
-22.959736,-67.786896,19.80,0.00,0.57,0.83,19.80,19.80,3.51,0.93,10691,2025-11-27 20:33:27.832,2025-11-27 21:33:27.832,16,0,0,44.257,-22.959736,-67.786904,0.40,0.40,-0.10,6.80,0.70,64.00,0,1,0,97,91,-49696,14559,44257,2901.50,39,WP,1,0,0,0,0,0,0,1764275607831,3593,3618,3618,3621,3606,3594,18,,,,,,,0,0,0,-68.00,7.00,640.00,0.00,-10.00,-190.00,14,198.00,5.74,8.33,4.00,4.00,-1.00,0,,,100,94,20,2,0,0,1,1,0,,,,,0.0,0.0,0.0,0.0,0.0,0.0,0
-22.959736,-67.786896,19.90,0.00,0.51,0.88,19.90,19.90,3.51,0.93,10887,2025-11-27 20:33:28.027,2025-11-27 21:33:28.027,16,0,0,44.257,-22.959736,-67.786904,0.30,0.40,-0.10,7.40,2.10,73.20,0,1,0,97,91,-49696,14559,44257,2901.50,39,WP,1,0,0,0,0,0,0,1764275608027,3593,3618,3618,3621,3606,3594,18,,,,,,,0,0,0,-74.00,21.00,732.00,0.00,-13.00,-193.00,14,199.00,5.10,8.78,3.00,4.00,-1.00,0,,,100,94,20,2,0,0,1,1,0,,,,,0.0,0.0,0.0,0.0,0.0,0.0,0
-22.959735,-67.786895,19.90,0.00,0.51,0.93,19.90,19.90,3.51,0.93,10905,2025-11-27 20:33:28.046,2025-11-27 21:33:28.046,16,0,0,44.257,-22.959736,-67.786904,0.30,0.40,-0.10,6.90,2.80,82.30,0,1,0,97,91,-49696,14559,44257,2901.50,39,WP,1,0,0,0,0,0,0,1764275608045,3593,3618,3618,3621,3606,3594,18,,,,,,,0,0,0,-69.00,28.00,823.00,0.00,-13.00,-193.00,14,199.00,5.10,9.33,3.00,4.00,-1.00,0,,,100,94,20,2,0,0,1,1,0,,,,,0.0,0.0,0.0,0.0,0.0,0.0,0
-22.959735,-67.786895,19.90,0.00,0.51,0.98,19.90,19.90,3.51,0.98,10986,2025-11-27 20:33:28.126,2025-11-27 21:33:28.126,16,0,0,44.257,-22.959736,-67.786904,0.30,0.40,-0.10,6.20,2.70,89.80,0,1,0,97,91,-49696,14559,44257,2901.50,39,WP,1,0,0,0,0,0,0,1764275608126,3593,3618,3618,3621,3606,3594,18,,,,,,,0,0,0,-62.00,27.00,898.00,0.00,-12.00,-189.00,14,199.00,5.10,9.78,3.00,4.00,-1.00,0,,,100,94,20,2,0,0,1,1,0,,,,,0.0,0.0,0.0,0.0,0.0,0.0,0
-22.959735,-67.786894,19.90,0.00,0.50,1.03,19.90,19.90,3.51,1.03,11187,2025-11-27 20:33:28.328,2025-11-27 21:33:28.328,16,0,0,44.257,-22.959736,-67.786904,0.30,0.40,0.00,5.60,2.20,95.10,0,1,0,97,91,-49696,14559,44257,2901.50,39,WP,1,0,0,0,0,0,0,1764275608327,3593,3618,3618,3621,3606,3594,18,,,,,,,0,0,0,-56.00,22.00,951.00,0.00,-9.00,-167.00,14,199.00,5.00,10.26,3.00,4.00,0.00,0,,,100,96,20,2,0,0,1,1,0,,,,,0.0,0.0,0.0,0.0,0.0,0.0,0
-22.959734,-67.786894,19.90,0.00,0.50,1.06,19.90,19.90,3.51,1.06,11288,2025-11-27 20:33:28.428,2025-11-27 21:33:28.428,16,0,0,44.257,-22.959736,-67.786904,0.30,0.40,0.00,5.90,1.80,98.70,0,1,0,97,91,-49696,14559,44257,2901.50,39,WP,1,0,0,0,0,0,0,1764275608428,3593,3618,3618,3621,3606,3594,18,,,,,,,0,0,0,-59.00,18.00,987.00,0.00,-8.00,-123.00,14,199.00,5.00,10.59,3.00,4.00,0.00,0,,,100,96,20,2,0,0,1,1,0,,,,,0.0,0.0,0.0,0.0,0.0,0.0,0
-22.959734,-67.786894,19.90,0.00,0.42,1.10,19.90,19.90,3.51,1.10,11391,2025-11-27 20:33:28.532,2025-11-27 21:33:28.532,16,0,0,44.257,-22.959736,-67.786904,0.30,0.30,0.00,6.40,1.90,100.80,0,1,0,97,91,-49696,14559,44257,2901.50,39,WP,1,0,0,0,0,0,0,1764275608531,3593,3618,3618,3621,3606,3594,18,,,,,,,0,0,0,-64.00,19.00,1008.00,0.00,-7.00,-79.00,14,199.00,4.24,11.03,3.00,3.00,0.00,0,,,100,96,20,2,0,0,1,1,0,,,,,0.0,0.0,0.0,0.0,0.0,0.0,0
-22.959733,-67.786894,19.90,0.00,0.57,1.13,19.90,19.90,3.51,1.13,11489,2025-11-27 20:33:28.630,2025-11-27 21:33:28.630,16,0,0,44.646,-22.959736,-67.786904,0.40,0.40,0.00,5.50,1.20,101.70,0,1,0,97,91,-52732,14528,44646,2901.50,39,WP,1,0,0,0,0,0,0,1764275608629,3593,3618,3618,3621,3606,3594,18,,,,,,,0,0,0,-55.00,12.00,1017.00,0.00,-5.00,-22.00,14,199.00,5.66,11.32,4.00,4.00,0.00,0,,,100,96,20,2,0,0,1,1,0,,,,,0.0,0.0,0.0,0.0,0.0,0.0,0
-22.959733,-67.786893,19.90,0.00,0.65,1.18,19.90,19.90,3.51,1.18,11598,2025-11-27 20:33:28.739,2025-11-27 21:33:28.739,16,0,0,44.646,-22.959736,-67.786904,0.50,0.40,0.10,3.10,0.70,102.00,0,1,0,97,91,-52732,14528,44646,2901.50,39,WP,1,0,0,0,0,0,0,1764275608738,3593,3618,3618,3621,3606,3594,18,,,,,,,0,0,0,-31.00,7.00,1020.00,0.00,-1.00,32.00,14,199.00,6.48,11.80,5.00,4.00,1.00,0,,,100,96,20,2,0,0,1,1,0,,,,,0.0,0.0,0.0,0.0,0.0,0.0,0
-22.959732,-67.786893,19.80,0.00,0.71,1.23,19.90,19.90,3.51,1.23,11701,2025-11-27 20:33:28.842,2025-11-27 21:33:28.842,16,0,0,44.646,-22.959736,-67.786904,0.50,0.50,0.00,0.30,0.90,102.30,0,1,0,97,91,-52732,14528,44646,2901.50,39,WP,1,0,0,0,0,0,0,1764275608841,3593,3618,3618,3621,3606,3594,18,,,,,,,0,0,0,-3.00,9.00,1023.00,0.00,0.00,77.00,14,198.00,7.07,12.26,5.00,5.00,0.00,0,,,100,98,20,2,0,0,1,1,0,,,,,0.0,0.0,0.0,0.0,0.0,0.0,0
-22.959732,-67.786893,19.80,0.00,0.78,1.30,19.90,19.90,3.51,1.30,11794,2025-11-27 20:33:28.934,2025-11-27 21:33:28.934,16,0,0,44.646,-22.959736,-67.786904,0.50,0.60,0.00,-2.10,2.30,102.50,0,1,0,97,91,-52732,14528,44646,2901.50,39,WP,1,0,0,0,0,0,0,1764275608934,3593,3618,3618,3621,3606,3594,18,,,,,,,0,0,0,21.00,23.00,1025.00,0.00,0.00,77.00,14,198.00,7.81,12.96,5.00,6.00,0.00,0,,,100,98,20,2,0,0,1,1,0,,,,,0.0,0.0,0.0,0.0,0.0,0.0,0
-22.959731,-67.786892,19.80,0.00,0.94,1.39,19.90,19.90,3.51,1.39,11900,2025-11-27 20:33:29.040,2025-11-27 21:33:29.040,16,0,0,44.646,-22.959736,-67.786904,0.50,0.80,0.00,-4.20,3.70,102.60,0,1,0,97,91,-52732,14528,44646,2901.50,39,WP,1,0,0,0,0,0,0,1764275609040,3593,3618,3618,3621,3606,3594,18,,,,,,,0,0,0,42.00,37.00,1026.00,0.00,0.00,77.00,14,198.00,9.43,13.87,5.00,8.00,0.00,0,,,100,98,20,2,0,0,1,1,0,,,,,0.0,0.0,0.0,0.0,0.0,0.0,0
-22.959730,-67.786891,19.80,0.00,0.98,1.49,19.90,19.90,3.51,1.49,11907,2025-11-27 20:33:29.047,2025-11-27 21:33:29.047,16,0,0,44.646,-22.959736,-67.786904,0.40,0.90,0.00,-5.50,5.60,102.50,0,1,0,97,91,-52732,14528,44646,2901.50,39,WP,1,0,0,0,0,0,0,1764275609047,3593,3618,3618,3621,3606,3594,18,,,,,,,0,0,0,55.00,56.00,1025.00,0.00,0.00,90.00,14,198.00,9.85,14.95,4.00,9.00,0.00,0,,,100,98,20,2,0,0,1,1,0,,,,,0.0,0.0,0.0,0.0,0.0,0.0,0
-22.959730,-67.786890,19.80,0.00,1.14,1.63,19.90,19.90,3.51,1.63,12002,2025-11-27 20:33:29.142,2025-11-27 21:33:29.143,16,0,0,44.646,-22.959736,-67.786904,0.30,1.10,0.00,-6.40,7.00,102.30,0,1,0,97,91,-52732,14528,44646,2901.50,39,WP,1,0,0,0,0,0,0,1764275609142,3593,3618,3618,3621,3606,3594,18,,,,,,,0,0,0,64.00,70.00,1023.00,0.00,0.00,91.00,14,198.00,11.40,16.28,3.00,11.00,0.00,0,,,100,98,20,2,0,0,1,1,0,,,,,0.0,0.0,0.0,0.0,0.0,0.0,0
-22.959730,-67.786888,19.80,0.00,1.32,1.78,19.90,19.90,3.51,1.78,12095,2025-11-27 20:33:29.236,2025-11-27 21:33:29.236,16,0,0,44.646,-22.959736,-67.786904,0.20,1.30,0.00,-6.60,8.00,102.10,0,1,0,97,91,-52732,14528,44646,2901.50,39,WP,1,0,0,0,0,0,0,1764275609235,3593,3618,3618,3621,3606,3594,18,,,,,,,0,0,0,66.00,80.00,1021.00,0.00,0.00,90.00,14,198.00,13.15,17.76,2.00,13.00,0.00,0,,,100,98,20,2,0,0,1,1,0,,,,,0.0,0.0,0.0,0.0,0.0,0.0,0
-22.959729,-67.786887,19.80,0.00,1.51,1.94,19.90,19.90,3.51,1.94,12298,2025-11-27 20:33:29.439,2025-11-27 21:33:29.439,16,0,0,44.646,-22.959736,-67.786904,0.20,1.50,0.00,-6.20,8.70,102.00,0,1,0,97,91,-52732,14528,44646,2901.50,39,WP,1,0,0,0,0,0,0,1764275609438,3593,3618,3618,3621,3606,3594,18,,,,,,,0,0,0,62.00,87.00,1020.00,0.00,0.00,90.00,14,198.00,15.13,19.38,2.00,15.00,0.00,0,,,100,99,20,2,0,0,1,1,0,,,,,0.0,0.0,0.0,0.0,0.0,0.0,0
-22.959729,-67.786885,19.80,0.00,1.70,2.11,19.90,19.90,3.51,2.11,12400,2025-11-27 20:33:29.541,2025-11-27 21:33:29.541,16,0,0,44.646,-22.959736,-67.786904,0.00,1.70,0.00,-5.90,9.30,101.90,0,1,0,97,91,-52732,14528,44646,2901.50,39,WP,1,0,0,0,0,0,0,1764275609540,3593,3618,3618,3621,3606,3594,18,,,,,,,0,0,0,59.00,93.00,1019.00,0.00,0.00,90.00,14,198.00,17.00,21.15,0.00,17.00,0.00,0,,,100,99,20,2,0,0,1,1,0,,,,,0.0,0.0,0.0,0.0,0.0,0.0,0
-22.959729,-67.786883,19.80,0.00,1.90,2.32,19.90,19.90,3.51,2.32,12498,2025-11-27 20:33:29.638,2025-11-27 21:33:29.639,16,0,0,44.646,-22.959736,-67.786904,0.00,1.90,0.00,-5.60,9.50,101.90,0,1,0,97,91,-52732,14528,44646,2901.50,39,WP,1,0,0,0,0,0,0,1764275609638,3593,3618,3618,3621,3606,3594,18,,,,,,,0,0,0,56.00,95.00,1019.00,0.00,0.00,90.00,14,198.00,19.00,23.21,0.00,19.00,0.00,0,,,100,99,20,2,0,0,1,1,0,,,,,0.0,0.0,0.0,0.0,0.0,0.0,0
-22.959730,-67.786881,19.80,0.00,2.01,2.53,19.90,19.90,3.51,2.53,12601,2025-11-27 20:33:29.742,2025-11-27 21:33:29.742,16,0,0,44.646,-22.959736,-67.786904,-0.20,2.00,0.00,-5.50,9.30,101.90,0,1,0,97,91,-52732,14528,44646,2901.50,39,WP,1,0,0,0,0,0,0,1764275609741,3593,3618,3618,3621,3606,3594,18,,,,,,,0,0,0,55.00,93.00,1019.00,0.00,0.00,89.00,14,198.00,20.10,25.30,-2.00,20.00,0.00,0,,,100,99,20,2,0,0,1,1,0,,,,,0.0,0.0,0.0,0.0,0.0,0.0,0
-22.959730,-67.786878,19.80,0.00,2.22,2.77,19.90,19.90,3.51,2.77,12608,2025-11-27 20:33:29.749,2025-11-27 21:33:29.749,16,0,0,44.646,-22.959736,-67.786904,-0.30,2.20,0.00,-5.60,8.80,102.00,0,1,0,97,91,-52732,14528,44646,2901.50,39,WP,1,0,0,0,0,0,0,1764275609748,3593,3618,3618,3621,3606,3594,18,,,,,,,0,0,0,56.00,88.00,1020.00,0.00,0.00,89.00,14,198.00,22.20,27.67,-3.00,22.00,0.00,0,,,100,99,20,2,0,0,1,1,0,,,,,0.0,0.0,0.0,0.0,0.0,0.0,0
-22.959731,-67.786876,19.90,0.00,2.45,3.01,19.90,19.90,3.51,3.01,12702,2025-11-27 20:33:29.843,2025-11-27 21:33:29.843,16,0,0,44.646,-22.959736,-67.786904,-0.50,2.40,-0.10,-5.90,7.90,102.00,0,1,0,97,91,-52732,14528,44646,2901.50,39,WP,1,0,0,0,0,0,0,1764275609842,3593,3618,3618,3621,3606,3594,18,,,,,,,0,0,0,59.00,79.00,1020.00,0.00,0.00,90.00,14,199.00,24.54,30.10,-5.00,24.00,-1.00,0,,,100,99,20,2,0,0,1,1,0,,,,,0.0,0.0,0.0,0.0,0.0,0.0,0
-22.959731,-67.786873,19.90,0.00,2.57,3.29,19.90,19.90,3.51,3.29,12806,2025-11-27 20:33:29.946,2025-11-27 21:33:29.946,16,0,0,44.646,-22.959736,-67.786904,-0.60,2.50,-0.10,-6.10,7.00,102.00,0,1,0,97,91,-52732,14528,44646,2901.50,39,WP,1,0,0,0,0,0,0,1764275609946,3593,3618,3618,3621,3606,3594,18,,,,,,,0,0,0,61.00,70.00,1020.00,0.00,0.00,89.00,14,199.00,25.73,32.90,-6.00,25.00,-1.00,0,,,100,99,20,2,0,0,1,1,0,,,,,0.0,0.0,0.0,0.0,0.0,0.0,0
-22.959732,-67.786870,19.90,0.00,2.79,3.57,19.90,19.90,3.51,3.57,12904,2025-11-27 20:33:30.045,2025-11-27 21:33:30.045,16,0,0,44.646,-22.959736,-67.786904,-0.70,2.70,-0.10,-6.20,6.10,102.10,0,1,0,97,91,-52732,14528,44646,2901.50,39,WP,1,0,0,0,0,0,0,1764275610044,3593,3618,3618,3621,3606,3594,18,,,,,,,0,0,0,62.00,61.00,1021.00,0.00,0.00,89.00,14,199.00,27.91,35.75,-7.00,27.00,-1.00,0,,,100,99,20,2,0,0,1,1,0,,,,,0.0,0.0,0.0,0.0,0.0,0.0,0
-22.959733,-67.786867,19.90,0.00,2.91,3.88,19.90,19.90,3.51,3.88,13002,2025-11-27 20:33:30.142,2025-11-27 21:33:30.142,16,0,0,44.646,-22.959736,-67.786904,-0.80,2.80,-0.10,-6.50,5.80,102.20,0,1,0,97,91,-52732,14528,44646,2901.50,39,WP,1,0,0,0,0,0,0,1764275610142,3593,3618,3618,3621,3606,3594,18,,,,,,,0,0,0,65.00,58.00,1022.00,0.00,0.00,89.00,14,199.00,29.14,38.79,-8.00,28.00,-1.00,0,,,100,99,20,2,0,0,1,1,0,,,,,0.0,0.0,0.0,0.0,0.0,0.0,0
-22.959734,-67.786863,19.90,0.00,3.13,4.19,19.90,19.90,3.51,4.19,13105,2025-11-27 20:33:30.246,2025-11-27 21:33:30.246,16,0,0,44.646,-22.959736,-67.786904,-0.90,3.00,-0.10,-7.00,5.20,102.30,0,1,0,97,91,-52732,14528,44646,2901.50,39,WP,1,0,0,0,0,0,0,1764275610245,3593,3618,3618,3621,3606,3594,18,,,,,,,0,0,0,70.00,52.00,1023.00,0.00,0.00,89.00,14,199.00,31.34,41.95,-9.00,30.00,-1.00,0,,,100,99,20,2,0,0,1,1,0,,,,,0.0,0.0,0.0,0.0,0.0,0.0,0
-22.959735,-67.786860,19.90,0.00,3.35,4.53,19.90,19.90,3.51,4.53,13206,2025-11-27 20:33:30.346,2025-11-27 21:33:30.346,16,0,0,44.646,-22.959736,-67.786904,-1.00,3.20,-0.10,-7.10,4.90,102.50,0,1,0,97,91,-52732,14528,44646,2901.50,39,WP,1,0,0,0,0,0,0,1764275610346,3593,3618,3618,3621,3606,3594,18,,,,,,,0,0,0,71.00,49.00,1025.00,0.00,0.00,89.00,14,199.00,33.54,45.26,-10.00,32.00,-1.00,0,,,100,96,20,2,0,0,1,1,0,,,,,0.0,0.0,0.0,0.0,0.0,0.0,0
-22.959736,-67.786857,20.00,0.00,3.54,4.87,20.00,20.00,3.54,4.87,13308,2025-11-27 20:33:30.449,2025-11-27 21:33:30.449,16,0,0,44.646,-22.959736,-67.786904,-1.00,3.40,0.00,-6.90,4.40,102.50,0,1,0,97,91,-52732,14528,44646,2901.50,39,WP,1,0,0,0,0,0,0,1764275610448,3593,3618,3618,3621,3606,3594,18,,,,,,,0,0,0,69.00,44.00,1025.00,0.00,0.00,89.00,14,200.00,35.44,48.73,-10.00,34.00,0.00,0,,,100,96,20,2,0,0,1,1,0,,,,,0.0,0.0,0.0,0.0,0.0,0.0,0
-22.959738,-67.786853,19.90,0.00,3.67,5.28,20.00,20.00,3.67,5.28,13408,2025-11-27 20:33:30.548,2025-11-27 21:33:30.549,16,0,0,44.646,-22.959736,-67.786904,-1.10,3.50,0.00,-7.10,3.80,102.60,0,1,0,97,91,-52732,14528,44646,2901.50,39,WP,1,0,0,0,0,0,0,1764275610548,3593,3618,3618,3621,3606,3594,18,,,,,,,0,0,0,71.00,38.00,1026.00,0.00,0.00,89.00,14,199.00,36.69,52.76,-11.00,35.00,0.00,0,,,100,96,20,2,0,0,1,1,0,,,,,0.0,0.0,0.0,0.0,0.0,0.0,0
-22.959739,-67.786849,19.90,0.00,3.86,5.69,20.00,20.00,3.86,5.69,13505,2025-11-27 20:33:30.645,2025-11-27 21:33:30.645,16,0,0,43.963,-22.959736,-67.786904,-1.10,3.70,0.00,-7.50,3.40,102.50,0,1,0,97,91,-61063,14509,43963,2901.50,39,WP,1,0,0,0,0,0,0,1764275610645,3593,3618,3618,3621,3606,3594,18,,,,,,,0,0,0,75.00,34.00,1025.00,0.00,0.00,89.00,14,199.00,38.60,56.90,-11.00,37.00,0.00,0,,,100,96,20,2,0,0,1,1,0,,,,,0.0,0.0,0.0,0.0,0.0,0.0,0
-22.959740,-67.786844,19.90,0.00,4.08,6.15,20.00,20.00,4.08,6.15,13616,2025-11-27 20:33:30.756,2025-11-27 21:33:30.757,16,0,0,43.963,-22.959736,-67.786904,-1.20,3.90,0.00,-8.10,3.20,102.50,0,1,0,97,91,-61063,14509,43963,2901.50,39,WP,1,0,0,0,0,0,0,1764275610756,3593,3618,3618,3621,3606,3594,18,,,,,,,0,0,0,81.00,32.00,1025.00,0.00,0.00,90.00,14,199.00,40.80,61.50,-12.00,39.00,0.00,0,,,100,96,20,2,0,0,1,1,0,,,,,0.0,0.0,0.0,0.0,0.0,0.0,0
-22.959742,-67.786840,19.90,0.00,4.30,6.61,20.00,20.00,4.30,6.61,13713,2025-11-27 20:33:30.854,2025-11-27 21:33:30.854,16,0,0,43.963,-22.959736,-67.786904,-1.30,4.10,0.10,-8.70,3.20,102.50,0,1,0,97,91,-61063,14509,43963,2901.50,39,WP,1,0,0,0,0,0,0,1764275610853,3593,3618,3618,3621,3606,3594,18,,,,,,,0,0,0,87.00,32.00,1025.00,0.00,0.00,90.00,14,199.00,43.02,66.12,-13.00,41.00,1.00,0,,,100,97,20,2,0,0,1,1,0,,,,,0.0,0.0,0.0,0.0,0.0,0.0,0
-22.959743,-67.786835,19.90,0.00,4.59,7.13,20.00,20.00,4.59,7.13,13816,2025-11-27 20:33:30.957,2025-11-27 21:33:30.957,16,0,0,43.963,-22.959736,-67.786904,-1.30,4.40,0.10,-9.00,3.20,102.40,0,1,0,97,91,-61063,14509,43963,2901.50,39,WP,1,0,0,0,0,0,0,1764275610956,3593,3618,3618,3621,3606,3594,18,,,,,,,0,0,0,90.00,32.00,1024.00,0.00,0.00,90.00,14,199.00,45.89,71.32,-13.00,44.00,1.00,0,,,100,97,20,2,0,0,1,1,0,,,,,0.0,0.0,0.0,0.0,0.0,0.0,0
-22.959744,-67.786830,19.80,0.00,4.81,7.65,20.00,20.00,4.81,7.65,13919,2025-11-27 20:33:31.060,2025-11-27 21:33:31.060,16,0,0,43.963,-22.959736,-67.786904,-1.40,4.60,0.10,-9.00,3.10,102.40,0,1,0,97,91,-61063,14509,43963,2901.50,39,WP,1,0,0,0,0,0,0,1764275611059,3593,3618,3618,3621,3606,3594,18,,,,,,,0,0,0,90.00,31.00,1024.00,0.00,0.00,90.00,14,198.00,48.09,76.49,-14.00,46.00,1.00,0,,,100,97,20,2,0,0,1,1,0,,,,,0.0,0.0,0.0,0.0,0.0,0.0,0
