latitude,longitude,altitude(m),ultrasonicHeight(m),speed(mps),distance(m),max_altitude(m),max_ascent(m),max_speed(mps),max_distance(m),time(millisecond),datetime(utc),datetime(local),satellites,pressure(Pa),temperature(F),voltage(v),home_latitude,home_longitude,velocityX(mps),velocityY(mps),velocityZ(mps),pitch(deg),roll(deg),yaw(deg),powerlevel,isflying,istakingphoto,remainPowerPercent,remainLifePercent,currentCurrent,currentElectricity,currentVoltage,batteryTemperature,dischargeCount,flightmode,isMotorsOn,isTakingVideo,Rc_elevator,Rc_aileron,Rc_throttle,Rc_rudder,Rc_gyro,timestamp,Battery_Cell1,Battery_Cell2,Battery_Cell3,Battery_Cell4,Battery_Cell5,Battery_Cell6,Dronetype,AppVersion,Planename,FlyControllerSerialNumber,RemoteSerialNumber,BatterySerialNumber,CENTER_BATTERY.productDate,CENTER_BATTERY.serialNo,CENTER_BATTERY.fullCapacity,CENTER_BATTERY.productDateRaw,pitchRaw,rollRaw,yawRaw,gimbalPitchRaw,gimbalRollRaw,gimbalYawRaw,flyState,altitudeRaw,speedRaw,distanceRaw,velocityXRaw,velocityYRaw,velocityZRaw,data_reuse,App_Tip,App_Warning,downlinkSignalQuality,uplinkSignalQuality,transmissionChannel,rcModeSwitch,rcHome,rcPause,rcTransform,rcJoystickMode,appMode,FlyControllerSerialNumber_legacy,RemoteSerialNumber_legacy,BatterySerialNumber_legacy,Battery2SerialNumber,frontAvoidDist,backAvoidDist,rightAvoidDist,leftAvoidDist,upAvoidDist,downAvoidDist,isBrakingToAvoid
-22.959730,-67.786895,0.60,0.00,0.73,0.31,0.60,0.60,0.73,0.31,4,2025-11-28 18:37:20.827,2025-11-28 15:37:20.828,16,0,0,52.010,-22.959730,-67.786898,0.00,0.20,-0.70,1.90,0.80,126.50,0,1,0,98,97,-1119,16027,52010,2961.50,15,TakeOff,1,0,0,0,0,0,0,1764355040827,4325,4330,4330,4333,4340,4329,18,Litchi_iOS_2.15.7,EIK Matrice 1,0670131556,03LLCA05XT,,,0,16245,0,-19.00,8.00,1265.00,0.00,0.00,87.00,11,6.00,7.28,3.06,0.00,2.00,-7.00,0,,,100,100,13,2,0,0,1,1,0,(null),(null),(null),(null),0.0,0.0,0.0,0.0,0.0,0.0,0
-22.959730,-67.786895,0.70,0.00,0.71,0.32,0.70,0.70,0.73,0.32,91,2025-11-28 18:37:20.914,2025-11-28 15:37:20.915,16,0,0,52.010,-22.959730,-67.786898,0.00,0.10,-0.70,1.60,0.20,126.60,0,1,0,98,97,-1119,16027,52010,2961.50,15,TakeOff,1,0,0,0,0,0,0,1764355040914,4325,4330,4330,4333,4340,4329,18,,,,,,,0,0,0,-16.00,2.00,1266.00,0.00,0.00,87.00,11,7.00,7.07,3.24,0.00,1.00,-7.00,0,,,100,100,13,2,0,0,1,1,0,,,,,0.0,0.0,0.0,0.0,0.0,0.0,0
-22.959730,-67.786895,0.70,0.00,0.61,0.33,0.70,0.70,0.73,0.33,197,2025-11-28 18:37:21.021,2025-11-28 15:37:21.021,16,0,0,52.010,-22.959730,-67.786898,0.00,0.10,-0.60,1.50,0.10,126.60,0,1,0,98,97,-1119,16027,52010,2961.50,15,TakeOff,1,0,0,0,0,0,0,1764355041020,4325,4330,4330,4333,4340,4329,18,,,,,,,0,0,0,-15.00,1.00,1266.00,0.00,0.00,87.00,11,7.00,6.08,3.33,0.00,1.00,-6.00,0,,,100,100,13,2,0,0,1,1,0,,,,,0.0,0.0,0.0,0.0,0.0,0.0,0
-22.959730,-67.786895,0.80,0.00,0.51,0.35,0.80,0.80,0.73,0.35,301,2025-11-28 18:37:21.124,2025-11-28 15:37:21.124,16,0,0,52.010,-22.959730,-67.786898,0.00,0.10,-0.50,1.30,0.10,126.60,0,1,0,98,97,-1119,16027,52010,2961.50,15,TakeOff,1,0,0,0,0,0,0,1764355041124,4325,4330,4330,4333,4340,4329,18,,,,,,,0,0,0,-13.00,1.00,1266.00,0.00,0.00,87.00,11,8.00,5.10,3.46,0.00,1.00,-5.00,0,,,100,100,13,2,0,0,1,1,0,,,,,0.0,0.0,0.0,0.0,0.0,0.0,0
-22.959730,-67.786895,0.80,0.00,0.41,0.35,0.80,0.80,0.73,0.35,399,2025-11-28 18:37:21.222,2025-11-28 15:37:21.222,16,0,0,52.010,-22.959730,-67.786898,0.00,0.10,-0.40,1.00,0.40,126.60,0,1,0,98,97,-1119,16027,52010,2961.50,15,TakeOff,1,0,0,0,0,0,0,1764355041222,4325,4330,4330,4333,4340,4329,18,,,,,,,0,0,0,-10.00,4.00,1266.00,0.00,0.00,87.00,11,8.00,4.12,3.46,0.00,1.00,-4.00,0,,,100,100,13,2,0,0,1,1,0,,,,,0.0,0.0,0.0,0.0,0.0,0.0,0
-22.959730,-67.786895,0.80,0.00,0.41,0.35,0.80,0.80,0.73,0.35,497,2025-11-28 18:37:21.321,2025-11-28 15:37:21.321,16,0,0,52.010,-22.959730,-67.786898,0.00,0.10,-0.40,0.80,0.80,126.60,0,1,0,98,97,-1119,16027,52010,2961.50,15,TakeOff,1,0,0,0,0,0,0,1764355041320,4325,4330,4330,4333,4340,4329,18,,,,,,,0,0,0,-8.00,8.00,1266.00,0.00,0.00,88.00,11,8.00,4.12,3.52,0.00,1.00,-4.00,0,,,100,100,13,2,0,0,1,1,0,,,,,0.0,0.0,0.0,0.0,0.0,0.0,0
-22.959730,-67.786895,0.90,0.00,0.32,0.35,0.90,0.90,0.73,0.35,601,2025-11-28 18:37:21.424,2025-11-28 15:37:21.424,16,0,0,52.010,-22.959730,-67.786898,0.00,0.10,-0.30,0.50,1.00,126.50,0,1,0,98,97,-1119,16027,52010,2961.50,15,TakeOff,1,0,0,0,0,0,0,1764355041424,4325,4330,4330,4333,4340,4329,18,,,,,,,0,0,0,-5.00,10.00,1265.00,0.00,0.00,88.00,11,9.00,3.16,3.50,0.00,1.00,-3.00,0,,,100,100,13,2,0,0,1,1,0,,,,,0.0,0.0,0.0,0.0,0.0,0.0,0
-22.959730,-67.786895,0.90,0.00,0.32,0.35,0.90,0.90,0.73,0.35,798,2025-11-28 18:37:21.622,2025-11-28 15:37:21.622,16,0,0,52.010,-22.959730,-67.786898,0.00,0.10,-0.30,0.50,1.50,126.30,0,1,0,98,97,-1119,16027,52010,2961.50,15,TakeOff,1,0,0,0,0,0,0,1764355041621,4325,4330,4330,4333,4340,4329,18,,,,,,,0,0,0,-5.00,15.00,1263.00,0.00,0.00,90.00,11,9.00,3.16,3.54,0.00,1.00,-3.00,0,,,100,100,13,2,0,0,1,1,0,,,,,0.0,0.0,0.0,0.0,0.0,0.0,0
-22.959730,-67.786895,1.00,0.00,0.32,0.36,1.00,1.00,0.73,0.36,900,2025-11-28 18:37:21.724,2025-11-28 15:37:21.724,16,0,0,52.010,-22.959730,-67.786898,0.00,0.10,-0.30,0.30,1.60,126.40,0,1,0,98,97,-1119,16027,52010,2961.50,15,TakeOff,1,0,0,0,0,0,0,1764355041723,4325,4330,4330,4333,4340,4329,18,,,,,,,0,0,0,-3.00,16.00,1264.00,0.00,0.00,89.00,11,10.00,3.16,3.59,0.00,1.00,-3.00,0,,,100,100,13,2,0,0,1,1,0,,,,,0.0,0.0,0.0,0.0,0.0,0.0,0
-22.959730,-67.786895,1.00,0.00,0.32,0.36,1.00,1.00,0.73,0.36,1000,2025-11-28 18:37:21.823,2025-11-28 15:37:21.823,16,0,0,52.010,-22.959730,-67.786898,0.00,0.10,-0.30,0.50,1.40,126.40,0,1,0,98,97,-1119,16027,52010,2961.50,15,TakeOff,1,0,0,0,0,0,0,1764355041823,4325,4330,4330,4333,4340,4329,18,,,,,,,0,0,0,-5.00,14.00,1264.00,0.00,0.00,89.00,11,10.00,3.16,3.61,0.00,1.00,-3.00,0,,,100,100,13,2,0,0,1,1,0,,,,,0.0,0.0,0.0,0.0,0.0,0.0,0
-22.959730,-67.786895,1.00,0.00,0.32,0.37,1.00,1.00,0.73,0.37,1102,2025-11-28 18:37:21.926,2025-11-28 15:37:21.926,16,0,0,52.010,-22.959730,-67.786898,0.00,0.10,-0.30,0.70,1.10,126.50,0,1,0,98,97,-1119,16027,52010,2961.50,15,WP,1,0,0,0,0,0,0,1764355041925,4325,4330,4330,4333,4340,4329,18,,,,,,,0,0,0,-7.00,11.00,1265.00,0.00,0.00,88.00,14,10.00,3.16,3.66,0.00,1.00,-3.00,0,,,100,100,13,2,0,0,1,1,0,,,,,0.0,0.0,0.0,0.0,0.0,0.0,0
-22.959730,-67.786894,1.10,0.00,0.32,0.38,1.10,1.10,0.73,0.38,1197,2025-11-28 18:37:22.021,2025-11-28 15:37:22.021,16,0,0,52.010,-22.959730,-67.786898,0.00,0.10,-0.30,0.80,0.70,126.40,0,1,0,98,97,-1119,16027,52010,2961.50,15,WP,1,0,0,0,0,0,0,1764355042020,4325,4330,4330,4333,4340,4329,18,,,,,,,0,0,0,-8.00,7.00,1264.00,0.00,0.00,89.00,14,11.00,3.16,3.76,0.00,1.00,-3.00,0,,,100,100,13,2,0,0,1,1,0,,,,,0.0,0.0,0.0,0.0,0.0,0.0,0
-22.959730,-67.786894,1.10,0.00,0.32,0.39,1.10,1.10,0.73,0.39,1304,2025-11-28 18:37:22.128,2025-11-28 15:37:22.128,16,0,0,52.010,-22.959730,-67.786898,0.00,0.10,-0.30,0.70,0.00,126.30,0,1,0,98,97,-1119,16027,52010,2961.50,15,WP,1,0,0,0,0,0,0,1764355042127,4325,4330,4330,4333,4340,4329,18,,,,,,,0,0,0,-7.00,0.00,1263.00,0.00,0.00,89.00,14,11.00,3.16,3.87,0.00,1.00,-3.00,0,,,100,100,13,2,0,0,1,1,0,,,,,0.0,0.0,0.0,0.0,0.0,0.0,0
-22.959730,-67.786894,1.20,0.00,0.32,0.40,1.20,1.20,0.73,0.40,1404,2025-11-28 18:37:22.227,2025-11-28 15:37:22.227,16,0,0,52.010,-22.959730,-67.786898,0.00,0.10,-0.30,0.70,0.00,126.20,0,1,0,98,97,-1119,16027,52010,2961.50,15,WP,1,0,0,0,0,0,0,1764355042227,4325,4330,4330,4333,4340,4329,18,,,,,,,0,0,0,-7.00,0.00,1262.00,0.00,0.00,90.00,14,12.00,3.16,3.97,0.00,1.00,-3.00,0,,,100,100,13,2,0,0,1,1,0,,,,,0.0,0.0,0.0,0.0,0.0,0.0,0
-22.959730,-67.786894,1.20,0.00,0.32,0.40,1.20,1.20,0.73,0.40,1508,2025-11-28 18:37:22.331,2025-11-28 15:37:22.331,16,0,0,52.010,-22.959730,-67.786898,0.00,0.10,-0.30,0.60,0.00,126.20,0,1,0,98,97,-1119,16027,52010,2961.50,15,WP,1,0,0,0,0,0,0,1764355042331,4325,4330,4330,4333,4340,4329,18,,,,,,,0,0,0,-6.00,0.00,1262.00,0.00,0.00,90.00,14,12.00,3.16,4.04,0.00,1.00,-3.00,0,,,100,100,13,2,0,0,1,1,0,,,,,0.0,0.0,0.0,0.0,0.0,0.0,0
-22.959730,-67.786894,1.30,0.00,0.40,0.41,1.30,1.30,0.73,0.41,1603,2025-11-28 18:37:22.427,2025-11-28 15:37:22.427,16,0,0,52.010,-22.959730,-67.786898,0.00,0.00,-0.40,0.70,0.50,126.20,0,1,0,98,97,-1119,16027,52010,2961.50,15,WP,1,0,0,0,0,0,0,1764355042426,4325,4330,4330,4333,4340,4329,18,,,,,,,0,0,0,-7.00,5.00,1262.00,0.00,0.00,89.00,14,13.00,4.00,4.13,0.00,0.00,-4.00,0,,,100,100,13,2,0,0,1,1,0,,,,,0.0,0.0,0.0,0.0,0.0,0.0,0
-22.959730,-67.786894,1.30,0.00,0.60,0.42,1.30,1.30,0.73,0.42,1812,2025-11-28 18:37:22.635,2025-11-28 15:37:22.635,16,0,0,52.010,-22.959730,-67.786898,0.00,0.00,-0.60,1.10,1.90,126.20,0,1,0,98,97,-1119,16027,52010,2961.50,15,WP,1,0,0,0,0,0,0,1764355042635,4325,4330,4330,4333,4340,4329,18,,,,,,,0,0,0,-11.00,19.00,1262.00,0.00,0.00,89.00,14,13.00,6.00,4.25,0.00,0.00,-6.00,0,,,100,100,13,2,0,0,1,1,0,,,,,0.0,0.0,0.0,0.0,0.0,0.0,0
-22.959730,-67.786894,1.40,0.00,0.81,0.43,1.40,1.40,0.81,0.43,1916,2025-11-28 18:37:22.739,2025-11-28 15:37:22.739,16,0,0,50.385,-22.959730,-67.786898,-0.10,0.00,-0.80,1.00,2.20,126.30,0,1,0,98,97,-35559,16027,50385,2961.50,15,WP,1,0,0,0,0,0,0,1764355042739,4325,4330,4330,4333,4340,4329,18,,,,,,,0,0,0,-10.00,22.00,1263.00,0.00,0.00,89.00,14,14.00,8.06,4.26,-1.00,0.00,-8.00,0,,,100,100,13,2,0,0,1,1,0,,,,,0.0,0.0,0.0,0.0,0.0,0.0,0
-22.959730,-67.786894,1.50,0.00,1.10,0.42,1.50,1.50,1.10,0.43,2008,2025-11-28 18:37:22.832,2025-11-28 15:37:22.832,16,0,0,50.385,-22.959730,-67.786898,-0.10,0.00,-1.10,0.60,1.80,126.40,0,1,0,98,97,-35559,16027,50385,2961.50,15,WP,1,0,0,0,0,0,0,1764355042831,4325,4330,4330,4333,4340,4329,18,,,,,,,0,0,0,-6.00,18.00,1264.00,0.00,0.00,88.00,14,15.00,11.05,4.17,-1.00,0.00,-11.00,0,,,100,100,13,2,0,0,1,1,0,,,,,0.0,0.0,0.0,0.0,0.0,0.0,0
-22.959730,-67.786894,1.60,0.00,1.40,0.41,1.60,1.60,1.40,0.43,2116,2025-11-28 18:37:22.940,2025-11-28 15:37:22.940,16,0,0,50.385,-22.959730,-67.786898,-0.10,0.00,-1.40,0.20,0.80,126.40,0,1,0,98,97,-35559,16027,50385,2961.50,15,WP,1,0,0,0,0,0,0,1764355042939,4325,4330,4330,4333,4340,4329,18,,,,,,,0,0,0,-2.00,8.00,1264.00,0.00,0.00,87.00,14,16.00,14.04,4.08,-1.00,0.00,-14.00,0,,,100,100,13,2,0,0,1,1,0,,,,,0.0,0.0,0.0,0.0,0.0,0.0,0
-22.959731,-67.786894,1.80,0.00,1.71,0.40,1.80,1.80,1.71,0.43,2215,2025-11-28 18:37:23.039,2025-11-28 15:37:23.039,16,0,0,50.385,-22.959730,-67.786898,-0.20,0.00,-1.70,0.00,-0.40,126.40,0,1,0,98,97,-35559,16027,50385,2961.50,15,WP,1,0,0,0,0,0,0,1764355043038,4325,4330,4330,4333,4340,4329,18,,,,,,,0,0,0,-0.00,-4.00,1264.00,0.00,0.00,87.00,14,18.00,17.12,3.97,-2.00,0.00,-17.00,0,,,100,100,13,2,0,0,1,1,0,,,,,0.0,0.0,0.0,0.0,0.0,0.0,0
-22.959731,-67.786894,2.00,0.00,2.01,0.39,2.00,2.00,2.01,0.43,2312,2025-11-28 18:37:23.136,2025-11-28 15:37:23.136,16,0,0,50.385,-22.959730,-67.786898,-0.20,0.00,-2.00,0.10,-1.40,126.40,0,1,0,98,97,-35559,16027,50385,2961.50,15,WP,1,0,0,0,0,0,0,1764355043135,4325,4330,4330,4333,4340,4329,18,,,,,,,0,0,0,-1.00,-14.00,1264.00,0.00,0.00,87.00,14,20.00,20.10,3.93,-2.00,0.00,-20.00,0,,,100,100,13,2,0,0,1,1,0,,,,,0.0,0.0,0.0,0.0,0.0,0.0,0
-22.959731,-67.786894,2.20,0.00,2.31,0.39,2.20,2.20,2.31,0.43,2433,2025-11-28 18:37:23.257,2025-11-28 15:37:23.257,16,0,0,50.385,-22.959730,-67.786898,-0.20,0.00,-2.30,0.50,-2.30,126.30,0,1,0,98,97,-35559,16027,50385,2961.50,15,WP,1,0,0,0,0,0,0,1764355043256,4325,4330,4330,4333,4340,4329,18,,,,,,,0,0,0,-5.00,-23.00,1263.00,0.00,0.00,87.00,14,22.00,23.09,3.88,-2.00,0.00,-23.00,0,,,100,100,13,2,0,0,1,1,0,,,,,0.0,0.0,0.0,0.0,0.0,0.0,0
-22.959731,-67.786894,2.50,0.00,2.60,0.39,2.50,2.50,2.60,0.43,2512,2025-11-28 18:37:23.336,2025-11-28 15:37:23.336,16,0,0,50.385,-22.959730,-67.786898,-0.10,0.00,-2.60,0.90,-2.70,126.20,0,1,0,98,97,-35559,16027,50385,2961.50,15,WP,1,0,0,0,0,0,0,1764355043335,4325,4330,4330,4333,4340,4329,18,,,,,,,0,0,0,-9.00,-27.00,1262.00,0.00,0.00,89.00,14,25.00,26.02,3.91,-1.00,0.00,-26.00,0,,,100,100,13,2,0,0,1,1,0,,,,,0.0,0.0,0.0,0.0,0.0,0.0,0
-22.959732,-67.786894,2.70,0.00,2.90,0.40,2.70,2.70,2.90,0.43,2617,2025-11-28 18:37:23.441,2025-11-28 15:37:23.441,16,0,0,50.385,-22.959730,-67.786898,-0.10,0.00,-2.90,1.20,-2.40,126.00,0,1,0,98,97,-35559,16027,50385,2961.50,15,WP,1,0,0,0,0,0,0,1764355043440,4325,4330,4330,4333,4340,4329,18,,,,,,,0,0,0,-12.00,-24.00,1260.00,0.00,0.00,90.00,14,27.00,29.02,4.00,-1.00,0.00,-29.00,0,,,100,100,13,2,0,0,1,1,0,,,,,0.0,0.0,0.0,0.0,0.0,0.0,0
-22.959732,-67.786894,3.30,0.00,3.30,0.43,3.30,3.30,3.30,0.43,2815,2025-11-28 18:37:23.638,2025-11-28 15:37:23.639,16,0,0,50.385,-22.959730,-67.786898,0.00,0.10,-3.30,1.50,-1.00,125.90,0,1,0,98,97,-35559,16027,50385,2961.50,15,WP,1,0,0,0,0,0,0,1764355043638,4325,4330,4330,4333,4340,4329,18,,,,,,,0,0,0,-15.00,-10.00,1259.00,0.00,0.00,89.00,14,33.00,33.02,4.25,0.00,1.00,-33.00,0,,,100,100,13,2,0,0,1,1,0,,,,,0.0,0.0,0.0,0.0,0.0,0.0,0
-22.959732,-67.786894,3.70,0.00,3.50,0.44,3.70,3.70,3.50,0.44,2913,2025-11-28 18:37:23.737,2025-11-28 15:37:23.737,16,0,0,50.385,-22.959730,-67.786898,0.00,0.10,-3.50,1.40,-0.30,126.00,0,1,0,98,97,-35559,16027,50385,2961.50,15,WP,1,0,0,0,0,0,0,1764355043736,4325,4330,4330,4333,4340,4329,18,,,,,,,0,0,0,-14.00,-3.00,1260.00,0.00,0.00,89.00,14,37.00,35.01,4.38,0.00,1.00,-35.00,0,,,100,100,13,2,0,0,1,1,0,,,,,0.0,0.0,0.0,0.0,0.0,0.0,0
-22.959732,-67.786894,4.00,0.00,3.60,0.46,4.00,4.00,3.60,0.46,3017,2025-11-28 18:37:23.840,2025-11-28 15:37:23.840,16,0,0,50.385,-22.959730,-67.786898,0.00,0.10,-3.60,1.30,0.10,126.20,0,1,0,98,97,-35559,16027,50385,2961.50,15,WP,1,0,0,0,0,0,0,1764355043840,4325,4330,4330,4333,4340,4329,18,,,,,,,0,0,0,-13.00,1.00,1262.00,0.00,0.00,87.00,14,40.00,36.01,4.59,0.00,1.00,-36.00,0,,,100,100,13,2,0,0,1,1,0,,,,,0.0,0.0,0.0,0.0,0.0,0.0,0
-22.959732,-67.786894,4.30,0.00,3.60,0.48,4.30,4.30,3.60,0.48,3117,2025-11-28 18:37:23.940,2025-11-28 15:37:23.940,16,0,0,50.385,-22.959730,-67.786898,0.00,0.10,-3.60,1.40,0.60,126.40,0,1,0,98,97,-35559,16027,50385,2961.50,15,WP,1,0,0,0,0,0,0,1764355043940,4325,4330,4330,4333,4340,4329,18,,,,,,,0,0,0,-14.00,6.00,1264.00,0.00,0.00,85.00,14,43.00,36.01,4.82,0.00,1.00,-36.00,0,,,100,100,13,2,0,0,1,1,0,,,,,0.0,0.0,0.0,0.0,0.0,0.0,0
-22.959732,-67.786893,4.70,0.00,3.60,0.50,4.70,4.70,3.60,0.50,3215,2025-11-28 18:37:24.039,2025-11-28 15:37:24.039,16,0,0,50.385,-22.959730,-67.786898,0.00,0.10,-3.60,1.80,1.30,126.40,0,1,0,98,97,-35559,16027,50385,2961.50,15,WP,1,0,0,0,0,0,0,1764355044038,4325,4330,4330,4333,4340,4329,18,,,,,,,0,0,0,-18.00,13.00,1264.00,0.00,0.00,84.00,14,47.00,36.01,4.96,0.00,1.00,-36.00,0,,,100,100,13,2,0,0,1,1,0,,,,,0.0,0.0,0.0,0.0,0.0,0.0,0
-22.959732,-67.786893,5.00,0.00,3.50,0.51,5.00,5.00,3.60,0.51,3319,2025-11-28 18:37:24.142,2025-11-28 15:37:24.142,16,0,0,50.385,-22.959730,-67.786898,0.00,0.00,-3.50,2.50,1.30,126.50,0,1,0,98,97,-35559,16027,50385,2961.50,15,WP,1,0,0,0,0,0,0,1764355044142,4325,4330,4330,4333,4340,4329,18,,,,,,,0,0,0,-25.00,13.00,1265.00,0.00,0.00,83.00,14,50.00,35.00,5.10,0.00,0.00,-35.00,0,,,100,100,13,2,0,0,1,1,0,,,,,0.0,0.0,0.0,0.0,0.0,0.0,0
-22.959731,-67.786893,5.30,0.00,3.40,0.52,5.30,5.30,3.60,0.52,3420,2025-11-28 18:37:24.243,2025-11-28 15:37:24.243,16,0,0,50.385,-22.959730,-67.786898,0.00,0.00,-3.40,3.00,1.10,126.50,0,1,0,98,97,-35559,16027,50385,2961.50,15,WP,1,0,0,0,0,0,0,1764355044243,4325,4330,4330,4333,4340,4329,18,,,,,,,0,0,0,-30.00,11.00,1265.00,0.00,0.00,83.00,14,53.00,34.00,5.17,0.00,0.00,-34.00,0,,,100,100,13,2,0,0,1,1,0,,,,,0.0,0.0,0.0,0.0,0.0,0.0,0
-22.959731,-67.786893,5.60,0.00,3.20,0.53,5.60,5.60,3.60,0.53,3520,2025-11-28 18:37:24.344,2025-11-28 15:37:24.344,16,0,0,50.385,-22.959730,-67.786898,0.00,0.00,-3.20,3.10,0.80,126.50,0,1,0,98,97,-35559,16027,50385,2961.50,15,WP,1,0,0,0,0,0,0,1764355044343,4325,4330,4330,4333,4340,4329,18,,,,,,,0,0,0,-31.00,8.00,1265.00,0.00,0.00,83.00,14,56.00,32.00,5.27,0.00,0.00,-32.00,0,,,100,100,13,2,0,0,1,1,0,,,,,0.0,0.0,0.0,0.0,0.0,0.0,0
-22.959731,-67.786893,5.90,0.00,3.10,0.53,5.90,5.90,3.60,0.53,3633,2025-11-28 18:37:24.456,2025-11-28 15:37:24.457,16,0,0,50.385,-22.959730,-67.786898,0.00,0.00,-3.10,3.20,0.60,126.40,0,1,0,98,97,-35559,16027,50385,2961.50,15,WP,1,0,0,0,0,0,0,1764355044456,4325,4330,4330,4333,4340,4329,18,,,,,,,0,0,0,-32.00,6.00,1264.00,0.00,0.00,84.00,14,59.00,31.00,5.25,0.00,0.00,-31.00,0,,,100,100,13,2,0,0,1,1,0,,,,,0.0,0.0,0.0,0.0,0.0,0.0,0
-22.959731,-67.786893,6.50,0.00,3.00,0.51,6.50,6.50,3.60,0.53,3821,2025-11-28 18:37:24.645,2025-11-28 15:37:24.645,16,0,0,50.385,-22.959730,-67.786898,0.00,0.00,-3.00,2.70,0.00,126.40,0,1,0,98,97,-35559,16027,50385,2961.50,15,WP,1,0,0,0,0,0,0,1764355044644,4325,4330,4330,4333,4340,4329,18,,,,,,,0,0,0,-27.00,0.00,1264.00,0.00,0.00,84.00,14,65.00,30.00,5.08,0.00,0.00,-30.00,0,,,100,100,13,2,0,0,1,1,0,,,,,0.0,0.0,0.0,0.0,0.0,0.0,0
-22.959731,-67.786893,6.70,0.00,2.90,0.50,6.70,6.70,3.60,0.53,3933,2025-11-28 18:37:24.756,2025-11-28 15:37:24.756,16,0,0,48.905,-22.959730,-67.786898,0.00,0.00,-2.90,2.30,0.00,126.40,0,1,0,98,97,-63274,16027,48905,2961.50,15,WP,1,0,0,0,0,0,0,1764355044756,4325,4330,4330,4333,4340,4329,18,,,,,,,0,0,0,-23.00,0.00,1264.00,0.00,0.00,84.00,14,67.00,29.00,5.00,0.00,0.00,-29.00,0,,,100,100,13,2,0,0,1,1,0,,,,,0.0,0.0,0.0,0.0,0.0,0.0,0
-22.959731,-67.786893,7.00,0.00,3.00,0.48,7.00,7.00,3.60,0.53,4029,2025-11-28 18:37:24.853,2025-11-28 15:37:24.853,16,0,0,48.905,-22.959730,-67.786898,0.00,0.00,-3.00,1.80,0.00,126.40,0,1,0,98,97,-63274,16027,48905,2961.50,15,WP,1,0,0,0,0,0,0,1764355044852,4325,4330,4330,4333,4340,4329,18,,,,,,,0,0,0,-18.00,0.00,1264.00,0.00,0.00,84.00,14,70.00,30.00,4.80,0.00,0.00,-30.00,0,,,100,100,13,2,0,0,1,1,0,,,,,0.0,0.0,0.0,0.0,0.0,0.0,0
-22.959731,-67.786894,7.30,0.00,3.00,0.47,7.30,7.30,3.60,0.53,4133,2025-11-28 18:37:24.957,2025-11-28 15:37:24.957,16,0,0,48.905,-22.959730,-67.786898,0.00,0.00,-3.00,1.30,-0.10,126.40,0,1,0,98,97,-63274,16027,48905,2961.50,15,WP,1,0,0,0,0,0,0,1764355044956,4325,4330,4330,4333,4340,4329,18,,,,,,,0,0,0,-13.00,-1.00,1264.00,0.00,0.00,84.00,14,73.00,30.00,4.68,0.00,0.00,-30.00,0,,,100,100,13,2,0,0,1,1,0,,,,,0.0,0.0,0.0,0.0,0.0,0.0,0
-22.959731,-67.786894,7.60,0.00,3.00,0.45,7.60,7.60,3.60,0.53,4231,2025-11-28 18:37:25.055,2025-11-28 15:37:25.055,16,0,0,48.905,-22.959730,-67.786898,0.00,0.00,-3.00,1.10,-0.30,126.50,0,1,0,98,97,-63274,16027,48905,2961.50,15,WP,1,0,0,0,0,0,0,1764355045054,4325,4330,4330,4333,4340,4329,18,,,,,,,0,0,0,-11.00,-3.00,1265.00,0.00,0.00,84.00,14,76.00,30.00,4.54,0.00,0.00,-30.00,0,,,100,100,13,2,0,0,1,1,0,,,,,0.0,0.0,0.0,0.0,0.0,0.0,0
-22.959731,-67.786894,7.90,0.00,3.00,0.45,7.90,7.90,3.60,0.53,4327,2025-11-28 18:37:25.151,2025-11-28 15:37:25.151,16,0,0,48.905,-22.959730,-67.786898,0.00,0.00,-3.00,1.20,-0.50,126.40,0,1,0,98,97,-63274,16027,48905,2961.50,15,WP,1,0,0,0,0,0,0,1764355045150,4325,4330,4330,4333,4340,4329,18,,,,,,,0,0,0,-12.00,-5.00,1264.00,0.00,0.00,84.00,14,79.00,30.00,4.49,0.00,0.00,-30.00,0,,,100,100,13,2,0,0,1,1,0,,,,,0.0,0.0,0.0,0.0,0.0,0.0,0
-22.959731,-67.786894,8.20,0.00,3.10,0.45,8.20,8.20,3.60,0.53,4432,2025-11-28 18:37:25.256,2025-11-28 15:37:25.256,16,0,0,48.905,-22.959730,-67.786898,0.00,0.00,-3.10,1.50,-0.70,126.40,0,1,0,98,97,-63274,16027,48905,2961.50,15,WP,1,0,0,0,0,0,0,1764355045255,4325,4330,4330,4333,4340,4329,18,,,,,,,0,0,0,-15.00,-7.00,1264.00,0.00,0.00,84.00,14,82.00,31.00,4.49,0.00,0.00,-31.00,0,,,100,100,13,2,0,0,1,1,0,,,,,0.0,0.0,0.0,0.0,0.0,0.0,0
-22.959731,-67.786894,8.50,0.00,3.10,0.46,8.50,8.50,3.60,0.53,4533,2025-11-28 18:37:25.356,2025-11-28 15:37:25.356,16,0,0,48.905,-22.959730,-67.786898,0.10,0.10,-3.10,1.90,-0.50,126.40,0,1,0,98,97,-63274,16027,48905,2961.50,15,WP,1,0,0,0,0,0,0,1764355045356,4325,4330,4330,4333,4340,4329,18,,,,,,,0,0,0,-19.00,-5.00,1264.00,0.00,0.00,84.00,14,85.00,31.03,4.57,1.00,1.00,-31.00,0,,,100,100,13,2,0,0,1,1,0,,,,,0.0,0.0,0.0,0.0,0.0,0.0,0
-22.959731,-67.786894,8.80,0.00,3.10,0.46,8.80,8.80,3.60,0.53,4630,2025-11-28 18:37:25.453,2025-11-28 15:37:25.453,16,0,0,48.905,-22.959730,-67.786898,0.10,0.10,-3.10,2.20,0.20,126.40,0,1,0,98,97,-63274,16027,48905,2961.50,15,WP,1,0,0,0,0,0,0,1764355045453,4325,4330,4330,4333,4340,4329,18,,,,,,,0,0,0,-22.00,2.00,1264.00,0.00,0.00,85.00,14,88.00,31.03,4.60,1.00,1.00,-31.00,0,,,100,96,13,2,0,0,1,1,0,,,,,0.0,0.0,0.0,0.0,0.0,0.0,0
-22.959730,-67.786893,9.50,0.00,3.20,0.48,9.50,9.50,3.60,0.53,4830,2025-11-28 18:37:25.654,2025-11-28 15:37:25.654,16,0,0,48.905,-22.959730,-67.786898,0.10,0.10,-3.20,2.50,1.90,126.40,0,1,0,98,97,-63274,16027,48905,2961.50,15,WP,1,0,0,0,0,0,0,1764355045653,4325,4330,4330,4333,4340,4329,18,,,,,,,0,0,0,-25.00,19.00,1264.00,0.00,0.00,84.00,14,95.00,32.03,4.79,1.00,1.00,-32.00,0,,,100,96,13,2,0,0,1,1,0,,,,,0.0,0.0,0.0,0.0,0.0,0.0,0
-22.959730,-67.786893,9.80,0.00,3.20,0.50,9.80,9.80,3.60,0.53,4933,2025-11-28 18:37:25.756,2025-11-28 15:37:25.756,16,0,0,48.905,-22.959730,-67.786898,0.10,0.10,-3.20,2.60,2.70,126.40,0,1,0,98,97,-63274,16027,48905,2961.50,15,WP,1,0,0,0,0,0,0,1764355045756,4325,4330,4330,4333,4340,4329,18,,,,,,,0,0,0,-26.00,27.00,1264.00,0.00,0.00,84.00,14,98.00,32.03,4.97,1.00,1.00,-32.00,0,,,100,96,13,2,0,0,1,1,0,,,,,0.0,0.0,0.0,0.0,0.0,0.0,0
-22.959730,-67.786893,10.10,0.00,3.20,0.51,10.10,10.10,3.60,0.53,5029,2025-11-28 18:37:25.853,2025-11-28 15:37:25.853,16,0,0,48.905,-22.959730,-67.786898,0.00,0.10,-3.20,2.70,3.40,126.40,0,1,0,98,97,-63274,16027,48905,2961.50,15,WP,1,0,0,0,0,0,0,1764355045852,4325,4330,4330,4333,4340,4329,18,,,,,,,0,0,0,-27.00,34.00,1264.00,0.00,0.00,84.00,14,101.00,32.02,5.13,0.00,1.00,-32.00,0,,,100,96,13,2,0,0,1,1,0,,,,,0.0,0.0,0.0,0.0,0.0,0.0,0
-22.959730,-67.786893,10.40,0.00,3.20,0.53,10.40,10.40,3.60,0.53,5130,2025-11-28 18:37:25.954,2025-11-28 15:37:25.954,16,0,0,48.905,-22.959730,-67.786898,0.00,0.10,-3.20,2.80,3.50,126.40,0,1,0,98,97,-63274,16027,48905,2961.50,15,WP,1,0,0,0,0,0,0,1764355045953,4325,4330,4330,4333,4340,4329,18,,,,,,,0,0,0,-28.00,35.00,1264.00,0.00,0.00,84.00,14,104.00,32.02,5.28,0.00,1.00,-32.00,0,,,100,96,13,2,0,0,1,1,0,,,,,0.0,0.0,0.0,0.0,0.0,0.0,0
-22.959730,-67.786893,10.80,0.00,3.20,0.54,10.80,10.80,3.60,0.54,5231,2025-11-28 18:37:26.055,2025-11-28 15:37:26.055,16,0,0,48.905,-22.959730,-67.786898,0.00,0.10,-3.20,2.90,3.10,126.50,0,1,0,98,97,-63274,16027,48905,2961.50,15,WP,1,0,0,0,0,0,0,1764355046054,4325,4330,4330,4333,4340,4329,18,,,,,,,0,0,0,-29.00,31.00,1265.00,0.00,0.00,84.00,14,108.00,32.02,5.36,0.00,1.00,-32.00,0,,,100,96,13,2,0,0,1,1,0,,,,,0.0,0.0,0.0,0.0,0.0,0.0,0
-22.959730,-67.786893,11.10,0.00,3.20,0.55,11.10,11.10,3.60,0.55,5333,2025-11-28 18:37:26.156,2025-11-28 15:37:26.156,16,0,0,48.905,-22.959730,-67.786898,0.00,0.10,-3.20,3.10,2.80,126.50,0,1,0,98,97,-63274,16027,48905,2961.50,15,WP,1,0,0,0,0,0,0,1764355046156,4325,4330,4330,4333,4340,4329,18,,,,,,,0,0,0,-31.00,28.00,1265.00,0.00,0.00,83.00,14,111.00,32.02,5.46,0.00,1.00,-32.00,0,,,100,96,13,2,0,0,1,1,0,,,,,0.0,0.0,0.0,0.0,0.0,0.0,0
-22.959730,-67.786893,11.40,0.00,3.10,0.55,11.40,11.40,3.60,0.55,5433,2025-11-28 18:37:26.257,2025-11-28 15:37:26.257,16,0,0,48.905,-22.959730,-67.786898,0.00,0.00,-3.10,3.40,2.70,126.60,0,1,0,98,97,-63274,16027,48905,2961.50,15,WP,1,0,0,0,0,0,0,1764355046256,4325,4330,4330,4333,4340,4329,18,,,,,,,0,0,0,-34.00,27.00,1266.00,0.00,0.00,83.00,14,114.00,31.00,5.48,0.00,0.00,-31.00,0,,,100,96,13,2,0,0,1,1,0,,,,,0.0,0.0,0.0,0.0,0.0,0.0,0
-22.959730,-67.786893,11.70,0.00,3.10,0.55,11.70,11.70,3.60,0.55,5532,2025-11-28 18:37:26.356,2025-11-28 15:37:26.356,16,0,0,48.905,-22.959730,-67.786898,0.00,0.00,-3.10,3.40,2.40,126.60,0,1,0,98,97,-63274,16027,48905,2961.50,15,WP,1,0,0,0,0,0,0,1764355046355,4325,4330,4330,4333,4340,4329,18,,,,,,,0,0,0,-34.00,24.00,1266.00,0.00,0.00,83.00,14,117.00,31.00,5.52,0.00,0.00,-31.00,0,,,100,96,13,2,0,0,1,1,0,,,,,0.0,0.0,0.0,0.0,0.0,0.0,0
-22.959730,-67.786893,12.00,0.00,3.00,0.56,12.00,12.00,3.60,0.56,5633,2025-11-28 18:37:26.457,2025-11-28 15:37:26.457,16,0,0,48.905,-22.959730,-67.786898,0.00,0.00,-3.00,3.20,2.60,126.40,0,1,0,98,97,-63274,16027,48905,2961.50,15,WP,1,0,0,0,0,0,0,1764355046456,4325,4330,4330,4333,4340,4329,18,,,,,,,0,0,0,-32.00,26.00,1264.00,0.00,0.00,83.00,14,120.00,30.00,5.58,0.00,0.00,-30.00,0,,,100,95,13,2,0,0,1,1,0,,,,,0.0,0.0,0.0,0.0,0.0,0.0,0
-22.959730,-67.786893,12.60,0.00,3.00,0.56,12.60,12.60,3.60,0.56,5835,2025-11-28 18:37:26.658,2025-11-28 15:37:26.658,16,0,0,48.905,-22.959730,-67.786898,0.00,0.00,-3.00,2.80,2.90,126.40,0,1,0,98,97,-63274,16027,48905,2961.50,15,WP,1,0,0,0,0,0,0,1764355046658,4325,4330,4330,4333,4340,4329,18,,,,,,,0,0,0,-28.00,29.00,1264.00,0.00,0.00,85.00,14,126.00,30.00,5.58,0.00,0.00,-30.00,0,,,100,95,13,2,0,0,1,1,0,,,,,0.0,0.0,0.0,0.0,0.0,0.0,0
-22.959730,-67.786893,12.90,0.00,3.00,0.55,12.90,12.90,3.60,0.56,5937,2025-11-28 18:37:26.760,2025-11-28 15:37:26.760,16,0,0,47.916,-22.959730,-67.786898,0.00,0.00,-3.00,2.60,2.50,126.40,0,1,0,97,97,-58270,15918,47916,2961.50,15,WP,1,0,0,0,0,0,0,1764355046760,4325,4330,4330,4333,4340,4329,18,,,,,,,0,0,0,-26.00,25.00,1264.00,0.00,0.00,84.00,14,129.00,30.00,5.53,0.00,0.00,-30.00,0,,,100,95,13,2,0,0,1,1,0,,,,,0.0,0.0,0.0,0.0,0.0,0.0,0
-22.959730,-67.786893,13.20,0.00,3.00,0.54,13.20,13.20,3.60,0.56,6039,2025-11-28 18:37:26.863,2025-11-28 15:37:26.863,16,0,0,47.916,-22.959730,-67.786898,0.00,0.00,-3.00,2.50,2.10,126.50,0,1,0,97,97,-58270,15918,47916,2961.50,15,WP,1,0,0,0,0,0,0,1764355046862,4325,4330,4330,4333,4340,4329,18,,,,,,,0,0,0,-25.00,21.00,1265.00,0.00,0.00,83.00,14,132.00,30.00,5.40,0.00,0.00,-30.00,0,,,100,95,13,2,0,0,1,1,0,,,,,0.0,0.0,0.0,0.0,0.0,0.0,0
-22.959730,-67.786893,13.50,0.00,3.00,0.53,13.50,13.50,3.60,0.56,6140,2025-11-28 18:37:26.963,2025-11-28 15:37:26.963,16,0,0,47.916,-22.959730,-67.786898,0.00,0.00,-3.00,2.50,1.70,126.50,0,1,0,97,97,-58270,15918,47916,2961.50,15,WP,1,0,0,0,0,0,0,1764355046963,3979,3978,3997,3977,3996,3977,18,,,,,,,0,0,0,-25.00,17.00,1265.00,0.00,0.00,83.00,14,135.00,30.00,5.34,0.00,0.00,-30.00,0,,,100,99,13,2,0,0,1,1,0,,,,,0.0,0.0,0.0,0.0,0.0,0.0,0
-22.959730,-67.786893,13.80,0.00,3.00,0.53,13.80,13.80,3.60,0.56,6238,2025-11-28 18:37:27.061,2025-11-28 15:37:27.061,16,0,0,47.916,-22.959730,-67.786898,0.00,0.00,-3.00,2.60,1.60,126.50,0,1,0,97,97,-58270,15918,47916,2961.50,15,WP,1,0,0,0,0,0,0,1764355047061,3979,3978,3997,3977,3996,3977,18,,,,,,,0,0,0,-26.00,16.00,1265.00,0.00,0.00,83.00,14,138.00,30.00,5.30,0.00,0.00,-30.00,0,,,100,99,13,2,0,0,1,1,0,,,,,0.0,0.0,0.0,0.0,0.0,0.0,0
-22.959730,-67.786893,14.10,0.00,2.90,0.53,14.10,14.10,3.60,0.56,6349,2025-11-28 18:37:27.172,2025-11-28 15:37:27.173,16,0,0,47.916,-22.959730,-67.786898,0.00,0.00,-2.90,3.00,1.50,126.50,0,1,0,97,97,-58270,15918,47916,2961.50,15,WP,1,0,0,0,0,0,0,1764355047172,3979,3978,3997,3977,3996,3977,18,,,,,,,0,0,0,-30.00,15.00,1265.00,0.00,0.00,83.00,14,141.00,29.00,5.32,0.00,0.00,-29.00,0,,,100,99,13,2,0,0,1,1,0,,,,,0.0,0.0,0.0,0.0,0.0,0.0,0
-22.959730,-67.786893,14.40,0.00,2.90,0.53,14.40,14.40,3.60,0.56,6444,2025-11-28 18:37:27.268,2025-11-28 15:37:27.268,16,0,0,47.916,-22.959730,-67.786898,0.00,0.00,-2.90,3.40,1.30,126.50,0,1,0,97,97,-58270,15918,47916,2961.50,15,WP,1,0,0,0,0,0,0,1764355047267,3979,3978,3997,3977,3996,3977,18,,,,,,,0,0,0,-34.00,13.00,1265.00,0.00,0.00,83.00,14,144.00,29.00,5.32,0.00,0.00,-29.00,0,,,100,99,13,2,0,0,1,1,0,,,,,0.0,0.0,0.0,0.0,0.0,0.0,0
-22.959730,-67.786893,14.70,0.00,2.90,0.54,14.70,14.70,3.60,0.56,6538,2025-11-28 18:37:27.362,2025-11-28 15:37:27.362,16,0,0,47.916,-22.959730,-67.786898,0.00,0.10,-2.90,3.70,1.40,126.60,0,1,0,97,97,-58270,15918,47916,2961.50,15,WP,1,0,0,0,0,0,0,1764355047361,3979,3978,3997,3977,3996,3977,18,,,,,,,0,0,0,-37.00,14.00,1266.00,0.00,0.00,83.00,14,147.00,29.02,5.37,0.00,1.00,-29.00,0,,,100,99,13,2,0,0,1,1,0,,,,,0.0,0.0,0.0,0.0,0.0,0.0,0
-22.959730,-67.786893,15.00,0.00,2.90,0.54,15.00,15.00,3.60,0.56,6649,2025-11-28 18:37:27.473,2025-11-28 15:37:27.473,16,0,0,47.916,-22.959730,-67.786898,0.00,0.10,-2.90,4.00,1.60,126.60,0,1,0,97,97,-58270,15918,47916,2961.50,15,WP,1,0,0,0,0,0,0,1764355047472,3979,3978,3997,3977,3996,3977,18,,,,,,,0,0,0,-40.00,16.00,1266.00,0.00,0.00,82.00,14,150.00,29.02,5.40,0.00,1.00,-29.00,0,,,100,99,13,2,0,0,1,1,0,,,,,0.0,0.0,0.0,0.0,0.0,0.0,0
-22.959730,-67.786893,15.60,0.00,2.90,0.55,15.60,15.60,3.60,0.56,6846,2025-11-28 18:37:27.670,2025-11-28 15:37:27.670,16,0,0,47.916,-22.959730,-67.786898,0.00,0.00,-2.90,4.70,1.90,126.50,0,1,0,97,97,-58270,15918,47916,2961.50,15,WP,1,0,0,0,0,0,0,1764355047669,3979,3978,3997,3977,3996,3977,18,,,,,,,0,0,0,-47.00,19.00,1265.00,0.00,0.00,83.00,14,156.00,29.00,5.54,0.00,0.00,-29.00,0,,,100,99,13,2,0,0,1,1,0,,,,,0.0,0.0,0.0,0.0,0.0,0.0,0
-22.959730,-67.786893,15.90,0.00,2.80,0.56,15.90,15.90,3.60,0.56,6949,2025-11-28 18:37:27.772,2025-11-28 15:37:27.772,16,0,0,47.916,-22.959730,-67.786898,0.00,0.00,-2.80,4.90,2.30,126.50,0,1,0,97,97,-58270,15918,47916,2961.50,15,WP,1,0,0,0,0,0,0,1764355047772,3979,3978,3997,3977,3996,3977,18,,,,,,,0,0,0,-49.00,23.00,1265.00,0.00,0.00,83.00,14,159.00,28.00,5.62,0.00,0.00,-28.00,0,,,100,99,13,2,0,0,1,1,0,,,,,0.0,0.0,0.0,0.0,0.0,0.0,0
-22.959730,-67.786893,16.10,0.00,2.60,0.57,16.10,16.10,3.60,0.57,7046,2025-11-28 18:37:27.869,2025-11-28 15:37:27.869,15,0,0,47.916,-22.959730,-67.786898,0.00,0.00,-2.60,5.20,2.80,126.50,0,1,0,97,97,-58270,15918,47916,2961.50,15,WP,1,0,0,0,0,0,0,1764355047869,3979,3978,3997,3977,3996,3977,18,,,,,,,0,0,0,-52.00,28.00,1265.00,0.00,0.00,83.00,14,161.00,26.00,5.70,0.00,0.00,-26.00,0,,,100,99,13,2,0,0,1,1,0,,,,,0.0,0.0,0.0,0.0,0.0,0.0,0
-22.959730,-67.786892,16.40,0.00,2.50,0.58,16.40,16.40,3.60,0.58,7150,2025-11-28 18:37:27.973,2025-11-28 15:37:27.973,15,0,0,47.916,-22.959730,-67.786898,0.00,0.00,-2.50,5.40,3.60,126.60,0,1,0,97,97,-58270,15918,47916,2961.50,15,WP,1,0,0,0,0,0,0,1764355047973,3979,3978,3997,3977,3996,3977,18,,,,,,,0,0,0,-54.00,36.00,1266.00,0.00,0.00,82.00,14,164.00,25.00,5.77,0.00,0.00,-25.00,0,,,100,98,13,2,0,0,1,1,0,,,,,0.0,0.0,0.0,0.0,0.0,0.0,0
-22.959730,-67.786892,16.60,0.00,2.30,0.58,16.60,16.60,3.60,0.58,7248,2025-11-28 18:37:28.072,2025-11-28 15:37:28.072,15,0,0,47.916,-22.959730,-67.786898,0.00,0.00,-2.30,5.50,4.30,126.70,0,1,0,97,97,-58270,15918,47916,2961.50,15,WP,1,0,0,0,0,0,0,1764355048071,3979,3978,3997,3977,3996,3977,18,,,,,,,0,0,0,-55.00,43.00,1267.00,0.00,0.00,82.00,14,166.00,23.00,5.79,0.00,0.00,-23.00,0,,,100,98,13,2,0,0,1,1,0,,,,,0.0,0.0,0.0,0.0,0.0,0.0,0
-22.959730,-67.786892,16.90,0.00,2.10,0.58,16.90,16.90,3.60,0.58,7350,2025-11-28 18:37:28.173,2025-11-28 15:37:28.173,15,0,0,47.916,-22.959730,-67.786898,0.00,0.00,-2.10,5.30,4.80,126.60,0,1,0,97,97,-58270,15918,47916,2961.50,15,WP,1,0,0,0,0,0,0,1764355048173,3979,3978,3997,3977,3996,3977,18,,,,,,,0,0,0,-53.00,48.00,1266.00,0.00,0.00,82.00,14,169.00,21.00,5.82,0.00,0.00,-21.00,0,,,100,98,13,2,0,0,1,1,0,,,,,0.0,0.0,0.0,0.0,0.0,0.0,0
-22.959730,-67.786892,17.10,0.00,2.00,0.58,17.10,17.10,3.60,0.58,7445,2025-11-28 18:37:28.268,2025-11-28 15:37:28.268,16,0,0,47.916,-22.959730,-67.786898,0.00,0.00,-2.00,5.00,5.00,126.60,0,1,0,97,97,-58270,15918,47916,2961.50,15,WP,1,0,0,0,0,0,0,1764355048268,3979,3978,3997,3977,3996,3977,18,,,,,,,0,0,0,-50.00,50.00,1266.00,0.00,0.00,82.00,14,171.00,20.00,5.82,0.00,0.00,-20.00,0,,,100,98,13,2,0,0,1,1,0,,,,,0.0,0.0,0.0,0.0,0.0,0.0,0
-22.959730,-67.786892,17.30,0.00,1.80,0.58,17.30,17.30,3.60,0.58,7546,2025-11-28 18:37:28.370,2025-11-28 15:37:28.370,16,0,0,47.916,-22.959730,-67.786898,0.00,0.00,-1.80,4.60,5.20,126.60,0,1,0,97,97,-58270,15918,47916,2961.50,15,WP,1,0,0,0,0,0,0,1764355048369,3979,3978,3997,3977,3996,3977,18,,,,,,,0,0,0,-46.00,52.00,1266.00,0.00,0.00,82.00,14,173.00,18.00,5.83,0.00,0.00,-18.00,0,,,100,98,13,2,0,0,1,1,0,,,,,0.0,0.0,0.0,0.0,0.0,0.0,0
-22.959729,-67.786893,17.40,0.00,1.70,0.58,17.40,17.40,3.60,0.58,7649,2025-11-28 18:37:28.473,2025-11-28 15:37:28.473,16,0,0,47.916,-22.959730,-67.786898,0.00,0.00,-1.70,4.30,5.10,126.50,0,1,0,97,97,-58270,15918,47916,2961.50,15,WP,1,0,0,0,0,0,0,1764355048472,3979,3978,3997,3977,3996,3977,18,,,,,,,0,0,0,-43.00,51.00,1265.00,0.00,0.00,83.00,14,174.00,17.00,5.80,0.00,0.00,-17.00,0,,,100,98,13,2,0,0,1,1,0,,,,,0.0,0.0,0.0,0.0,0.0,0.0,0
-22.959729,-67.786893,17.70,0.00,1.40,0.56,17.70,17.70,3.60,0.58,7848,2025-11-28 18:37:28.671,2025-11-28 15:37:28.671,16,0,0,47.916,-22.959730,-67.786898,0.00,0.00,-1.40,4.00,4.50,126.50,0,1,0,97,97,-58270,15918,47916,2961.50,15,WP,1,0,0,0,0,0,0,1764355048671,3979,3978,3997,3977,3996,3977,18,,,,,,,0,0,0,-40.00,45.00,1265.00,0.00,0.00,83.00,14,177.00,14.00,5.63,0.00,0.00,-14.00,0,,,100,98,13,2,0,0,1,1,0,,,,,0.0,0.0,0.0,0.0,0.0,0.0,0
-22.959729,-67.786893,17.90,0.00,1.40,0.55,17.90,17.90,3.60,0.58,7950,2025-11-28 18:37:28.774,2025-11-28 15:37:28.774,16,0,0,47.916,-22.959730,-67.786898,0.00,0.00,-1.40,4.30,3.90,126.50,0,1,0,97,97,-58270,15918,47916,2961.50,15,WP,1,0,0,0,0,0,0,1764355048773,3979,3978,3997,3977,3996,3977,18,,,,,,,0,0,0,-43.00,39.00,1265.00,0.00,0.00,83.00,14,179.00,14.00,5.52,0.00,0.00,-14.00,0,,,100,98,13,2,0,0,1,1,0,,,,,0.0,0.0,0.0,0.0,0.0,0.0,0
-22.959730,-67.786893,18.20,0.00,1.30,0.52,18.20,18.20,3.60,0.58,8153,2025-11-28 18:37:28.976,2025-11-28 15:37:28.977,16,0,0,47.916,-22.959730,-67.786898,0.00,0.00,-1.30,5.20,3.40,126.70,0,1,0,97,97,-58270,15918,47916,2961.50,15,WP,1,0,0,0,0,0,0,1764355048976,3979,3978,3997,3977,3996,3977,18,,,,,,,0,0,0,-52.00,34.00,1267.00,0.00,0.00,82.00,14,182.00,13.00,5.18,0.00,0.00,-13.00,0,,,100,92,13,2,0,0,1,1,0,,,,,0.0,0.0,0.0,0.0,0.0,0.0,0
-22.959730,-67.786893,18.30,0.00,1.20,0.50,18.30,18.30,3.60,0.58,8254,2025-11-28 18:37:29.077,2025-11-28 15:37:29.077,15,0,0,47.916,-22.959730,-67.786898,0.00,0.00,-1.20,5.40,3.50,126.70,0,1,0,97,97,-58270,15918,47916,2961.50,15,WP,1,0,0,0,0,0,0,1764355049077,3979,3978,3997,3977,3996,3977,18,,,,,,,0,0,0,-54.00,35.00,1267.00,0.00,0.00,82.00,14,183.00,12.00,4.99,0.00,0.00,-12.00,0,,,100,92,13,2,0,0,1,1,0,,,,,0.0,0.0,0.0,0.0,0.0,0.0,0
-22.959730,-67.786893,18.50,0.00,1.20,0.49,18.50,18.50,3.60,0.58,8357,2025-11-28 18:37:29.180,2025-11-28 15:37:29.180,15,0,0,47.916,-22.959730,-67.786898,0.00,0.00,-1.20,5.40,3.80,126.70,0,1,0,97,97,-58270,15918,47916,2961.50,15,WP,1,0,0,0,0,0,0,1764355049180,3979,3978,3997,3977,3996,3977,18,,,,,,,0,0,0,-54.00,38.00,1267.00,0.00,0.00,82.00,14,185.00,12.00,4.87,0.00,0.00,-12.00,0,,,100,92,13,2,0,0,1,1,0,,,,,0.0,0.0,0.0,0.0,0.0,0.0,0
-22.959730,-67.786894,18.60,0.00,1.20,0.47,18.60,18.60,3.60,0.58,8457,2025-11-28 18:37:29.281,2025-11-28 15:37:29.281,15,0,0,47.916,-22.959730,-67.786898,0.00,0.00,-1.20,5.10,4.40,126.70,0,1,0,97,97,-58270,15918,47916,2961.50,15,WP,1,0,0,0,0,0,0,1764355049280,3979,3978,3997,3977,3996,3977,18,,,,,,,0,0,0,-51.00,44.00,1267.00,0.00,0.00,82.00,14,186.00,12.00,4.69,0.00,0.00,-12.00,0,,,100,92,13,2,0,0,1,1,0,,,,,0.0,0.0,0.0,0.0,0.0,0.0,0
-22.959730,-67.786894,18.70,0.00,1.20,0.46,18.70,18.70,3.60,0.58,8563,2025-11-28 18:37:29.387,2025-11-28 15:37:29.387,15,0,0,47.916,-22.959730,-67.786898,0.00,0.00,-1.20,4.90,4.70,126.60,0,1,0,97,97,-58270,15918,47916,2961.50,15,WP,1,0,0,0,0,0,0,1764355049386,3979,3978,3997,3977,3996,3977,18,,,,,,,0,0,0,-49.00,47.00,1266.00,0.00,0.00,82.00,14,187.00,12.00,4.56,0.00,0.00,-12.00,0,,,100,92,13,2,0,0,1,1,0,,,,,0.0,0.0,0.0,0.0,0.0,0.0,0
-22.959730,-67.786894,18.90,0.00,1.10,0.43,18.90,18.90,3.60,0.58,8656,2025-11-28 18:37:29.480,2025-11-28 15:37:29.480,15,0,0,47.916,-22.959730,-67.786898,0.00,0.00,-1.10,4.70,4.60,126.60,0,1,0,97,97,-58270,15918,47916,2961.50,15,WP,1,0,0,0,0,0,0,1764355049479,3979,3978,3997,3977,3996,3977,18,,,,,,,0,0,0,-47.00,46.00,1266.00,0.00,0.00,83.00,14,189.00,11.00,4.34,0.00,0.00,-11.00,0,,,100,93,13,2,0,0,1,1,0,,,,,0.0,0.0,0.0,0.0,0.0,0.0,0
-22.959730,-67.786894,19.10,0.00,1.00,0.39,19.10,19.10,3.60,0.58,8861,2025-11-28 18:37:29.684,2025-11-28 15:37:29.684,15,0,0,47.916,-22.959730,-67.786898,0.00,0.00,-1.00,4.50,4.10,126.60,0,1,0,97,97,-58270,15918,47916,2961.50,15,WP,1,0,0,0,0,0,0,1764355049684,3979,3978,3997,3977,3996,3977,18,,,,,,,0,0,0,-45.00,41.00,1266.00,0.00,0.00,83.00,14,191.00,10.00,3.94,0.00,0.00,-10.00,0,,,100,93,13,2,0,0,1,1,0,,,,,0.0,0.0,0.0,0.0,0.0,0.0,0
-22.959730,-67.786894,19.20,0.00,0.90,0.38,19.20,19.20,3.60,0.58,8965,2025-11-28 18:37:29.789,2025-11-28 15:37:29.789,15,0,0,47.916,-22.959730,-67.786898,0.00,0.00,-0.90,4.50,3.60,126.60,0,1,0,97,97,-58270,15918,47916,2961.50,15,WP,1,0,0,0,0,0,0,1764355049788,3979,3978,3997,3977,3996,3977,18,,,,,,,0,0,0,-45.00,36.00,1266.00,0.00,0.00,83.00,14,192.00,9.00,3.79,0.00,0.00,-9.00,0,,,100,93,13,2,0,0,1,1,0,,,,,0.0,0.0,0.0,0.0,0.0,0.0,0
-22.959730,-67.786895,19.30,0.00,0.80,0.35,19.30,19.30,3.60,0.58,9066,2025-11-28 18:37:29.889,2025-11-28 15:37:29.889,15,0,0,47.916,-22.959730,-67.786898,0.00,0.00,-0.80,4.40,2.70,124.90,0,1,0,97,97,-58270,15918,47916,2961.50,15,WP,1,0,0,0,0,0,0,1764355049889,3979,3978,3997,3977,3996,3977,18,,,,,,,0,0,0,-44.00,27.00,1249.00,0.00,0.00,88.00,14,193.00,8.00,3.54,0.00,0.00,-8.00,0,,,100,93,13,2,0,0,1,1,0,,,,,0.0,0.0,0.0,0.0,0.0,0.0,0
-22.959730,-67.786895,19.40,0.00,0.60,0.34,19.40,19.40,3.60,0.58,9165,2025-11-28 18:37:29.989,2025-11-28 15:37:29.989,15,0,0,47.916,-22.959730,-67.786898,0.00,0.00,-0.60,4.10,1.40,120.00,0,1,0,97,97,-58270,15918,47916,2961.50,15,WP,1,0,0,0,0,0,0,1764355049988,3979,3978,3997,3977,3996,3977,18,,,,,,,0,0,0,-41.00,14.00,1200.00,0.00,0.00,114.00,14,194.00,6.00,3.38,0.00,0.00,-6.00,0,,,100,98,13,2,0,0,1,1,0,,,,,0.0,0.0,0.0,0.0,0.0,0.0,0
-22.959731,-67.786895,19.50,0.00,0.10,0.31,19.50,19.50,3.60,0.58,9363,2025-11-28 18:37:30.186,2025-11-28 15:37:30.186,15,0,0,47.916,-22.959730,-67.786898,0.00,0.00,-0.10,4.00,0.80,109.80,0,1,0,97,97,-58270,15918,47916,2961.50,15,WP,1,0,0,0,0,0,0,1764355050186,3979,3978,3997,3977,3996,3977,18,,,,,,,0,0,0,-40.00,8.00,1098.00,0.00,1.00,133.00,14,195.00,1.00,3.08,0.00,0.00,-1.00,0,,,100,98,13,2,0,0,1,1,0,,,,,0.0,0.0,0.0,0.0,0.0,0.0,0
-22.959731,-67.786895,19.50,0.00,0.00,0.30,19.50,19.50,3.60,0.58,9466,2025-11-28 18:37:30.289,2025-11-28 15:37:30.289,15,0,0,47.916,-22.959730,-67.786898,0.00,0.00,0.00,4.40,1.20,106.90,0,1,0,97,97,-58270,15918,47916,2961.50,15,WP,1,0,0,0,0,0,0,1764355050289,3979,3978,3997,3977,3996,3977,18,,,,,,,0,0,0,-44.00,12.00,1069.00,0.00,1.00,117.00,14,195.00,0.00,2.98,0.00,0.00,0.00,0,,,100,98,13,2,0,0,1,1,0,,,,,0.0,0.0,0.0,0.0,0.0,0.0,0
-22.959731,-67.786895,19.50,0.00,0.10,0.30,19.50,19.50,3.60,0.58,9565,2025-11-28 18:37:30.388,2025-11-28 15:37:30.388,15,0,0,47.916,-22.959730,-67.786898,0.00,0.00,0.10,4.30,2.00,105.40,0,1,0,97,97,-58270,15918,47916,2961.50,15,WP,1,0,0,0,0,0,0,1764355050388,3979,3978,3997,3977,3996,3977,18,,,,,,,0,0,0,-43.00,20.00,1054.00,0.00,0.00,101.00,14,195.00,1.00,2.98,0.00,0.00,1.00,0,,,100,98,13,2,0,0,1,1,0,,,,,0.0,0.0,0.0,0.0,0.0,0.0,0
-22.959731,-67.786895,19.50,0.00,0.10,0.29,19.50,19.50,3.60,0.58,9661,2025-11-28 18:37:30.485,2025-11-28 15:37:30.485,16,0,0,47.916,-22.959730,-67.786898,0.00,0.00,0.10,3.50,2.30,104.90,0,1,0,97,97,-58270,15918,47916,2961.50,15,WP,1,0,0,0,0,0,0,1764355050484,3979,3978,3997,3977,3996,3977,18,,,,,,,0,0,0,-35.00,23.00,1049.00,0.00,0.00,90.00,14,195.00,1.00,2.88,0.00,0.00,1.00,0,,,100,98,13,2,0,0,1,1,0,,,,,0.0,0.0,0.0,0.0,0.0,0.0,0
-22.959731,-67.786895,19.50,0.00,0.17,0.28,19.50,19.50,3.60,0.58,9864,2025-11-28 18:37:30.687,2025-11-28 15:37:30.687,16,0,0,48.416,-22.959730,-67.786898,-0.10,0.10,0.10,-0.70,1.20,104.70,0,1,0,97,97,-47345,15864,48416,2961.50,15,WP,1,0,0,0,0,0,0,1764355050687,3979,3978,3997,3977,3996,3977,18,,,,,,,0,0,0,7.00,12.00,1047.00,0.00,0.00,84.00,14,195.00,1.73,2.84,-1.00,1.00,1.00,0,,,100,98,13,2,0,0,1,1,0,,,,,0.0,0.0,0.0,0.0,0.0,0.0,0
-22.959731,-67.786895,19.50,0.00,0.22,0.30,19.50,19.50,3.60,0.58,9967,2025-11-28 18:37:30.790,2025-11-28 15:37:30.790,16,0,0,48.416,-22.959730,-67.786898,-0.10,0.20,0.00,-3.10,0.20,104.70,0,1,0,97,97,-47345,15864,48416,2961.50,15,WP,1,0,0,0,0,0,0,1764355050790,3979,3978,3997,3977,3996,3977,18,,,,,,,0,0,0,31.00,2.00,1047.00,0.00,0.00,79.00,14,195.00,2.24,2.99,-1.00,2.00,0.00,0,,,100,98,13,2,0,0,1,1,0,,,,,0.0,0.0,0.0,0.0,0.0,0.0,0
-22.959732,-67.786895,19.50,0.00,0.32,0.33,19.50,19.50,3.60,0.58,10069,2025-11-28 18:37:30.892,2025-11-28 15:37:30.893,16,0,0,48.416,-22.959730,-67.786898,-0.10,0.30,0.00,-5.40,0.10,104.60,0,1,0,97,97,-47345,15864,48416,2961.50,15,WP,1,0,0,0,0,0,0,1764355050892,3979,3978,3997,3977,3996,3977,18,,,,,,,0,0,0,54.00,1.00,1046.00,0.00,0.00,76.00,14,195.00,3.16,3.25,-1.00,3.00,0.00,0,,,100,98,13,2,0,0,1,1,0,,,,,0.0,0.0,0.0,0.0,0.0,0.0,0
-22.959732,-67.786895,19.60,0.00,0.51,0.37,19.60,19.60,3.60,0.58,10165,2025-11-28 18:37:30.989,2025-11-28 15:37:30.989,16,0,0,48.416,-22.959730,-67.786898,-0.10,0.50,0.00,-7.40,0.10,104.70,0,1,0,97,97,-47345,15864,48416,2961.50,15,WP,1,0,0,0,0,0,0,1764355050988,3979,3978,3997,3977,3996,3977,18,,,,,,,0,0,0,74.00,1.00,1047.00,0.00,0.00,72.00,14,196.00,5.10,3.75,-1.00,5.00,0.00,0,,,100,98,13,2,0,0,1,1,0,,,,,0.0,0.0,0.0,0.0,0.0,0.0,0
-22.959732,-67.786894,19.60,0.00,0.73,0.45,19.60,19.60,3.60,0.58,10270,2025-11-28 18:37:31.094,2025-11-28 15:37:31.094,16,0,0,48.416,-22.959730,-67.786898,-0.20,0.70,0.00,-8.50,0.00,104.80,0,1,0,97,97,-47345,15864,48416,2961.50,15,WP,1,0,0,0,0,0,0,1764355051093,3979,3978,3997,3977,3996,3977,18,,,,,,,0,0,0,85.00,0.00,1048.00,0.00,0.00,67.00,14,196.00,7.28,4.49,-2.00,7.00,0.00,0,,,100,98,13,2,0,0,1,1,0,,,,,0.0,0.0,0.0,0.0,0.0,0.0,0
-22.959732,-67.786893,19.60,0.00,0.92,0.55,19.60,19.60,3.60,0.58,10367,2025-11-28 18:37:31.190,2025-11-28 15:37:31.190,16,0,0,48.416,-22.959730,-67.786898,-0.20,0.90,0.00,-9.10,-0.50,104.90,0,1,0,97,97,-47345,15864,48416,2961.50,15,WP,1,0,0,0,0,0,0,1764355051190,3979,3978,3997,3977,3996,3977,18,,,,,,,0,0,0,91.00,-5.00,1049.00,0.00,0.00,63.00,14,196.00,9.22,5.48,-2.00,9.00,0.00,0,,,100,98,13,2,0,0,1,1,0,,,,,0.0,0.0,0.0,0.0,0.0,0.0,0
-22.959733,-67.786892,19.60,0.00,1.12,0.68,19.60,19.60,3.60,0.68,10469,2025-11-28 18:37:31.292,2025-11-28 15:37:31.292,16,0,0,48.416,-22.959730,-67.786898,-0.20,1.10,0.00,-9.20,-1.00,104.90,0,1,0,97,97,-47345,15864,48416,2961.50,15,WP,1,0,0,0,0,0,0,1764355051292,3979,3978,3997,3977,3996,3977,18,,,,,,,0,0,0,92.00,-10.00,1049.00,0.00,0.00,59.00,14,196.00,11.18,6.84,-2.00,11.00,0.00,0,,,100,98,13,2,0,0,1,1,0,,,,,0.0,0.0,0.0,0.0,0.0,0.0,0
-22.959733,-67.786890,19.60,0.00,1.41,0.84,19.60,19.60,3.60,0.84,10571,2025-11-28 18:37:31.394,2025-11-28 15:37:31.394,16,0,0,48.416,-22.959730,-67.786898,-0.20,1.40,0.00,-9.40,-1.20,104.90,0,1,0,97,97,-47345,15864,48416,2961.50,15,WP,1,0,0,0,0,0,0,1764355051394,3979,3978,3997,3977,3996,3977,18,,,,,,,0,0,0,94.00,-12.00,1049.00,0.00,0.00,59.00,14,196.00,14.14,8.41,-2.00,14.00,0.00,0,,,100,98,13,2,0,0,1,1,0,,,,,0.0,0.0,0.0,0.0,0.0,0.0,0
-22.959734,-67.786889,19.60,0.00,1.63,1.04,19.60,19.60,3.60,1.04,10671,2025-11-28 18:37:31.495,2025-11-28 15:37:31.495,16,0,0,48.416,-22.959730,-67.786898,-0.30,1.60,0.00,-9.40,-1.20,104.90,0,1,0,97,97,-47345,15864,48416,2961.50,15,WP,1,0,0,0,0,0,0,1764355051494,3979,3978,3997,3977,3996,3977,18,,,,,,,0,0,0,94.00,-12.00,1049.00,0.00,0.00,54.00,14,196.00,16.28,10.35,-3.00,16.00,0.00,0,,,100,94,13,2,0,0,1,1,0,,,,,0.0,0.0,0.0,0.0,0.0,0.0,0
-22.959734,-67.786884,19.60,0.00,2.02,1.50,19.60,19.60,3.60,1.50,10873,2025-11-28 18:37:31.696,2025-11-28 15:37:31.696,16,0,0,48.416,-22.959730,-67.786898,-0.30,2.00,0.00,-9.70,0.00,104.40,0,1,0,97,97,-47345,15864,48416,2961.50,15,WP,1,0,0,0,0,0,0,1764355051696,3979,3978,3997,3977,3996,3977,18,,,,,,,0,0,0,97.00,0.00,1044.00,0.00,0.00,53.00,14,196.00,20.22,15.04,-3.00,20.00,0.00,0,,,100,94,13,2,0,0,1,1,0,,,,,0.0,0.0,0.0,0.0,0.0,0.0,0
-22.959735,-67.786881,19.60,0.00,2.24,1.77,19.60,19.60,3.60,1.77,10974,2025-11-28 18:37:31.797,2025-11-28 15:37:31.797,16,0,0,48.416,-22.959730,-67.786898,-0.40,2.20,0.00,-9.80,0.80,104.30,0,1,0,97,97,-47345,15864,48416,2961.50,15,WP,1,0,0,0,0,0,0,1764355051797,3979,3978,3997,3977,3996,3977,18,,,,,,,0,0,0,98.00,8.00,1043.00,0.00,0.00,53.00,14,196.00,22.36,17.73,-4.00,22.00,0.00,0,,,100,94,13,2,0,0,1,1,0,,,,,0.0,0.0,0.0,0.0,0.0,0.0,0
-22.959735,-67.786878,19.70,0.00,2.55,2.08,19.70,19.70,3.60,2.08,11081,2025-11-28 18:37:31.904,2025-11-28 15:37:31.904,16,0,0,48.416,-22.959730,-67.786898,-0.50,2.50,0.00,-10.10,1.70,104.30,0,1,0,97,97,-47345,15864,48416,2961.50,15,WP,1,0,0,0,0,0,0,1764355051904,3979,3978,3997,3977,3996,3977,18,,,,,,,0,0,0,101.00,17.00,1043.00,0.00,0.00,52.00,14,197.00,25.50,20.83,-5.00,25.00,0.00,0,,,100,94,13,2,0,0,1,1,0,,,,,0.0,0.0,0.0,0.0,0.0,0.0,0
-22.959736,-67.786875,19.70,0.00,2.75,2.40,19.70,19.70,3.60,2.40,11181,2025-11-28 18:37:32.005,2025-11-28 15:37:32.005,16,0,0,48.416,-22.959730,-67.786898,-0.50,2.70,0.00,-10.60,2.40,104.40,0,1,0,97,97,-47345,15864,48416,2961.50,15,WP,1,0,0,0,0,0,0,1764355052004,3979,3978,3997,3977,3996,3977,18,,,,,,,0,0,0,106.00,24.00,1044.00,0.00,0.00,49.00,14,197.00,27.46,24.03,-5.00,27.00,0.00,0,,,100,95,13,2,0,0,1,1,0,,,,,0.0,0.0,0.0,0.0,0.0,0.0,0
-22.959737,-67.786872,19.70,0.00,2.96,2.77,19.70,19.70,3.60,2.77,11274,2025-11-28 18:37:32.097,2025-11-28 15:37:32.097,16,0,0,48.416,-22.959730,-67.786898,-0.60,2.90,0.00,-11.00,2.20,104.60,0,1,0,97,97,-47345,15864,48416,2961.50,15,WP,1,0,0,0,0,0,0,1764355052097,3979,3978,3997,3977,3996,3977,18,,,,,,,0,0,0,110.00,22.00,1046.00,0.00,0.00,45.00,14,197.00,29.61,27.67,-6.00,29.00,0.00,0,,,100,95,13,2,0,0,1,1,0,,,,,0.0,0.0,0.0,0.0,0.0,0.0,0
-22.959738,-67.786868,19.70,0.00,3.28,3.14,19.70,19.70,3.60,3.14,11380,2025-11-28 18:37:32.203,2025-11-28 15:37:32.203,16,0,0,48.416,-22.959730,-67.786898,-0.70,3.20,0.00,-11.30,1.40,104.70,0,1,0,97,97,-47345,15864,48416,2961.50,15,WP,1,0,0,0,0,0,0,1764355052203,3979,3978,3997,3977,3996,3977,18,,,,,,,0,0,0,113.00,14.00,1047.00,0.00,0.00,42.00,14,197.00,32.76,31.41,-7.00,32.00,0.00,0,,,100,95,13,2,0,0,1,1,0,,,,,0.0,0.0,0.0,0.0,0.0,0.0,0
-22.959739,-67.786864,19.70,0.00,3.49,3.56,19.70,19.70,3.60,3.56,11481,2025-11-28 18:37:32.305,2025-11-28 15:37:32.305,16,0,0,48.416,-22.959730,-67.786898,-0.80,3.40,0.00,-11.70,0.30,104.70,0,1,0,97,97,-47345,15864,48416,2961.50,15,WP,1,0,0,0,0,0,0,1764355052304,3979,3978,3997,3977,3996,3977,18,,,,,,,0,0,0,117.00,3.00,1047.00,0.00,0.00,42.00,14,197.00,34.93,35.61,-8.00,34.00,0.00,0,,,100,95,13,2,0,0,1,1,0,,,,,0.0,0.0,0.0,0.0,0.0,0.0,0
-22.959739,-67.786860,19.70,0.00,3.79,3.99,19.70,19.70,3.79,3.99,11581,2025-11-28 18:37:32.405,2025-11-28 15:37:32.405,16,0,0,48.416,-22.959730,-67.786898,-0.80,3.70,0.00,-11.80,-0.10,104.70,0,1,0,97,97,-47345,15864,48416,2961.50,15,WP,1,0,0,0,0,0,0,1764355052404,3979,3978,3997,3977,3996,3977,18,,,,,,,0,0,0,118.00,-1.00,1047.00,0.00,0.00,42.00,14,197.00,37.85,39.92,-8.00,37.00,0.00,0,,,100,95,13,2,0,0,1,1,0,,,,,0.0,0.0,0.0,0.0,0.0,0.0,0
-22.959742,-67.786846,19.70,0.00,4.59,5.48,19.70,19.70,4.59,5.48,11878,2025-11-28 18:37:32.701,2025-11-28 15:37:32.701,16,0,0,48.405,-22.959730,-67.786898,-0.90,4.50,0.00,-10.90,-0.50,104.60,0,1,0,97,97,-49399,15864,48405,2961.50,15,WP,1,0,0,0,0,0,0,1764355052701,3979,3978,3997,3977,3996,3977,18,,,,,,,0,0,0,109.00,-5.00,1046.00,0.00,0.00,34.00,14,197.00,45.89,54.83,-9.00,45.00,0.00,0,,,100,95,13,2,0,0,1,1,0,,,,,0.0,0.0,0.0,0.0,0.0,0.0,0
-22.959743,-67.786841,19.70,0.00,4.79,6.02,19.70,19.70,4.79,6.02,11982,2025-11-28 18:37:32.805,2025-11-28 15:37:32.805,16,0,0,48.405,-22.959730,-67.786898,-0.90,4.70,0.00,-10.90,-0.30,104.50,0,1,0,97,97,-49399,15864,48405,2961.50,15,WP,1,0,0,0,0,0,0,1764355052805,3979,3978,3997,3977,3996,3977,18,,,,,,,0,0,0,109.00,-3.00,1045.00,0.00,0.00,34.00,14,197.00,47.85,60.19,-9.00,47.00,0.00,0,,,100,95,13,2,0,0,1,1,0,,,,,0.0,0.0,0.0,0.0,0.0,0.0,0
-22.959745,-67.786835,19.70,0.00,5.10,6.61,19.70,19.70,5.10,6.61,12082,2025-11-28 18:37:32.906,2025-11-28 15:37:32.906,16,0,0,48.405,-22.959730,-67.786898,-1.00,5.00,0.00,-10.80,0.00,104.50,0,1,0,97,97,-49399,15864,48405,2961.50,15,WP,1,0,0,0,0,0,0,1764355052905,3979,3978,3997,3977,3996,3977,18,,,,,,,0,0,0,108.00,0.00,1045.00,0.00,0.00,31.00,14,197.00,50.99,66.14,-10.00,50.00,0.00,0,,,100,95,13,2,0,0,1,1,0,,,,,0.0,0.0,0.0,0.0,0.0,0.0,0
-22.959746,-67.786830,19.70,0.00,5.30,7.21,19.70,19.70,5.30,7.21,12179,2025-11-28 18:37:33.003,2025-11-28 15:37:33.003,16,0,0,48.405,-22.959730,-67.786898,-1.00,5.20,0.00,-10.40,0.50,104.60,0,1,0,97,97,-49399,15864,48405,2961.50,15,WP,1,0,0,0,0,0,0,1764355053002,3979,3978,3997,3977,3996,3977,18,,,,,,,0,0,0,104.00,5.00,1046.00,0.00,0.00,29.00,14,197.00,52.95,72.10,-10.00,52.00,0.00,0,,,100,95,13,2,0,0,1,1,0,,,,,0.0,0.0,0.0,0.0,0.0,0.0,0
-22.959747,-67.786823,19.60,0.00,5.61,7.87,19.70,19.70,5.61,7.87,12281,2025-11-28 18:37:33.104,2025-11-28 15:37:33.105,16,0,0,48.405,-22.959730,-67.786898,-1.10,5.50,0.00,-10.00,0.80,104.60,0,1,0,97,97,-49399,15864,48405,2961.50,15,WP,1,0,0,0,0,0,0,1764355053104,3979,3978,3997,3977,3996,3977,18,,,,,,,0,0,0,100.00,8.00,1046.00,0.00,0.00,27.00,14,196.00,56.09,78.74,-11.00,55.00,0.00,0,,,100,95,13,2,0,0,1,1,0,,,,,0.0,0.0,0.0,0.0,0.0,0.0,0
-22.959748,-67.786817,19.60,0.00,5.81,8.53,19.70,19.70,5.81,8.53,12289,2025-11-28 18:37:33.113,2025-11-28 15:37:33.113,16,0,0,48.405,-22.959730,-67.786898,-1.10,5.70,0.00,-9.60,1.00,104.60,0,1,0,97,97,-49399,15864,48405,2961.50,15,WP,1,0,0,0,0,0,0,1764355053112,3979,3978,3997,3977,3996,3977,18,,,,,,,0,0,0,96.00,10.00,1046.00,0.00,0.00,25.00,14,196.00,58.05,85.29,-11.00,57.00,0.00,0,,,100,95,13,2,0,0,1,1,0,,,,,0.0,0.0,0.0,0.0,0.0,0.0,0
-22.959749,-67.786811,19.60,0.00,6.12,9.21,19.70,19.70,6.12,9.21,12384,2025-11-28 18:37:33.208,2025-11-28 15:37:33.208,16,0,0,48.405,-22.959730,-67.786898,-1.20,6.00,0.00,-9.00,1.20,104.50,0,1,0,97,97,-49399,15864,48405,2961.50,15,WP,1,0,0,0,0,0,0,1764355053207,3979,3978,3997,3977,3996,3977,18,,,,,,,0,0,0,90.00,12.00,1045.00,0.00,0.00,24.00,14,196.00,61.19,92.11,-12.00,60.00,0.00,0,,,100,95,13,2,0,0,1,1,0,,,,,0.0,0.0,0.0,0.0,0.0,0.0,0
-22.959751,-67.786804,19.60,0.00,6.33,9.89,19.70,19.70,6.33,9.89,12584,2025-11-28 18:37:33.407,2025-11-28 15:37:33.407,16,0,0,48.405,-22.959730,-67.786898,-1.30,6.20,0.00,-8.40,1.30,104.40,0,1,0,97,97,-49399,15864,48405,2961.50,15,WP,1,0,0,0,0,0,0,1764355053407,3979,3978,3997,3977,3996,3977,18,,,,,,,0,0,0,84.00,13.00,1044.00,0.00,0.00,23.00,14,196.00,63.35,98.88,-13.00,62.00,0.00,0,,,100,95,13,2,0,0,1,1,0,,,,,0.0,0.0,0.0,0.0,0.0,0.0,0
-22.959752,-67.786797,19.60,0.00,6.53,10.62,19.70,19.70,6.53,10.62,12686,2025-11-28 18:37:33.509,2025-11-28 15:37:33.509,16,0,0,48.405,-22.959730,-67.786898,-1.30,6.40,0.10,-7.90,1.00,104.40,0,1,0,97,97,-49399,15864,48405,2961.50,15,WP,1,0,0,0,0,0,0,1764355053509,3979,3978,3997,3977,3996,3977,18,,,,,,,0,0,0,79.00,10.00,1044.00,0.00,0.00,22.00,14,196.00,65.31,106.24,-13.00,64.00,1.00,0,,,100,96,13,2,0,0,1,1,0,,,,,0.0,0.0,0.0,0.0,0.0,0.0,0
-22.959755,-67.786783,19.60,0.00,6.84,12.14,19.70,19.70,6.84,12.14,12886,2025-11-28 18:37:33.709,2025-11-28 15:37:33.709,16,0,0,47.904,-22.959730,-67.786898,-1.40,6.70,0.00,-8.00,0.80,104.30,0,1,0,97,97,-54901,15864,47904,2961.50,15,WP,1,0,0,0,0,0,0,1764355053709,3979,3978,3997,3977,3996,3977,18,,,,,,,0,0,0,80.00,8.00,1043.00,0.00,0.00,20.00,14,196.00,68.45,121.37,-14.00,67.00,0.00,0,,,100,96,13,2,0,0,1,1,0,,,,,0.0,0.0,0.0,0.0,0.0,0.0,0
-22.959758,-67.786768,19.60,0.00,7.26,13.71,19.70,19.70,7.26,13.71,12998,2025-11-28 18:37:33.822,2025-11-28 15:37:33.822,16,0,0,47.904,-22.959730,-67.786898,-1.50,7.10,0.00,-8.70,0.70,104.20,0,1,0,97,97,-54901,15864,47904,2961.50,15,WP,1,0,0,0,0,0,0,1764355053821,3979,3978,3997,3977,3996,3977,18,,,,,,,0,0,0,87.00,7.00,1042.00,0.00,0.00,17.00,14,196.00,72.57,137.12,-15.00,71.00,0.00,0,,,100,96,13,2,0,0,1,1,0,,,,,0.0,0.0,0.0,0.0,0.0,0.0,0
-22.959760,-67.786760,19.60,0.00,7.57,14.51,19.70,19.70,7.57,14.51,13089,2025-11-28 18:37:33.913,2025-11-28 15:37:33.913,16,0,0,47.904,-22.959730,-67.786898,-1.60,7.40,0.00,-8.60,0.60,104.20,0,1,0,97,97,-54901,15864,47904,2961.50,15,WP,1,0,0,0,0,0,0,1764355053912,3979,3978,3997,3977,3996,3977,18,,,,,,,0,0,0,86.00,6.00,1042.00,0.00,0.00,16.00,14,196.00,75.71,145.11,-16.00,74.00,0.00,0,,,100,98,13,2,0,0,1,1,0,,,,,0.0,0.0,0.0,0.0,0.0,0.0,0
-22.959762,-67.786752,19.60,0.00,7.77,15.35,19.70,19.70,7.77,15.35,13194,2025-11-28 18:37:34.017,2025-11-28 15:37:34.017,16,0,0,47.904,-22.959730,-67.786898,-1.60,7.60,0.00,-8.00,0.40,104.20,0,1,0,97,97,-54901,15864,47904,2961.50,15,WP,1,0,0,0,0,0,0,1764355054017,3979,3978,3997,3977,3996,3977,18,,,,,,,0,0,0,80.00,4.00,1042.00,0.00,0.00,14.00,14,196.00,77.67,153.54,-16.00,76.00,0.00,0,,,100,98,13,2,0,0,1,1,0,,,,,0.0,0.0,0.0,0.0,0.0,0.0,0
-22.959763,-67.786744,19.50,0.00,7.98,16.19,19.70,19.70,7.98,16.19,13289,2025-11-28 18:37:34.112,2025-11-28 15:37:34.112,16,0,0,47.904,-22.959730,-67.786898,-1.70,7.80,0.00,-7.30,0.20,104.30,0,1,0,97,97,-54901,15864,47904,2961.50,15,WP,1,0,0,0,0,0,0,1764355054112,3979,3978,3997,3977,3996,3977,18,,,,,,,0,0,0,73.00,2.00,1043.00,0.00,0.00,14.00,14,195.00,79.83,161.93,-17.00,78.00,0.00,0,,,100,98,13,2,0,0,1,1,0,,,,,0.0,0.0,0.0,0.0,0.0,0.0,0
-22.959765,-67.786736,19.50,0.00,8.18,17.10,19.70,19.70,8.18,17.10,13395,2025-11-28 18:37:34.219,2025-11-28 15:37:34.219,16,0,0,47.904,-22.959730,-67.786898,-1.70,8.00,0.00,-7.10,0.00,104.40,0,1,0,97,97,-54901,15864,47904,2961.50,15,WP,1,0,0,0,0,0,0,1764355054218,3979,3978,3997,3977,3996,3977,18,,,,,,,0,0,0,71.00,0.00,1044.00,0.00,0.00,10.00,14,195.00,81.79,171.02,-17.00,80.00,0.00,0,,,100,98,13,2,0,0,1,1,0,,,,,0.0,0.0,0.0,0.0,0.0,0.0,0
-22.959767,-67.786727,19.50,0.00,8.37,18.00,19.70,19.70,8.37,18.00,13499,2025-11-28 18:37:34.322,2025-11-28 15:37:34.323,16,0,0,47.904,-22.959730,-67.786898,-1.70,8.20,0.00,-7.20,0.20,104.60,0,1,0,97,97,-54901,15864,47904,2961.50,15,WP,1,0,0,0,0,0,0,1764355054322,3979,3978,3997,3977,3996,3977,18,,,,,,,0,0,0,72.00,2.00,1046.00,0.00,0.00,10.00,14,195.00,83.74,179.96,-17.00,82.00,0.00,0,,,100,98,13,2,0,0,1,1,0,,,,,0.0,0.0,0.0,0.0,0.0,0.0,0
-22.959768,-67.786718,19.50,0.00,8.47,18.92,19.70,19.70,8.47,18.92,13590,2025-11-28 18:37:34.414,2025-11-28 15:37:34.414,16,0,0,47.904,-22.959730,-67.786898,-1.70,8.30,0.00,-7.00,0.90,104.70,0,1,0,97,97,-54901,15864,47904,2961.50,15,WP,1,0,0,0,0,0,0,1764355054413,3979,3978,3997,3977,3996,3977,18,,,,,,,0,0,0,70.00,9.00,1047.00,0.00,0.00,2.00,14,195.00,84.72,189.22,-17.00,83.00,0.00,0,,,100,98,13,2,0,0,1,1,0,,,,,0.0,0.0,0.0,0.0,0.0,0.0,0
-22.959772,-67.786701,19.60,0.00,8.69,20.76,19.70,19.70,8.69,20.76,13797,2025-11-28 18:37:34.620,2025-11-28 15:37:34.620,16,0,0,47.904,-22.959730,-67.786898,-1.80,8.50,0.00,-3.80,1.50,104.90,0,1,0,97,97,-54901,15864,47904,2961.50,15,WP,1,0,0,0,0,0,0,1764355054620,3979,3978,3997,3977,3996,3977,18,,,,,,,0,0,0,38.00,15.00,1049.00,0.00,0.00,-2.00,14,196.00,86.88,207.62,-18.00,85.00,0.00,0,,,100,98,13,2,0,0,1,1,0,,,,,0.0,0.0,0.0,0.0,0.0,0.0,0
-22.959774,-67.786692,19.60,0.00,8.79,21.68,19.70,19.70,8.79,21.68,13895,2025-11-28 18:37:34.718,2025-11-28 15:37:34.718,16,0,0,47.753,-22.959730,-67.786898,-1.80,8.60,0.00,-1.50,1.40,104.90,0,1,0,97,97,-54697,15864,47753,2961.50,15,WP,1,0,0,0,0,0,0,1764355054718,3979,3978,3997,3977,3996,3977,18,,,,,,,0,0,0,15.00,14.00,1049.00,0.00,0.00,-2.00,14,196.00,87.86,216.80,-18.00,86.00,0.00,0,,,100,98,13,2,0,0,1,1,0,,,,,0.0,0.0,0.0,0.0,0.0,0.0,0
-22.959775,-67.786683,19.60,0.00,8.79,22.63,19.70,19.70,8.79,22.63,13996,2025-11-28 18:37:34.820,2025-11-28 15:37:34.820,16,0,0,47.753,-22.959730,-67.786898,-1.80,8.60,0.00,0.40,1.50,104.90,0,1,0,97,97,-54697,15864,47753,2961.50,15,WP,1,0,0,0,0,0,0,1764355054819,3979,3978,3997,3977,3996,3977,18,,,,,,,0,0,0,-4.00,15.00,1049.00,0.00,0.00,-6.00,14,196.00,87.86,226.32,-18.00,86.00,0.00,0,,,100,98,13,2,0,0,1,1,0,,,,,0.0,0.0,0.0,0.0,0.0,0.0,0
-22.959777,-67.786674,19.60,0.00,8.79,23.57,19.70,19.70,8.79,23.57,14099,2025-11-28 18:37:34.923,2025-11-28 15:37:34.923,16,0,0,47.753,-22.959730,-67.786898,-1.80,8.60,0.00,1.90,1.60,104.90,0,1,0,97,97,-54697,15864,47753,2961.50,15,WP,1,0,0,0,0,0,0,1764355054922,3979,3978,3997,3977,3996,3977,18,,,,,,,0,0,0,-19.00,16.00,1049.00,0.00,0.00,-8.00,14,196.00,87.86,235.66,-18.00,86.00,0.00,0,,,100,98,13,2,0,0,1,1,0,,,,,0.0,0.0,0.0,0.0,0.0,0.0,0
-22.959781,-67.786656,19.60,0.00,8.79,25.44,19.70,19.70,8.79,25.44,14297,2025-11-28 18:37:35.120,2025-11-28 15:37:35.120,16,0,0,47.753,-22.959730,-67.786898,-1.80,8.60,0.00,4.30,2.10,104.90,0,1,0,97,97,-54697,15864,47753,2961.50,15,WP,1,0,0,0,0,0,0,1764355055120,3979,3978,3997,3977,3996,3977,18,,,,,,,0,0,0,-43.00,21.00,1049.00,0.00,0.00,-11.00,14,196.00,87.86,254.40,-18.00,86.00,0.00,0,,,100,98,13,2,0,0,1,1,0,,,,,0.0,0.0,0.0,0.0,0.0,0.0,0
-22.959782,-67.786647,19.60,0.00,8.79,26.35,19.70,19.70,8.79,26.35,14400,2025-11-28 18:37:35.223,2025-11-28 15:37:35.223,16,0,0,47.753,-22.959730,-67.786898,-1.80,8.60,0.00,5.20,1.90,105.00,0,1,0,97,97,-54697,15864,47753,2961.50,15,WP,1,0,0,0,0,0,0,1764355055223,3979,3978,3997,3977,3996,3977,18,,,,,,,0,0,0,-52.00,19.00,1050.00,0.00,0.00,-13.00,14,196.00,87.86,263.50,-18.00,86.00,0.00,0,,,100,98,13,2,0,0,1,1,0,,,,,0.0,0.0,0.0,0.0,0.0,0.0,0
-22.959784,-67.786639,19.60,0.00,8.69,27.24,19.70,19.70,8.79,27.24,14501,2025-11-28 18:37:35.324,2025-11-28 15:37:35.324,16,0,0,47.753,-22.959730,-67.786898,-1.80,8.50,0.00,6.00,1.60,105.10,0,1,0,97,97,-54697,15864,47753,2961.50,15,WP,1,0,0,0,0,0,0,1764355055324,3979,3978,3997,3977,3996,3977,18,,,,,,,0,0,0,-60.00,16.00,1051.00,0.00,0.00,-13.00,14,196.00,86.88,272.37,-18.00,85.00,0.00,0,,,100,98,13,2,0,0,1,1,0,,,,,0.0,0.0,0.0,0.0,0.0,0.0,0
-22.959786,-67.786630,19.60,0.00,8.69,28.13,19.70,19.70,8.79,28.13,14601,2025-11-28 18:37:35.424,2025-11-28 15:37:35.424,16,0,0,47.753,-22.959730,-67.786898,-1.80,8.50,0.00,6.30,1.30,105.10,0,1,0,97,97,-54697,15864,47753,2961.50,15,WP,1,0,0,0,0,0,0,1764355055424,3979,3978,3997,3977,3996,3977,18,,,,,,,0,0,0,-63.00,13.00,1051.00,0.00,0.00,-14.00,14,196.00,86.88,281.32,-18.00,85.00,0.00,0,,,100,99,13,2,0,0,1,1,0,,,,,0.0,0.0,0.0,0.0,0.0,0.0,0
-22.959789,-67.786613,19.70,0.00,8.47,29.90,19.70,19.70,8.79,29.90,14803,2025-11-28 18:37:35.626,2025-11-28 15:37:35.626,16,0,0,47.753,-22.959730,-67.786898,-1.70,8.30,-0.10,5.00,1.40,105.10,0,1,0,97,97,-54697,15864,47753,2961.50,15,WP,1,0,0,0,0,0,0,1764355055626,3979,3978,3997,3977,3996,3977,18,,,,,,,0,0,0,-50.00,14.00,1051.00,0.00,0.00,-14.00,14,197.00,84.73,298.98,-17.00,83.00,-1.00,0,,,100,99,13,2,0,0,1,1,0,,,,,0.0,0.0,0.0,0.0,0.0,0.0,0
-22.959791,-67.786605,19.70,0.00,8.37,30.76,19.70,19.70,8.79,30.76,14903,2025-11-28 18:37:35.727,2025-11-28 15:37:35.727,16,0,0,47.753,-22.959730,-67.786898,-1.70,8.20,-0.10,4.30,2.10,105.20,0,1,0,97,97,-54697,15864,47753,2961.50,15,WP,1,0,0,0,0,0,0,1764355055726,3979,3978,3997,3977,3996,3977,18,,,,,,,0,0,0,-43.00,21.00,1052.00,0.00,0.00,-15.00,14,197.00,83.75,307.64,-17.00,82.00,-1.00,0,,,100,99,13,2,0,0,1,1,0,,,,,0.0,0.0,0.0,0.0,0.0,0.0,0
-22.959792,-67.786597,19.70,0.00,8.28,31.60,19.70,19.70,8.79,31.60,15003,2025-11-28 18:37:35.826,2025-11-28 15:37:35.827,16,0,0,47.753,-22.959730,-67.786898,-1.70,8.10,-0.10,3.80,2.80,105.20,0,1,0,97,97,-54697,15864,47753,2961.50,15,WP,1,0,0,0,0,0,0,1764355055826,3979,3978,3997,3977,3996,3977,18,,,,,,,0,0,0,-38.00,28.00,1052.00,0.00,0.00,-15.00,14,197.00,82.77,315.99,-17.00,81.00,-1.00,0,,,100,99,13,2,0,0,1,1,0,,,,,0.0,0.0,0.0,0.0,0.0,0.0,0
-22.959794,-67.786589,19.70,0.00,8.28,32.42,19.70,19.70,8.79,32.42,15106,2025-11-28 18:37:35.929,2025-11-28 15:37:35.929,16,0,0,47.753,-22.959730,-67.786898,-1.70,8.10,-0.10,4.10,3.10,105.20,0,1,0,97,97,-54697,15864,47753,2961.50,15,WP,1,0,0,0,0,0,0,1764355055929,3979,3978,3997,3977,3996,3977,18,,,,,,,0,0,0,-41.00,31.00,1052.00,0.00,0.00,-15.00,14,197.00,82.77,324.17,-17.00,81.00,-1.00,0,,,100,99,13,2,0,0,1,1,0,,,,,0.0,0.0,0.0,0.0,0.0,0.0,0
-22.959795,-67.786582,19.70,0.00,8.28,33.23,19.70,19.70,8.79,33.23,15205,2025-11-28 18:37:36.029,2025-11-28 15:37:36.029,16,0,0,47.753,-22.959730,-67.786898,-1.70,8.10,0.00,4.90,3.10,105.20,0,1,0,97,97,-54697,15864,47753,2961.50,15,WP,1,0,0,0,0,0,0,1764355056028,3979,3978,3997,3977,3996,3977,18,,,,,,,0,0,0,-49.00,31.00,1052.00,0.00,0.00,-15.00,14,197.00,82.76,332.29,-17.00,81.00,0.00,0,,,100,99,13,2,0,0,1,1,0,,,,,0.0,0.0,0.0,0.0,0.0,0.0,0
-22.959797,-67.786574,19.70,0.00,8.18,34.03,19.70,19.70,8.79,34.03,15303,2025-11-28 18:37:36.127,2025-11-28 15:37:36.127,16,0,0,47.753,-22.959730,-67.786898,-1.70,8.00,0.00,5.50,2.90,105.30,0,1,0,97,97,-54697,15864,47753,2961.50,15,WP,1,0,0,0,0,0,0,1764355056126,3979,3978,3997,3977,3996,3977,18,,,,,,,0,0,0,-55.00,29.00,1053.00,0.00,0.00,-16.00,14,197.00,81.79,340.35,-17.00,80.00,0.00,0,,,100,99,13,2,0,0,1,1,0,,,,,0.0,0.0,0.0,0.0,0.0,0.0,0
