latitude,longitude,altitude(m),ultrasonicHeight(m),speed(mps),distance(m),max_altitude(m),max_ascent(m),max_speed(mps),max_distance(m),time(millisecond),datetime(utc),datetime(local),satellites,pressure(Pa),temperature(F),voltage(v),home_latitude,home_longitude,velocityX(mps),velocityY(mps),velocityZ(mps),pitch(deg),roll(deg),yaw(deg),powerlevel,isflying,istakingphoto,remainPowerPercent,remainLifePercent,currentCurrent,currentElectricity,currentVoltage,batteryTemperature,dischargeCount,flightmode,isMotorsOn,isTakingVideo,Rc_elevator,Rc_aileron,Rc_throttle,Rc_rudder,Rc_gyro,timestamp,Battery_Cell1,Battery_Cell2,Battery_Cell3,Battery_Cell4,Battery_Cell5,Battery_Cell6,Dronetype,AppVersion,Planename,FlyControllerSerialNumber,RemoteSerialNumber,BatterySerialNumber,CENTER_BATTERY.productDate,CENTER_BATTERY.serialNo,CENTER_BATTERY.fullCapacity,CENTER_BATTERY.productDateRaw,pitchRaw,rollRaw,yawRaw,gimbalPitchRaw,gimbalRollRaw,gimbalYawRaw,flyState,altitudeRaw,speedRaw,distanceRaw,velocityXRaw,velocityYRaw,velocityZRaw,data_reuse,App_Tip,App_Warning,downlinkSignalQuality,uplinkSignalQuality,transmissionChannel,rcModeSwitch,rcHome,rcPause,rcTransform,rcJoystickMode,appMode,FlyControllerSerialNumber_legacy,RemoteSerialNumber_legacy,BatterySerialNumber_legacy,Battery2SerialNumber,frontAvoidDist,backAvoidDist,rightAvoidDist,leftAvoidDist,upAvoidDist,downAvoidDist,isBrakingToAvoid
-22.959728,-67.786903,0.60,0.00,0.87,0.47,0.60,0.60,0.87,0.47,3,2025-11-27 18:00:35.121,2025-11-27 19:00:35.122,13,0,0,51.936,-22.959732,-67.786904,0.50,0.10,-0.70,-1.30,2.90,117.60,0,1,0,99,88,-1307,14211,51936,2951.50,50,TakeOff,1,0,0,0,0,0,0,1764266435120,4326,4328,4324,4334,4334,4332,18,Litchi_iOS_2.15.7,EIK Matrice 1,0670131556,03LLCA05XT,,,0,14307,0,13.00,29.00,1176.00,0.00,0.00,0.00,11,6.00,8.66,4.69,5.00,1.00,-7.00,0,,,100,100,13,2,0,0,1,1,0,(null),(null),(null),(null),0.0,0.0,0.0,0.0,0.0,0.0,0
-22.959727,-67.786903,0.70,0.00,0.73,0.53,0.70,0.70,0.87,0.53,101,2025-11-27 18:00:35.219,2025-11-27 19:00:35.219,13,0,0,51.936,-22.959732,-67.786904,0.40,0.10,-0.60,-1.80,3.30,117.50,0,1,0,99,88,-1307,14211,51936,2951.50,50,TakeOff,1,0,0,0,0,0,0,1764266435218,4326,4328,4324,4334,4334,4332,18,,,,,,,0,0,0,18.00,33.00,1175.00,0.00,0.00,0.00,11,7.00,7.28,5.33,4.00,1.00,-6.00,0,,,100,100,13,2,0,0,1,1,0,,,,,0.0,0.0,0.0,0.0,0.0,0.0,0
-22.959727,-67.786903,0.70,0.00,0.73,0.59,0.70,0.70,0.87,0.59,117,2025-11-27 18:00:35.235,2025-11-27 19:00:35.235,13,0,0,51.936,-22.959732,-67.786904,0.40,0.10,-0.60,-2.50,3.80,117.40,0,1,0,99,88,-1307,14211,51936,2951.50,50,TakeOff,1,0,0,0,0,0,0,1764266435234,4326,4328,4324,4334,4334,4332,18,,,,,,,0,0,0,25.00,38.00,1174.00,0.00,0.00,0.00,11,7.00,7.28,5.92,4.00,1.00,-6.00,0,,,100,100,13,2,0,0,1,1,0,,,,,0.0,0.0,0.0,0.0,0.0,0.0,0
-22.959726,-67.786903,0.80,0.00,0.65,0.65,0.80,0.80,0.87,0.65,303,2025-11-27 18:00:35.420,2025-11-27 19:00:35.420,13,0,0,51.936,-22.959732,-67.786904,0.40,0.10,-0.50,-2.40,3.90,117.50,0,1,0,99,88,-1307,14211,51936,2951.50,50,TakeOff,1,0,0,0,0,0,0,1764266435420,4326,4328,4324,4334,4334,4332,18,,,,,,,0,0,0,24.00,39.00,1175.00,0.00,0.00,0.00,11,8.00,6.48,6.50,4.00,1.00,-5.00,0,,,100,100,13,2,0,0,1,1,0,,,,,0.0,0.0,0.0,0.0,0.0,0.0,0
-22.959726,-67.786902,0.80,0.00,0.67,0.70,0.80,0.80,0.87,0.70,403,2025-11-27 18:00:35.520,2025-11-27 19:00:35.520,13,0,0,51.936,-22.959732,-67.786904,0.40,0.20,-0.50,-1.70,4.10,117.50,0,1,0,99,88,-1307,14211,51936,2951.50,50,TakeOff,1,0,0,0,0,0,0,1764266435520,4326,4328,4324,4334,4334,4332,18,,,,,,,0,0,0,17.00,41.00,1175.00,0.00,0.00,0.00,11,8.00,6.71,7.04,4.00,2.00,-5.00,0,,,100,100,13,2,0,0,1,1,0,,,,,0.0,0.0,0.0,0.0,0.0,0.0,0
-22.959725,-67.786902,0.80,0.00,0.67,0.75,0.80,0.80,0.87,0.75,503,2025-11-27 18:00:35.621,2025-11-27 19:00:35.621,13,0,0,51.936,-22.959732,-67.786904,0.40,0.20,-0.50,-0.90,4.20,117.60,0,1,0,99,88,-1307,14211,51936,2951.50,50,TakeOff,1,0,0,0,0,0,0,1764266435620,4326,4328,4324,4334,4334,4332,18,,,,,,,0,0,0,9.00,42.00,1176.00,0.00,0.00,0.00,11,8.00,6.71,7.54,4.00,2.00,-5.00,0,,,100,100,13,2,0,0,1,1,0,,,,,0.0,0.0,0.0,0.0,0.0,0.0,0
-22.959725,-67.786902,0.90,0.00,0.67,0.80,0.90,0.90,0.87,0.80,604,2025-11-27 18:00:35.722,2025-11-27 19:00:35.722,13,0,0,51.936,-22.959732,-67.786904,0.40,0.20,-0.50,-0.50,4.40,117.60,0,1,0,99,88,-1307,14211,51936,2951.50,50,TakeOff,1,0,0,0,0,0,0,1764266435721,4326,4328,4324,4334,4334,4332,18,,,,,,,0,0,0,5.00,44.00,1176.00,0.00,0.00,0.00,11,9.00,6.71,8.03,4.00,2.00,-5.00,0,,,100,100,13,2,0,0,1,1,0,,,,,0.0,0.0,0.0,0.0,0.0,0.0,0
-22.959725,-67.786902,0.90,0.00,0.57,0.84,0.90,0.90,0.87,0.84,705,2025-11-27 18:00:35.823,2025-11-27 19:00:35.823,13,0,0,51.936,-22.959732,-67.786904,0.40,0.10,-0.40,-0.30,4.50,117.60,0,1,0,99,88,-1307,14211,51936,2951.50,50,TakeOff,1,0,0,0,0,0,0,1764266435822,4326,4328,4324,4334,4334,4332,18,,,,,,,0,0,0,3.00,45.00,1176.00,0.00,0.00,0.00,11,9.00,5.74,8.45,4.00,1.00,-4.00,0,,,100,100,13,2,0,0,1,1,0,,,,,0.0,0.0,0.0,0.0,0.0,0.0,0
-22.959724,-67.786902,1.00,0.00,0.59,0.89,1.00,1.00,0.87,0.89,807,2025-11-27 18:00:35.924,2025-11-27 19:00:35.924,13,0,0,51.936,-22.959732,-67.786904,0.30,0.10,-0.50,-0.10,4.50,117.60,0,1,0,99,88,-1307,14211,51936,2951.50,50,TakeOff,1,0,0,0,0,0,0,1764266435924,4326,4328,4324,4334,4334,4332,18,,,,,,,0,0,0,1.00,45.00,1176.00,0.00,0.00,0.00,11,10.00,5.92,8.87,3.00,1.00,-5.00,0,,,100,100,13,2,0,0,1,1,0,,,,,0.0,0.0,0.0,0.0,0.0,0.0,0
-22.959724,-67.786902,1.00,0.00,0.51,0.93,1.00,1.00,0.87,0.93,907,2025-11-27 18:00:36.025,2025-11-27 19:00:36.025,13,0,0,51.936,-22.959732,-67.786904,0.30,0.10,-0.40,-0.30,4.40,117.60,0,1,0,99,88,-1307,14211,51936,2951.50,50,GPS,1,0,0,0,0,0,0,1764266436024,4326,4328,4324,4334,4334,4332,18,,,,,,,0,0,0,3.00,44.00,1176.00,0.00,0.00,0.00,6,10.00,5.10,9.27,3.00,1.00,-4.00,0,,,100,100,13,2,0,0,1,1,0,,,,,0.0,0.0,0.0,0.0,0.0,0.0,0
-22.959724,-67.786901,1.10,0.00,0.51,0.97,1.10,1.10,0.87,0.97,923,2025-11-27 18:00:36.040,2025-11-27 19:00:36.040,13,0,0,51.936,-22.959732,-67.786904,0.30,0.10,-0.40,-0.60,4.30,117.60,0,1,0,99,88,-1307,14211,51936,2951.50,50,WP,1,0,0,0,0,0,0,1764266436040,4326,4328,4324,4334,4334,4332,18,,,,,,,0,0,0,6.00,43.00,1176.00,0.00,0.00,0.00,14,11.00,5.10,9.67,3.00,1.00,-4.00,0,,,100,100,13,2,0,0,1,1,0,,,,,0.0,0.0,0.0,0.0,0.0,0.0,0
-22.959723,-67.786901,1.10,0.00,0.37,1.01,1.10,1.10,0.87,1.01,1008,2025-11-27 18:00:36.126,2025-11-27 19:00:36.126,13,0,0,51.936,-22.959732,-67.786904,0.30,0.10,-0.20,-0.70,4.10,117.60,0,1,0,99,88,-1307,14211,51936,2951.50,50,WP,1,0,0,0,0,0,0,1764266436125,4326,4328,4324,4334,4334,4332,18,,,,,,,0,0,0,7.00,41.00,1176.00,0.00,0.00,0.00,14,11.00,3.74,10.12,3.00,1.00,-2.00,0,,,100,100,13,2,0,0,1,1,0,,,,,0.0,0.0,0.0,0.0,0.0,0.0,0
-22.959723,-67.786901,1.10,0.00,0.37,1.05,1.10,1.10,0.87,1.05,1209,2025-11-27 18:00:36.327,2025-11-27 19:00:36.327,13,0,0,51.936,-22.959732,-67.786904,0.30,0.10,-0.20,-0.90,4.30,117.60,0,1,0,99,88,-1307,14211,51936,2951.50,50,WP,1,0,0,0,0,0,0,1764266436326,4326,4328,4324,4334,4334,4332,18,,,,,,,0,0,0,9.00,43.00,1176.00,0.00,0.00,0.00,14,11.00,3.74,10.54,3.00,1.00,-2.00,0,,,100,100,13,2,0,0,1,1,0,,,,,0.0,0.0,0.0,0.0,0.0,0.0,0
-22.959722,-67.786901,1.10,0.00,0.37,1.10,1.10,1.10,0.87,1.10,1225,2025-11-27 18:00:36.343,2025-11-27 19:00:36.343,13,0,0,51.936,-22.959732,-67.786904,0.30,0.10,-0.20,-0.80,4.90,117.50,0,1,0,99,88,-1307,14211,51936,2951.50,50,WP,1,0,0,0,0,0,0,1764266436342,4326,4328,4324,4334,4334,4332,18,,,,,,,0,0,0,8.00,49.00,1175.00,0.00,0.00,0.00,14,11.00,3.74,10.96,3.00,1.00,-2.00,0,,,100,100,13,2,0,0,1,1,0,,,,,0.0,0.0,0.0,0.0,0.0,0.0,0
-22.959722,-67.786901,1.20,0.00,0.42,1.13,1.20,1.20,0.87,1.13,1316,2025-11-27 18:00:36.433,2025-11-27 19:00:36.433,13,0,0,50.870,-22.959732,-67.786904,0.30,0.00,-0.30,-0.90,5.20,117.60,0,1,0,99,88,-28857,14211,50870,2951.50,50,WP,1,0,0,0,0,0,0,1764266436433,4326,4328,4324,4334,4334,4332,18,,,,,,,0,0,0,9.00,52.00,1176.00,0.00,0.00,0.00,14,12.00,4.24,11.34,3.00,0.00,-3.00,0,,,100,100,13,2,0,0,1,1,0,,,,,0.0,0.0,0.0,0.0,0.0,0.0,0
-22.959722,-67.786901,1.20,0.00,0.50,1.17,1.20,1.20,0.87,1.17,1415,2025-11-27 18:00:36.532,2025-11-27 19:00:36.532,13,0,0,50.870,-22.959732,-67.786904,0.30,0.00,-0.40,-1.30,5.00,117.60,0,1,0,99,88,-28857,14211,50870,2951.50,50,WP,1,0,0,0,0,0,0,1764266436532,4326,4328,4324,4334,4334,4332,18,,,,,,,0,0,0,13.00,50.00,1176.00,0.00,0.00,0.00,14,12.00,5.00,11.74,3.00,0.00,-4.00,0,,,100,100,13,2,0,0,1,1,0,,,,,0.0,0.0,0.0,0.0,0.0,0.0,0
-22.959721,-67.786901,1.20,0.00,0.63,1.21,1.20,1.20,0.87,1.21,1510,2025-11-27 18:00:36.627,2025-11-27 19:00:36.627,13,0,0,50.870,-22.959732,-67.786904,0.20,0.00,-0.60,-1.90,5.00,117.50,0,1,0,99,88,-28857,14211,50870,2951.50,50,WP,1,0,0,0,0,0,0,1764266436627,4326,4328,4324,4334,4334,4332,18,,,,,,,0,0,0,19.00,50.00,1175.00,0.00,0.00,0.00,14,12.00,6.32,12.06,2.00,0.00,-6.00,0,,,100,100,13,2,0,0,1,1,0,,,,,0.0,0.0,0.0,0.0,0.0,0.0,0
-22.959721,-67.786901,1.30,0.00,0.92,1.24,1.30,1.30,0.92,1.24,1618,2025-11-27 18:00:36.735,2025-11-27 19:00:36.736,13,0,0,50.870,-22.959732,-67.786904,0.20,0.00,-0.90,-2.20,4.60,117.60,0,1,0,99,88,-28857,14211,50870,2951.50,50,WP,1,0,0,0,0,0,0,1764266436735,4326,4328,4324,4334,4334,4332,18,,,,,,,0,0,0,22.00,46.00,1176.00,0.00,0.00,0.00,14,13.00,9.22,12.38,2.00,0.00,-9.00,0,,,100,100,13,2,0,0,1,1,0,,,,,0.0,0.0,0.0,0.0,0.0,0.0,0
-22.959721,-67.786901,1.40,0.00,1.20,1.26,1.40,1.40,1.20,1.26,1718,2025-11-27 18:00:36.835,2025-11-27 19:00:36.835,13,0,0,50.870,-22.959732,-67.786904,0.10,0.00,-1.20,-1.90,4.20,117.60,0,1,0,99,88,-28857,14211,50870,2951.50,50,WP,1,0,0,0,0,0,0,1764266436835,4326,4328,4324,4334,4334,4332,18,,,,,,,0,0,0,19.00,42.00,1176.00,0.00,0.00,0.00,14,14.00,12.04,12.59,1.00,0.00,-12.00,0,,,100,100,13,2,0,0,1,1,0,,,,,0.0,0.0,0.0,0.0,0.0,0.0,0
-22.959721,-67.786900,1.60,0.00,1.40,1.28,1.60,1.60,1.40,1.28,1817,2025-11-27 18:00:36.934,2025-11-27 19:00:36.934,12,0,0,50.870,-22.959732,-67.786904,0.10,0.00,-1.40,-1.30,4.20,117.70,0,1,0,99,88,-28857,14211,50870,2951.50,50,WP,1,0,0,0,0,0,0,1764266436934,4326,4328,4324,4334,4334,4332,18,,,,,,,0,0,0,13.00,42.00,1177.00,0.00,0.00,0.00,14,16.00,14.04,12.83,1.00,0.00,-14.00,0,,,100,100,13,2,0,0,1,1,0,,,,,0.0,0.0,0.0,0.0,0.0,0.0,0
-22.959721,-67.786900,1.70,0.00,1.70,1.30,1.70,1.70,1.70,1.30,1918,2025-11-27 18:00:37.035,2025-11-27 19:00:37.035,12,0,0,50.870,-22.959732,-67.786904,0.10,0.00,-1.70,-0.90,4.10,117.80,0,1,0,99,88,-28857,14211,50870,2951.50,50,WP,1,0,0,0,0,0,0,1764266437035,4326,4328,4324,4334,4334,4332,18,,,,,,,0,0,0,9.00,41.00,1178.00,0.00,0.00,0.00,14,17.00,17.03,13.00,1.00,0.00,-17.00,0,,,100,100,13,2,0,0,1,1,0,,,,,0.0,0.0,0.0,0.0,0.0,0.0,0
-22.959721,-67.786900,1.90,0.00,1.90,1.31,1.90,1.90,1.90,1.31,2016,2025-11-27 18:00:37.133,2025-11-27 19:00:37.134,13,0,0,50.870,-22.959732,-67.786904,0.10,0.00,-1.90,-0.70,3.70,117.70,0,1,0,99,88,-28857,14211,50870,2951.50,50,WP,1,0,0,0,0,0,0,1764266437133,4326,4328,4324,4334,4334,4332,18,,,,,,,0,0,0,7.00,37.00,1177.00,0.00,0.00,0.00,14,19.00,19.03,13.11,1.00,0.00,-19.00,0,,,100,100,13,2,0,0,1,1,0,,,,,0.0,0.0,0.0,0.0,0.0,0.0,0
-22.959721,-67.786900,2.10,0.00,2.20,1.32,2.10,2.10,2.20,1.32,2118,2025-11-27 18:00:37.235,2025-11-27 19:00:37.235,13,0,0,50.870,-22.959732,-67.786904,0.10,0.10,-2.20,-0.50,3.30,117.70,0,1,0,99,88,-28857,14211,50870,2951.50,50,WP,1,0,0,0,0,0,0,1764266437235,4326,4328,4324,4334,4334,4332,18,,,,,,,0,0,0,5.00,33.00,1177.00,0.00,0.00,0.00,14,21.00,22.05,13.20,1.00,1.00,-22.00,0,,,100,100,13,2,0,0,1,1,0,,,,,0.0,0.0,0.0,0.0,0.0,0.0,0
-22.959721,-67.786900,2.30,0.00,2.50,1.33,2.30,2.30,2.50,1.33,2217,2025-11-27 18:00:37.334,2025-11-27 19:00:37.334,13,0,0,50.870,-22.959732,-67.786904,0.10,0.10,-2.50,-0.30,3.00,117.70,0,1,0,99,88,-28857,14211,50870,2951.50,50,WP,1,0,0,0,0,0,0,1764266437334,4326,4328,4324,4334,4334,4332,18,,,,,,,0,0,0,3.00,30.00,1177.00,0.00,0.00,0.00,14,23.00,25.04,13.26,1.00,1.00,-25.00,0,,,100,100,13,2,0,0,1,1,0,,,,,0.0,0.0,0.0,0.0,0.0,0.0,0
-22.959721,-67.786900,2.60,0.00,2.70,1.33,2.60,2.60,2.70,1.33,2318,2025-11-27 18:00:37.436,2025-11-27 19:00:37.436,13,0,0,50.870,-22.959732,-67.786904,0.10,0.10,-2.70,0.00,2.80,117.60,0,1,0,99,88,-28857,14211,50870,2951.50,50,WP,1,0,0,0,0,0,0,1764266437435,4326,4328,4324,4334,4334,4332,18,,,,,,,0,0,0,-0.00,28.00,1176.00,0.00,0.00,0.00,14,26.00,27.04,13.32,1.00,1.00,-27.00,0,,,100,100,13,2,0,0,1,1,0,,,,,0.0,0.0,0.0,0.0,0.0,0.0,0
-22.959721,-67.786900,2.90,0.00,3.00,1.35,2.90,2.90,3.00,1.35,2417,2025-11-27 18:00:37.535,2025-11-27 19:00:37.535,13,0,0,50.870,-22.959732,-67.786904,0.10,0.10,-3.00,0.10,3.00,117.60,0,1,0,99,88,-28857,14211,50870,2951.50,50,WP,1,0,0,0,0,0,0,1764266437534,4326,4328,4324,4334,4334,4332,18,,,,,,,0,0,0,-1.00,30.00,1176.00,0.00,0.00,0.00,14,29.00,30.03,13.46,1.00,1.00,-30.00,0,,,100,100,13,2,0,0,1,1,0,,,,,0.0,0.0,0.0,0.0,0.0,0.0,0
-22.959720,-67.786899,3.20,0.00,3.20,1.36,3.20,3.20,3.20,1.36,2517,2025-11-27 18:00:37.635,2025-11-27 19:00:37.635,13,0,0,50.870,-22.959732,-67.786904,0.10,0.10,-3.20,0.30,3.70,117.70,0,1,0,99,88,-28857,14211,50870,2951.50,50,WP,1,0,0,0,0,0,0,1764266437634,4326,4328,4324,4334,4334,4332,18,,,,,,,0,0,0,-3.00,37.00,1177.00,0.00,0.00,0.00,14,32.00,32.03,13.59,1.00,1.00,-32.00,0,,,100,100,13,2,0,0,1,1,0,,,,,0.0,0.0,0.0,0.0,0.0,0.0,0
-22.959720,-67.786899,3.50,0.00,3.30,1.38,3.50,3.50,3.30,1.38,2618,2025-11-27 18:00:37.736,2025-11-27 19:00:37.736,13,0,0,50.870,-22.959732,-67.786904,0.10,0.10,-3.30,0.60,4.60,117.80,0,1,0,99,88,-28857,14211,50870,2951.50,50,WP,1,0,0,0,0,0,0,1764266437735,4326,4328,4324,4334,4334,4332,18,,,,,,,0,0,0,-6.00,46.00,1178.00,0.00,0.00,0.00,14,35.00,33.03,13.82,1.00,1.00,-33.00,0,,,100,100,13,2,0,0,1,1,0,,,,,0.0,0.0,0.0,0.0,0.0,0.0,0
-22.959720,-67.786899,3.80,0.00,3.40,1.40,3.80,3.80,3.40,1.40,2721,2025-11-27 18:00:37.839,2025-11-27 19:00:37.839,13,0,0,50.870,-22.959732,-67.786904,0.10,0.10,-3.40,0.40,5.30,117.80,0,1,0,99,88,-28857,14211,50870,2951.50,50,WP,1,0,0,0,0,0,0,1764266437838,4025,4036,3991,3999,3981,3978,18,,,,,,,0,0,0,-4.00,53.00,1178.00,0.00,0.00,0.00,14,38.00,34.03,13.97,1.00,1.00,-34.00,0,,,100,100,13,2,0,0,1,1,0,,,,,0.0,0.0,0.0,0.0,0.0,0.0,0
-22.959720,-67.786899,4.10,0.00,3.30,1.42,4.10,4.10,3.40,1.42,2820,2025-11-27 18:00:37.937,2025-11-27 19:00:37.937,13,0,0,50.870,-22.959732,-67.786904,0.10,0.10,-3.30,0.50,6.20,117.80,0,1,0,99,88,-28857,14211,50870,2951.50,50,WP,1,0,0,0,0,0,0,1764266437937,4025,4036,3991,3999,3981,3978,18,,,,,,,0,0,0,-5.00,62.00,1178.00,0.00,0.00,0.00,14,41.00,33.03,14.19,1.00,1.00,-33.00,0,,,100,100,13,2,0,0,1,1,0,,,,,0.0,0.0,0.0,0.0,0.0,0.0,0
-22.959720,-67.786899,4.40,0.00,3.30,1.43,4.40,4.40,3.40,1.43,2921,2025-11-27 18:00:38.038,2025-11-27 19:00:38.038,13,0,0,50.870,-22.959732,-67.786904,0.10,0.10,-3.30,0.50,6.40,117.70,0,1,0,99,88,-28857,14211,50870,2951.50,50,WP,1,0,0,0,0,0,0,1764266438038,4025,4036,3991,3999,3981,3978,18,,,,,,,0,0,0,-5.00,64.00,1177.00,0.00,0.00,0.00,14,44.00,33.03,14.30,1.00,1.00,-33.00,0,,,100,100,13,2,0,0,1,1,0,,,,,0.0,0.0,0.0,0.0,0.0,0.0,0
-22.959720,-67.786899,4.70,0.00,3.20,1.45,4.70,4.70,3.40,1.45,3024,2025-11-27 18:00:38.141,2025-11-27 19:00:38.141,13,0,0,50.870,-22.959732,-67.786904,0.00,0.00,-3.20,0.50,6.40,117.60,0,1,0,99,88,-28857,14211,50870,2951.50,50,WP,1,0,0,0,0,0,0,1764266438141,4025,4036,3991,3999,3981,3978,18,,,,,,,0,0,0,-5.00,64.00,1176.00,0.00,0.00,0.00,14,47.00,32.00,14.46,0.00,0.00,-32.00,0,,,100,100,13,2,0,0,1,1,0,,,,,0.0,0.0,0.0,0.0,0.0,0.0,0
-22.959720,-67.786899,5.00,0.00,3.20,1.45,5.00,5.00,3.40,1.45,3125,2025-11-27 18:00:38.243,2025-11-27 19:00:38.243,13,0,0,50.870,-22.959732,-67.786904,0.00,0.00,-3.20,0.40,6.30,117.60,0,1,0,99,88,-28857,14211,50870,2951.50,50,WP,1,0,0,0,0,0,0,1764266438242,4025,4036,3991,3999,3981,3978,18,,,,,,,0,0,0,-4.00,63.00,1176.00,0.00,0.00,0.00,14,50.00,32.00,14.51,0.00,0.00,-32.00,0,,,100,99,13,2,0,0,1,1,0,,,,,0.0,0.0,0.0,0.0,0.0,0.0,0
-22.959720,-67.786898,5.30,0.00,3.10,1.46,5.30,5.30,3.40,1.46,3225,2025-11-27 18:00:38.342,2025-11-27 19:00:38.342,13,0,0,50.870,-22.959732,-67.786904,0.00,0.00,-3.10,0.20,5.90,117.60,0,1,0,99,88,-28857,14211,50870,2951.50,50,WP,1,0,0,0,0,0,0,1764266438342,4025,4036,3991,3999,3981,3978,18,,,,,,,0,0,0,-2.00,59.00,1176.00,0.00,0.00,0.00,14,53.00,31.00,14.60,0.00,0.00,-31.00,0,,,100,99,13,2,0,0,1,1,0,,,,,0.0,0.0,0.0,0.0,0.0,0.0,0
-22.959720,-67.786899,5.90,0.00,3.10,1.46,5.90,5.90,3.40,1.46,3425,2025-11-27 18:00:38.543,2025-11-27 19:00:38.543,13,0,0,48.579,-22.959732,-67.786904,0.00,0.00,-3.10,-0.40,5.20,117.50,0,1,0,99,88,-34853,14211,48579,2951.50,50,WP,1,0,0,0,0,0,0,1764266438542,4025,4036,3991,3999,3981,3978,18,,,,,,,0,0,0,4.00,52.00,1175.00,0.00,0.00,0.00,14,59.00,31.00,14.56,0.00,0.00,-31.00,0,,,100,99,13,2,0,0,1,1,0,,,,,0.0,0.0,0.0,0.0,0.0,0.0,0
-22.959720,-67.786899,6.20,0.00,3.10,1.45,6.20,6.20,3.40,1.46,3526,2025-11-27 18:00:38.644,2025-11-27 19:00:38.644,13,0,0,48.579,-22.959732,-67.786904,0.00,0.00,-3.10,-0.60,5.00,117.50,0,1,0,99,88,-34853,14211,48579,2951.50,50,WP,1,0,0,0,0,0,0,1764266438643,4025,4036,3991,3999,3981,3978,18,,,,,,,0,0,0,6.00,50.00,1175.00,0.00,0.00,0.00,14,62.00,31.00,14.49,0.00,0.00,-31.00,0,,,100,99,13,2,0,0,1,1,0,,,,,0.0,0.0,0.0,0.0,0.0,0.0,0
-22.959720,-67.786899,6.50,0.00,3.10,1.44,6.50,6.50,3.40,1.46,3632,2025-11-27 18:00:38.750,2025-11-27 19:00:38.750,13,0,0,48.579,-22.959732,-67.786904,0.00,0.00,-3.10,-0.40,5.10,117.60,0,1,0,99,88,-34853,14211,48579,2951.50,50,WP,1,0,0,0,0,0,0,1764266438749,4025,4036,3991,3999,3981,3978,18,,,,,,,0,0,0,4.00,51.00,1176.00,0.00,0.00,0.00,14,65.00,31.00,14.36,0.00,0.00,-31.00,0,,,100,99,13,2,0,0,1,1,0,,,,,0.0,0.0,0.0,0.0,0.0,0.0,0
-22.959720,-67.786899,6.80,0.00,3.10,1.42,6.80,6.80,3.40,1.46,3733,2025-11-27 18:00:38.850,2025-11-27 19:00:38.850,13,0,0,48.579,-22.959732,-67.786904,0.00,0.00,-3.10,-0.30,4.70,117.60,0,1,0,99,88,-34853,14211,48579,2951.50,50,WP,1,0,0,0,0,0,0,1764266438850,4025,4036,3991,3999,3981,3978,18,,,,,,,0,0,0,3.00,47.00,1176.00,0.00,0.00,0.00,14,68.00,31.00,14.23,0.00,0.00,-31.00,0,,,100,99,13,2,0,0,1,1,0,,,,,0.0,0.0,0.0,0.0,0.0,0.0,0
-22.959720,-67.786899,7.10,0.00,3.10,1.41,7.10,7.10,3.40,1.46,3831,2025-11-27 18:00:38.949,2025-11-27 19:00:38.949,13,0,0,48.579,-22.959732,-67.786904,0.00,0.00,-3.10,-0.30,4.30,117.60,0,1,0,99,88,-34853,14211,48579,2951.50,50,WP,1,0,0,0,0,0,0,1764266438948,4025,4036,3991,3999,3981,3978,18,,,,,,,0,0,0,3.00,43.00,1176.00,0.00,0.00,0.00,14,71.00,31.00,14.15,0.00,0.00,-31.00,0,,,100,99,13,2,0,0,1,1,0,,,,,0.0,0.0,0.0,0.0,0.0,0.0,0
-22.959720,-67.786899,7.40,0.00,3.10,1.40,7.40,7.40,3.40,1.46,3933,2025-11-27 18:00:39.050,2025-11-27 19:00:39.050,13,0,0,48.579,-22.959732,-67.786904,0.00,0.00,-3.10,-0.30,4.00,117.60,0,1,0,99,88,-34853,14211,48579,2951.50,50,WP,1,0,0,0,0,0,0,1764266439050,4025,4036,3991,3999,3981,3978,18,,,,,,,0,0,0,3.00,40.00,1176.00,0.00,0.00,0.00,14,74.00,31.00,14.05,0.00,0.00,-31.00,0,,,100,99,13,2,0,0,1,1,0,,,,,0.0,0.0,0.0,0.0,0.0,0.0,0
-22.959720,-67.786899,7.80,0.00,3.10,1.40,7.80,7.80,3.40,1.46,4033,2025-11-27 18:00:39.151,2025-11-27 19:00:39.151,13,0,0,48.579,-22.959732,-67.786904,0.00,0.00,-3.10,0.00,4.10,117.60,0,1,0,99,88,-34853,14211,48579,2951.50,50,WP,1,0,0,0,0,0,0,1764266439150,4025,4036,3991,3999,3981,3978,18,,,,,,,0,0,0,-0.00,41.00,1176.00,0.00,0.00,0.00,14,78.00,31.00,14.00,0.00,0.00,-31.00,0,,,100,99,13,2,0,0,1,1,0,,,,,0.0,0.0,0.0,0.0,0.0,0.0,0
-22.959720,-67.786899,8.10,0.00,3.10,1.39,8.10,8.10,3.40,1.46,4133,2025-11-27 18:00:39.250,2025-11-27 19:00:39.250,13,0,0,48.579,-22.959732,-67.786904,0.00,0.00,-3.10,0.00,4.40,117.60,0,1,0,99,88,-34853,14211,48579,2951.50,50,WP,1,0,0,0,0,0,0,1764266439250,4025,4036,3991,3999,3981,3978,18,,,,,,,0,0,0,-0.00,44.00,1176.00,0.00,0.00,0.00,14,81.00,31.00,13.94,0.00,0.00,-31.00,0,,,100,100,13,2,0,0,1,1,0,,,,,0.0,0.0,0.0,0.0,0.0,0.0,0
-22.959720,-67.786899,8.40,0.00,3.10,1.39,8.40,8.40,3.40,1.46,4232,2025-11-27 18:00:39.350,2025-11-27 19:00:39.350,13,0,0,48.579,-22.959732,-67.786904,0.00,0.00,-3.10,0.10,4.60,117.60,0,1,0,99,88,-34853,14211,48579,2951.50,50,WP,1,0,0,0,0,0,0,1764266439349,4025,4036,3991,3999,3981,3978,18,,,,,,,0,0,0,-1.00,46.00,1176.00,0.00,0.00,0.00,14,84.00,31.00,13.94,0.00,0.00,-31.00,0,,,100,100,13,2,0,0,1,1,0,,,,,0.0,0.0,0.0,0.0,0.0,0.0,0
-22.959720,-67.786899,8.70,0.00,3.20,1.39,8.70,8.70,3.40,1.46,4333,2025-11-27 18:00:39.451,2025-11-27 19:00:39.451,13,0,0,48.579,-22.959732,-67.786904,0.00,0.00,-3.20,0.20,4.80,117.60,0,1,0,99,88,-34853,14211,48579,2951.50,50,WP,1,0,0,0,0,0,0,1764266439450,4025,4036,3991,3999,3981,3978,18,,,,,,,0,0,0,-2.00,48.00,1176.00,0.00,0.00,0.00,14,87.00,32.00,13.91,0.00,0.00,-32.00,0,,,100,100,13,2,0,0,1,1,0,,,,,0.0,0.0,0.0,0.0,0.0,0.0,0
-22.959720,-67.786899,9.00,0.00,3.20,1.39,9.00,9.00,3.40,1.46,4431,2025-11-27 18:00:39.549,2025-11-27 19:00:39.549,13,0,0,48.579,-22.959732,-67.786904,0.00,0.00,-3.20,0.30,4.90,117.60,0,1,0,99,88,-34853,14211,48579,2951.50,50,WP,1,0,0,0,0,0,0,1764266439548,4025,4036,3991,3999,3981,3978,18,,,,,,,0,0,0,-3.00,49.00,1176.00,0.00,0.00,0.00,14,90.00,32.00,13.89,0.00,0.00,-32.00,0,,,100,100,13,2,0,0,1,1,0,,,,,0.0,0.0,0.0,0.0,0.0,0.0,0
-22.959720,-67.786899,9.30,0.00,3.20,1.38,9.30,9.30,3.40,1.46,4534,2025-11-27 18:00:39.651,2025-11-27 19:00:39.651,13,0,0,48.579,-22.959732,-67.786904,0.00,0.00,-3.20,0.30,4.90,117.60,0,1,0,99,88,-34853,14211,48579,2951.50,50,WP,1,0,0,0,0,0,0,1764266439651,4025,4036,3991,3999,3981,3978,18,,,,,,,0,0,0,-3.00,49.00,1176.00,0.00,0.00,0.00,14,93.00,32.00,13.84,0.00,0.00,-32.00,0,,,100,100,13,2,0,0,1,1,0,,,,,0.0,0.0,0.0,0.0,0.0,0.0,0
-22.959720,-67.786899,9.60,0.00,3.10,1.38,9.60,9.60,3.40,1.46,4634,2025-11-27 18:00:39.752,2025-11-27 19:00:39.752,13,0,0,48.579,-22.959732,-67.786904,0.00,0.00,-3.10,0.10,4.80,117.60,0,1,0,99,88,-34853,14211,48579,2951.50,50,WP,1,0,0,0,0,0,0,1764266439751,4025,4036,3991,3999,3981,3978,18,,,,,,,0,0,0,-1.00,48.00,1176.00,0.00,0.00,0.00,14,96.00,31.00,13.78,0.00,0.00,-31.00,0,,,100,100,13,2,0,0,1,1,0,,,,,0.0,0.0,0.0,0.0,0.0,0.0,0
-22.959720,-67.786899,10.00,0.00,3.20,1.37,10.00,10.00,3.40,1.46,4734,2025-11-27 18:00:39.852,2025-11-27 19:00:39.852,13,0,0,48.579,-22.959732,-67.786904,0.00,-0.10,-3.20,-0.30,4.70,117.60,0,1,0,99,88,-34853,14211,48579,2951.50,50,WP,1,0,0,0,0,0,0,1764266439851,4025,4036,3991,3999,3981,3978,18,,,,,,,0,0,0,3.00,47.00,1176.00,0.00,0.00,0.00,14,100.00,32.02,13.71,0.00,-1.00,-32.00,0,,,100,100,13,2,0,0,1,1,0,,,,,0.0,0.0,0.0,0.0,0.0,0.0,0
-22.959721,-67.786899,10.30,0.00,3.10,1.36,10.30,10.30,3.40,1.46,4836,2025-11-27 18:00:39.953,2025-11-27 19:00:39.953,13,0,0,48.579,-22.959732,-67.786904,0.00,-0.10,-3.10,-0.50,4.80,117.60,0,1,0,99,88,-34853,14211,48579,2951.50,50,WP,1,0,0,0,0,0,0,1764266439953,4025,4036,3991,3999,3981,3978,18,,,,,,,0,0,0,5.00,48.00,1176.00,0.00,0.00,0.00,14,103.00,31.02,13.64,0.00,-1.00,-31.00,0,,,100,100,13,2,0,0,1,1,0,,,,,0.0,0.0,0.0,0.0,0.0,0.0,0
-22.959721,-67.786899,10.60,0.00,3.10,1.36,10.60,10.60,3.40,1.46,4936,2025-11-27 18:00:40.053,2025-11-27 19:00:40.053,13,0,0,48.579,-22.959732,-67.786904,0.00,-0.10,-3.10,-0.40,4.80,117.60,0,1,0,99,88,-34853,14211,48579,2951.50,50,WP,1,0,0,0,0,0,0,1764266440053,4025,4036,3991,3999,3981,3978,18,,,,,,,0,0,0,4.00,48.00,1176.00,0.00,0.00,0.00,14,106.00,31.02,13.56,0.00,-1.00,-31.00,0,,,100,100,13,2,0,0,1,1,0,,,,,0.0,0.0,0.0,0.0,0.0,0.0,0
-22.959721,-67.786899,10.90,0.00,3.10,1.34,10.90,10.90,3.40,1.46,5037,2025-11-27 18:00:40.155,2025-11-27 19:00:40.155,13,0,0,48.579,-22.959732,-67.786904,0.00,-0.10,-3.10,-0.40,4.80,117.60,0,1,0,99,88,-34853,14211,48579,2951.50,50,WP,1,0,0,0,0,0,0,1764266440154,4025,4036,3991,3999,3981,3978,18,,,,,,,0,0,0,4.00,48.00,1176.00,0.00,0.00,0.00,14,109.00,31.02,13.42,0.00,-1.00,-31.00,0,,,100,100,13,2,0,0,1,1,0,,,,,0.0,0.0,0.0,0.0,0.0,0.0,0
-22.959721,-67.786900,11.20,0.00,3.10,1.33,11.20,11.20,3.40,1.46,5138,2025-11-27 18:00:40.256,2025-11-27 19:00:40.256,13,0,0,48.579,-22.959732,-67.786904,0.00,-0.10,-3.10,-0.60,4.60,117.60,0,1,0,99,88,-34853,14211,48579,2951.50,50,WP,1,0,0,0,0,0,0,1764266440255,4025,4036,3991,3999,3981,3978,18,,,,,,,0,0,0,6.00,46.00,1176.00,0.00,0.00,0.00,14,112.00,31.02,13.31,0.00,-1.00,-31.00,0,,,100,100,13,2,0,0,1,1,0,,,,,0.0,0.0,0.0,0.0,0.0,0.0,0
-22.959721,-67.786900,11.50,0.00,3.10,1.32,11.50,11.50,3.40,1.46,5239,2025-11-27 18:00:40.357,2025-11-27 19:00:40.357,13,0,0,47.807,-22.959732,-67.786904,0.00,-0.10,-3.10,-0.90,4.50,117.60,0,1,0,99,88,-41751,14211,47807,2951.50,50,WP,1,0,0,0,0,0,0,1764266440356,4025,4036,3991,3999,3981,3978,18,,,,,,,0,0,0,9.00,45.00,1176.00,0.00,0.00,0.00,14,115.00,31.02,13.18,0.00,-1.00,-31.00,0,,,100,100,13,2,0,0,1,1,0,,,,,0.0,0.0,0.0,0.0,0.0,0.0,0
-22.959721,-67.786900,11.90,0.00,3.10,1.31,11.90,11.90,3.40,1.46,5339,2025-11-27 18:00:40.456,2025-11-27 19:00:40.456,13,0,0,47.807,-22.959732,-67.786904,0.00,-0.10,-3.10,-1.00,4.40,117.60,0,1,0,99,88,-41751,14211,47807,2951.50,50,WP,1,0,0,0,0,0,0,1764266440456,4025,4036,3991,3999,3981,3978,18,,,,,,,0,0,0,10.00,44.00,1176.00,0.00,0.00,0.00,14,119.00,31.02,13.08,0.00,-1.00,-31.00,0,,,100,100,13,2,0,0,1,1,0,,,,,0.0,0.0,0.0,0.0,0.0,0.0,0
-22.959721,-67.786900,12.20,0.00,3.10,1.29,12.20,12.20,3.40,1.46,5440,2025-11-27 18:00:40.558,2025-11-27 19:00:40.558,13,0,0,47.807,-22.959732,-67.786904,-0.10,-0.10,-3.10,-1.20,4.20,117.50,0,1,0,99,88,-41751,14211,47807,2951.50,50,WP,1,0,0,0,0,0,0,1764266440557,4025,4036,3991,3999,3981,3978,18,,,,,,,0,0,0,12.00,42.00,1175.00,0.00,0.00,0.00,14,122.00,31.03,12.86,-1.00,-1.00,-31.00,0,,,100,100,13,2,0,0,1,1,0,,,,,0.0,0.0,0.0,0.0,0.0,0.0,0
-22.959721,-67.786900,12.50,0.00,3.10,1.27,12.50,12.50,3.40,1.46,5541,2025-11-27 18:00:40.659,2025-11-27 19:00:40.659,13,0,0,47.807,-22.959732,-67.786904,-0.10,-0.10,-3.10,-1.30,3.90,117.50,0,1,0,99,88,-41751,14211,47807,2951.50,50,WP,1,0,0,0,0,0,0,1764266440658,4025,4036,3991,3999,3981,3978,18,,,,,,,0,0,0,13.00,39.00,1175.00,0.00,0.00,0.00,14,125.00,31.03,12.70,-1.00,-1.00,-31.00,0,,,100,100,13,2,0,0,1,1,0,,,,,0.0,0.0,0.0,0.0,0.0,0.0,0
-22.959721,-67.786900,12.80,0.00,3.10,1.24,12.80,12.80,3.40,1.46,5641,2025-11-27 18:00:40.758,2025-11-27 19:00:40.758,13,0,0,47.807,-22.959732,-67.786904,-0.10,-0.10,-3.10,-1.20,4.00,117.50,0,1,0,99,88,-41751,14211,47807,2951.50,50,WP,1,0,0,0,0,0,0,1764266440758,4025,4036,3991,3999,3981,3978,18,,,,,,,0,0,0,12.00,40.00,1175.00,0.00,0.00,0.00,14,128.00,31.03,12.43,-1.00,-1.00,-31.00,0,,,100,100,13,2,0,0,1,1,0,,,,,0.0,0.0,0.0,0.0,0.0,0.0,0
-22.959721,-67.786900,13.10,0.00,3.10,1.23,13.10,13.10,3.40,1.46,5743,2025-11-27 18:00:40.860,2025-11-27 19:00:40.860,13,0,0,47.807,-22.959732,-67.786904,-0.10,-0.10,-3.10,-1.00,4.10,117.60,0,1,0,99,88,-41751,14211,47807,2951.50,50,WP,1,0,0,0,0,0,0,1764266440860,4025,4036,3991,3999,3981,3978,18,,,,,,,0,0,0,10.00,41.00,1176.00,0.00,0.00,0.00,14,131.00,31.03,12.25,-1.00,-1.00,-31.00,0,,,100,100,13,2,0,0,1,1,0,,,,,0.0,0.0,0.0,0.0,0.0,0.0,0
-22.959722,-67.786900,13.40,0.00,3.10,1.20,13.40,13.40,3.40,1.46,5848,2025-11-27 18:00:40.966,2025-11-27 19:00:40.966,13,0,0,47.807,-22.959732,-67.786904,-0.10,0.00,-3.10,-0.70,4.10,117.50,0,1,0,99,88,-41751,14211,47807,2951.50,50,WP,1,0,0,0,0,0,0,1764266440965,4025,4036,3991,3999,3981,3978,18,,,,,,,0,0,0,7.00,41.00,1175.00,0.00,0.00,0.00,14,134.00,31.02,12.03,-1.00,0.00,-31.00,0,,,100,100,13,2,0,0,1,1,0,,,,,0.0,0.0,0.0,0.0,0.0,0.0,0
-22.959722,-67.786900,13.70,0.00,3.10,1.19,13.70,13.70,3.40,1.46,5949,2025-11-27 18:00:41.066,2025-11-27 19:00:41.066,13,0,0,47.807,-22.959732,-67.786904,-0.10,0.00,-3.10,-0.40,4.10,117.50,0,1,0,99,88,-41751,14211,47807,2951.50,50,WP,1,0,0,0,0,0,0,1764266441066,4025,4036,3991,3999,3981,3978,18,,,,,,,0,0,0,4.00,41.00,1175.00,0.00,0.00,0.00,14,137.00,31.02,11.87,-1.00,0.00,-31.00,0,,,100,100,13,2,0,0,1,1,0,,,,,0.0,0.0,0.0,0.0,0.0,0.0,0
-22.959722,-67.786901,14.00,0.00,3.10,1.16,14.00,14.00,3.40,1.46,6049,2025-11-27 18:00:41.167,2025-11-27 19:00:41.167,13,0,0,47.807,-22.959732,-67.786904,-0.10,-0.10,-3.10,-0.40,4.20,117.60,0,1,0,99,88,-41751,14211,47807,2951.50,50,WP,1,0,0,0,0,0,0,1764266441166,4025,4036,3991,3999,3981,3978,18,,,,,,,0,0,0,4.00,42.00,1176.00,0.00,0.00,0.00,14,140.00,31.03,11.64,-1.00,-1.00,-31.00,0,,,100,100,13,2,0,0,1,1,0,,,,,0.0,0.0,0.0,0.0,0.0,0.0,0
-22.959722,-67.786901,14.40,0.00,3.00,1.15,14.40,14.40,3.40,1.46,6149,2025-11-27 18:00:41.266,2025-11-27 19:00:41.267,13,0,0,47.807,-22.959732,-67.786904,-0.10,-0.10,-3.00,-0.40,4.00,117.60,0,1,0,99,88,-41751,14211,47807,2951.50,50,WP,1,0,0,0,0,0,0,1764266441266,4025,4036,3991,3999,3981,3978,18,,,,,,,0,0,0,4.00,40.00,1176.00,0.00,0.00,0.00,14,144.00,30.03,11.47,-1.00,-1.00,-30.00,0,,,100,100,13,2,0,0,1,1,0,,,,,0.0,0.0,0.0,0.0,0.0,0.0,0
-22.959722,-67.786901,14.70,0.00,3.00,1.12,14.70,14.70,3.40,1.46,6249,2025-11-27 18:00:41.366,2025-11-27 19:00:41.366,13,0,0,47.807,-22.959732,-67.786904,-0.10,-0.10,-3.00,-0.50,3.50,117.60,0,1,0,99,88,-41751,14211,47807,2951.50,50,WP,1,0,0,0,0,0,0,1764266441366,4025,4036,3991,3999,3981,3978,18,,,,,,,0,0,0,5.00,35.00,1176.00,0.00,0.00,0.00,14,147.00,30.03,11.23,-1.00,-1.00,-30.00,0,,,100,100,13,2,0,0,1,1,0,,,,,0.0,0.0,0.0,0.0,0.0,0.0,0
-22.959722,-67.786901,15.00,0.00,3.00,1.11,15.00,15.00,3.40,1.46,6349,2025-11-27 18:00:41.466,2025-11-27 19:00:41.466,13,0,0,47.807,-22.959732,-67.786904,-0.10,0.00,-3.00,-0.50,3.00,117.70,0,1,0,99,88,-41751,14211,47807,2951.50,50,WP,1,0,0,0,0,0,0,1764266441466,4025,4036,3991,3999,3981,3978,18,,,,,,,0,0,0,5.00,30.00,1177.00,0.00,0.00,0.00,14,150.00,30.02,11.06,-1.00,0.00,-30.00,0,,,100,99,13,2,0,0,1,1,0,,,,,0.0,0.0,0.0,0.0,0.0,0.0,0
-22.959723,-67.786901,15.30,0.00,3.10,1.08,15.30,15.30,3.40,1.46,6449,2025-11-27 18:00:41.567,2025-11-27 19:00:41.567,13,0,0,47.807,-22.959732,-67.786904,-0.10,0.00,-3.10,-0.30,2.90,117.70,0,1,0,99,88,-41751,14211,47807,2951.50,50,WP,1,0,0,0,0,0,0,1764266441566,4025,4036,3991,3999,3981,3978,18,,,,,,,0,0,0,3.00,29.00,1177.00,0.00,0.00,0.00,14,153.00,31.02,10.85,-1.00,0.00,-31.00,0,,,100,99,13,2,0,0,1,1,0,,,,,0.0,0.0,0.0,0.0,0.0,0.0,0
-22.959723,-67.786901,15.60,0.00,3.10,1.07,15.60,15.60,3.40,1.46,6549,2025-11-27 18:00:41.667,2025-11-27 19:00:41.667,13,0,0,47.807,-22.959732,-67.786904,-0.10,0.00,-3.10,-0.40,3.10,117.70,0,1,0,99,88,-41751,14211,47807,2951.50,50,WP,1,0,0,0,0,0,0,1764266441666,4025,4036,3991,3999,3981,3978,18,,,,,,,0,0,0,4.00,31.00,1177.00,0.00,0.00,0.00,14,156.00,31.02,10.71,-1.00,0.00,-31.00,0,,,100,99,13,2,0,0,1,1,0,,,,,0.0,0.0,0.0,0.0,0.0,0.0,0
-22.959723,-67.786901,15.90,0.00,3.10,1.05,15.90,15.90,3.40,1.46,6649,2025-11-27 18:00:41.767,2025-11-27 19:00:41.767,13,0,0,47.807,-22.959732,-67.786904,0.00,0.00,-3.10,-0.40,3.40,117.60,0,1,0,99,88,-41751,14211,47807,2951.50,50,WP,1,0,0,0,0,0,0,1764266441766,4025,4036,3991,3999,3981,3978,18,,,,,,,0,0,0,4.00,34.00,1176.00,0.00,0.00,0.00,14,159.00,31.00,10.52,0.00,0.00,-31.00,0,,,100,99,13,2,0,0,1,1,0,,,,,0.0,0.0,0.0,0.0,0.0,0.0,0
-22.959723,-67.786901,16.20,0.00,3.00,1.04,16.20,16.20,3.40,1.46,6750,2025-11-27 18:00:41.868,2025-11-27 19:00:41.868,13,0,0,47.807,-22.959732,-67.786904,0.00,0.00,-3.00,-0.50,3.50,117.60,0,1,0,99,88,-41751,14211,47807,2951.50,50,WP,1,0,0,0,0,0,0,1764266441867,4025,4036,3991,3999,3981,3978,18,,,,,,,0,0,0,5.00,35.00,1176.00,0.00,0.00,0.00,14,162.00,30.00,10.41,0.00,0.00,-30.00,0,,,100,99,13,2,0,0,1,1,0,,,,,0.0,0.0,0.0,0.0,0.0,0.0,0
-22.959723,-67.786901,16.50,0.00,3.00,1.03,16.50,16.50,3.40,1.46,6850,2025-11-27 18:00:41.968,2025-11-27 19:00:41.968,13,0,0,47.807,-22.959732,-67.786904,0.00,0.00,-3.00,-0.60,3.50,117.60,0,1,0,99,88,-41751,14211,47807,2951.50,50,WP,1,0,0,0,0,0,0,1764266441967,4025,4036,3991,3999,3981,3978,18,,,,,,,0,0,0,6.00,35.00,1176.00,0.00,0.00,0.00,14,165.00,30.00,10.29,0.00,0.00,-30.00,0,,,100,99,13,2,0,0,1,1,0,,,,,0.0,0.0,0.0,0.0,0.0,0.0,0
-22.959723,-67.786901,16.80,0.00,3.00,1.02,16.80,16.80,3.40,1.46,6953,2025-11-27 18:00:42.071,2025-11-27 19:00:42.071,13,0,0,47.807,-22.959732,-67.786904,0.00,0.00,-3.00,-0.80,3.30,117.60,0,1,0,99,88,-41751,14211,47807,2951.50,50,WP,1,0,0,0,0,0,0,1764266442070,4025,4036,3991,3999,3981,3978,18,,,,,,,0,0,0,8.00,33.00,1176.00,0.00,0.00,0.00,14,168.00,30.00,10.20,0.00,0.00,-30.00,0,,,100,99,13,2,0,0,1,1,0,,,,,0.0,0.0,0.0,0.0,0.0,0.0,0
-22.959723,-67.786901,17.20,0.00,3.00,1.01,17.20,17.20,3.40,1.46,7051,2025-11-27 18:00:42.168,2025-11-27 19:00:42.168,13,0,0,47.807,-22.959732,-67.786904,0.00,0.00,-3.00,-0.80,3.10,117.70,0,1,0,99,88,-41751,14211,47807,2951.50,50,WP,1,0,0,0,0,0,0,1764266442168,4025,4036,3991,3999,3981,3978,18,,,,,,,0,0,0,8.00,31.00,1177.00,0.00,0.00,0.00,14,172.00,30.00,10.10,0.00,0.00,-30.00,0,,,100,99,13,2,0,0,1,1,0,,,,,0.0,0.0,0.0,0.0,0.0,0.0,0
-22.959723,-67.786901,17.50,0.00,3.00,1.00,17.50,17.50,3.40,1.46,7152,2025-11-27 18:00:42.269,2025-11-27 19:00:42.269,13,0,0,47.807,-22.959732,-67.786904,0.00,0.00,-3.00,-0.70,3.30,117.70,0,1,0,99,88,-41751,14211,47807,2951.50,50,WP,1,0,0,0,0,0,0,1764266442269,4025,4036,3991,3999,3981,3978,18,,,,,,,0,0,0,7.00,33.00,1177.00,0.00,0.00,0.00,14,175.00,30.00,10.03,0.00,0.00,-30.00,0,,,100,99,13,2,0,0,1,1,0,,,,,0.0,0.0,0.0,0.0,0.0,0.0,0
-22.959723,-67.786901,17.80,0.00,3.00,0.99,17.80,17.80,3.40,1.46,7254,2025-11-27 18:00:42.371,2025-11-27 19:00:42.371,13,0,0,47.782,-22.959732,-67.786904,0.00,0.00,-3.00,-0.60,3.50,117.60,0,1,0,97,88,-38571,14019,47782,2951.50,50,WP,1,0,0,0,0,0,0,1764266442371,4025,4036,3991,3999,3981,3978,18,,,,,,,0,0,0,6.00,35.00,1176.00,0.00,0.00,0.00,14,178.00,30.00,9.88,0.00,0.00,-30.00,0,,,100,99,13,2,0,0,1,1,0,,,,,0.0,0.0,0.0,0.0,0.0,0.0,0
-22.959724,-67.786901,18.40,0.00,2.90,0.96,18.40,18.40,3.40,1.46,7455,2025-11-27 18:00:42.572,2025-11-27 19:00:42.572,13,0,0,47.782,-22.959732,-67.786904,0.00,0.00,-2.90,0.00,3.30,117.70,0,1,0,97,88,-38571,14019,47782,2951.50,50,WP,1,0,0,0,0,0,0,1764266442572,4025,4036,3991,3999,3981,3978,18,,,,,,,0,0,0,-0.00,33.00,1177.00,0.00,0.00,0.00,14,184.00,29.00,9.63,0.00,0.00,-29.00,0,,,100,100,13,2,0,0,1,1,0,,,,,0.0,0.0,0.0,0.0,0.0,0.0,0
-22.959724,-67.786901,18.70,0.00,2.90,0.95,18.70,18.70,3.40,1.46,7553,2025-11-27 18:00:42.671,2025-11-27 19:00:42.671,13,0,0,47.782,-22.959732,-67.786904,0.00,0.00,-2.90,0.30,3.20,117.70,0,1,0,97,88,-38571,14019,47782,2951.50,50,WP,1,0,0,0,0,0,0,1764266442670,4025,4036,3991,3999,3981,3978,18,,,,,,,0,0,0,-3.00,32.00,1177.00,0.00,0.00,0.00,14,187.00,29.00,9.54,0.00,0.00,-29.00,0,,,100,100,13,2,0,0,1,1,0,,,,,0.0,0.0,0.0,0.0,0.0,0.0,0
-22.959724,-67.786901,19.00,0.00,2.90,0.94,19.00,19.00,3.40,1.46,7656,2025-11-27 18:00:42.773,2025-11-27 19:00:42.774,13,0,0,47.782,-22.959732,-67.786904,0.00,0.00,-2.90,0.30,3.30,117.70,0,1,0,97,88,-38571,14019,47782,2951.50,50,WP,1,0,0,0,0,0,0,1764266442773,4025,4036,3991,3999,3981,3978,18,,,,,,,0,0,0,-3.00,33.00,1177.00,0.00,0.00,0.00,14,190.00,29.00,9.42,0.00,0.00,-29.00,0,,,100,100,13,2,0,0,1,1,0,,,,,0.0,0.0,0.0,0.0,0.0,0.0,0
-22.959724,-67.786901,19.30,0.00,2.90,0.94,19.30,19.30,3.40,1.46,7757,2025-11-27 18:00:42.875,2025-11-27 19:00:42.875,13,0,0,47.782,-22.959732,-67.786904,0.00,0.00,-2.90,0.00,3.10,117.60,0,1,0,97,88,-38571,14019,47782,2951.50,50,WP,1,0,0,0,0,0,0,1764266442874,4025,4036,3991,3999,3981,3978,18,,,,,,,0,0,0,-0.00,31.00,1176.00,0.00,0.00,0.00,14,193.00,29.00,9.37,0.00,0.00,-29.00,0,,,100,100,13,2,0,0,1,1,0,,,,,0.0,0.0,0.0,0.0,0.0,0.0,0
-22.959724,-67.786901,19.60,0.00,3.00,0.93,19.60,19.60,3.40,1.46,7858,2025-11-27 18:00:42.976,2025-11-27 19:00:42.976,13,0,0,47.782,-22.959732,-67.786904,0.00,0.00,-3.00,-0.20,3.00,117.50,0,1,0,97,88,-38571,14019,47782,2951.50,50,WP,1,0,0,0,0,0,0,1764266442975,4025,4036,3991,3999,3981,3978,18,,,,,,,0,0,0,2.00,30.00,1175.00,0.00,0.00,0.00,14,196.00,30.00,9.26,0.00,0.00,-30.00,0,,,100,100,13,2,0,0,1,1,0,,,,,0.0,0.0,0.0,0.0,0.0,0.0,0
-22.959724,-67.786901,19.90,0.00,3.00,0.92,19.90,19.90,3.40,1.46,7960,2025-11-27 18:00:43.078,2025-11-27 19:00:43.078,13,0,0,47.782,-22.959732,-67.786904,0.00,0.00,-3.00,-0.50,3.00,117.50,0,1,0,97,88,-38571,14019,47782,2951.50,50,WP,1,0,0,0,0,0,0,1764266443077,4025,4036,3991,3999,3981,3978,18,,,,,,,0,0,0,5.00,30.00,1175.00,0.00,0.00,0.00,14,199.00,30.00,9.22,0.00,0.00,-30.00,0,,,100,99,13,2,0,0,1,1,0,,,,,0.0,0.0,0.0,0.0,0.0,0.0,0
-22.959724,-67.786901,20.20,0.00,3.00,0.92,20.20,20.20,3.40,1.46,8059,2025-11-27 18:00:43.176,2025-11-27 19:00:43.176,13,0,0,47.782,-22.959732,-67.786904,0.00,0.00,-3.00,-0.50,3.40,117.50,0,1,0,97,88,-38571,14019,47782,2951.50,50,WP,1,0,0,0,0,0,0,1764266443176,4025,4036,3991,3999,3981,3978,18,,,,,,,0,0,0,5.00,34.00,1175.00,0.00,0.00,0.00,14,202.00,30.00,9.20,0.00,0.00,-30.00,0,,,100,99,13,2,0,0,1,1,0,,,,,0.0,0.0,0.0,0.0,0.0,0.0,0
-22.959724,-67.786901,20.50,0.00,3.00,0.92,20.50,20.50,3.40,1.46,8160,2025-11-27 18:00:43.277,2025-11-27 19:00:43.277,13,0,0,47.782,-22.959732,-67.786904,0.00,0.00,-3.00,-0.50,3.70,117.60,0,1,0,97,88,-38571,14019,47782,2951.50,50,WP,1,0,0,0,0,0,0,1764266443277,4025,4036,3991,3999,3981,3978,18,,,,,,,0,0,0,5.00,37.00,1176.00,0.00,0.00,0.00,14,205.00,30.00,9.21,0.00,0.00,-30.00,0,,,100,99,13,2,0,0,1,1,0,,,,,0.0,0.0,0.0,0.0,0.0,0.0,0
-22.959724,-67.786901,20.80,0.00,3.00,0.93,20.80,20.80,3.40,1.46,8265,2025-11-27 18:00:43.383,2025-11-27 19:00:43.383,13,0,0,47.782,-22.959732,-67.786904,0.00,0.00,-3.00,-0.20,3.80,117.60,0,1,0,97,88,-38571,14019,47782,2951.50,50,WP,1,0,0,0,0,0,0,1764266443382,4025,4036,3991,3999,3981,3978,18,,,,,,,0,0,0,2.00,38.00,1176.00,0.00,0.00,0.00,14,208.00,30.00,9.25,0.00,0.00,-30.00,0,,,100,99,13,2,0,0,1,1,0,,,,,0.0,0.0,0.0,0.0,0.0,0.0,0
-22.959724,-67.786901,21.10,0.00,3.00,0.93,21.10,21.10,3.40,1.46,8365,2025-11-27 18:00:43.483,2025-11-27 19:00:43.483,13,0,0,47.782,-22.959732,-67.786904,0.00,0.00,-3.00,0.00,4.00,117.60,0,1,0,97,88,-38571,14019,47782,2951.50,50,WP,1,0,0,0,0,0,0,1764266443482,4025,4036,3991,3999,3981,3978,18,,,,,,,0,0,0,-0.00,40.00,1176.00,0.00,0.00,0.00,14,211.00,30.00,9.30,0.00,0.00,-30.00,0,,,100,99,13,2,0,0,1,1,0,,,,,0.0,0.0,0.0,0.0,0.0,0.0,0
-22.959724,-67.786901,21.40,0.00,3.00,0.93,21.40,21.40,3.40,1.46,8464,2025-11-27 18:00:43.581,2025-11-27 19:00:43.582,13,0,0,47.782,-22.959732,-67.786904,0.00,0.00,-3.00,0.10,4.10,117.50,0,1,0,97,88,-38571,14019,47782,2951.50,50,WP,1,0,0,0,0,0,0,1764266443581,4025,4036,3991,3999,3981,3978,18,,,,,,,0,0,0,-1.00,41.00,1175.00,0.00,0.00,0.00,14,214.00,30.00,9.32,0.00,0.00,-30.00,0,,,100,99,13,2,0,0,1,1,0,,,,,0.0,0.0,0.0,0.0,0.0,0.0,0
-22.959724,-67.786901,21.70,0.00,3.00,0.94,21.70,21.70,3.40,1.46,8565,2025-11-27 18:00:43.682,2025-11-27 19:00:43.682,13,0,0,47.782,-22.959732,-67.786904,0.00,0.00,-3.00,0.20,3.90,117.60,0,1,0,97,88,-38571,14019,47782,2951.50,50,WP,1,0,0,0,0,0,0,1764266443682,4025,4036,3991,3999,3981,3978,18,,,,,,,0,0,0,-2.00,39.00,1176.00,0.00,0.00,0.00,14,217.00,30.00,9.36,0.00,0.00,-30.00,0,,,100,99,13,2,0,0,1,1,0,,,,,0.0,0.0,0.0,0.0,0.0,0.0,0
-22.959724,-67.786901,22.00,0.00,2.90,0.93,22.00,22.00,3.40,1.46,8665,2025-11-27 18:00:43.783,2025-11-27 19:00:43.783,13,0,0,47.782,-22.959732,-67.786904,0.00,0.00,-2.90,0.30,4.10,117.60,0,1,0,97,88,-38571,14019,47782,2951.50,50,WP,1,0,0,0,0,0,0,1764266443782,4025,4036,3991,3999,3981,3978,18,,,,,,,0,0,0,-3.00,41.00,1176.00,0.00,0.00,0.00,14,220.00,29.00,9.33,0.00,0.00,-29.00,0,,,100,99,13,2,0,0,1,1,0,,,,,0.0,0.0,0.0,0.0,0.0,0.0,0
-22.959724,-67.786901,22.30,0.00,2.90,0.93,22.30,22.30,3.40,1.46,8765,2025-11-27 18:00:43.882,2025-11-27 19:00:43.882,13,0,0,47.782,-22.959732,-67.786904,0.00,0.00,-2.90,0.10,4.10,117.60,0,1,0,97,88,-38571,14019,47782,2951.50,50,WP,1,0,0,0,0,0,0,1764266443882,4025,4036,3991,3999,3981,3978,18,,,,,,,0,0,0,-1.00,41.00,1176.00,0.00,0.00,0.00,14,223.00,29.00,9.34,0.00,0.00,-29.00,0,,,100,99,13,2,0,0,1,1,0,,,,,0.0,0.0,0.0,0.0,0.0,0.0,0
-22.959724,-67.786901,22.60,0.00,2.90,0.93,22.60,22.60,3.40,1.46,8865,2025-11-27 18:00:43.982,2025-11-27 19:00:43.982,13,0,0,47.782,-22.959732,-67.786904,0.00,0.00,-2.90,0.20,3.90,117.60,0,1,0,97,88,-38571,14019,47782,2951.50,50,WP,1,0,0,0,0,0,0,1764266443982,4025,4036,3991,3999,3981,3978,18,,,,,,,0,0,0,-2.00,39.00,1176.00,0.00,0.00,0.00,14,226.00,29.00,9.32,0.00,0.00,-29.00,0,,,100,99,13,2,0,0,1,1,0,,,,,0.0,0.0,0.0,0.0,0.0,0.0,0
-22.959724,-67.786900,22.90,0.00,2.90,0.93,22.90,22.90,3.40,1.46,8966,2025-11-27 18:00:44.084,2025-11-27 19:00:44.084,13,0,0,47.782,-22.959732,-67.786904,0.00,0.00,-2.90,0.40,3.70,117.70,0,1,0,97,88,-38571,14019,47782,2951.50,50,WP,1,0,0,0,0,0,0,1764266444083,4025,4036,3991,3999,3981,3978,18,,,,,,,0,0,0,-4.00,37.00,1177.00,0.00,0.00,0.00,14,229.00,29.00,9.33,0.00,0.00,-29.00,0,,,100,99,13,2,0,0,1,1,0,,,,,0.0,0.0,0.0,0.0,0.0,0.0,0
-22.959724,-67.786900,23.20,0.00,2.90,0.93,23.20,23.20,3.40,1.46,9067,2025-11-27 18:00:44.184,2025-11-27 19:00:44.184,13,0,0,47.782,-22.959732,-67.786904,0.00,0.00,-2.90,0.60,3.60,117.70,0,1,0,97,88,-38571,14019,47782,2951.50,50,WP,1,0,0,0,0,0,0,1764266444184,4025,4036,3991,3999,3981,3978,18,,,,,,,0,0,0,-6.00,36.00,1177.00,0.00,0.00,0.00,14,232.00,29.00,9.28,0.00,0.00,-29.00,0,,,100,100,13,2,0,0,1,1,0,,,,,0.0,0.0,0.0,0.0,0.0,0.0,0
-22.959724,-67.786900,23.50,0.00,2.90,0.93,23.50,23.50,3.40,1.46,9167,2025-11-27 18:00:44.284,2025-11-27 19:00:44.284,13,0,0,47.782,-22.959732,-67.786904,0.00,0.00,-2.90,0.70,3.50,117.70,0,1,0,97,88,-38571,14019,47782,2951.50,50,WP,1,0,0,0,0,0,0,1764266444284,4025,4036,3991,3999,3981,3978,18,,,,,,,0,0,0,-7.00,35.00,1177.00,0.00,0.00,0.00,14,235.00,29.00,9.27,0.00,0.00,-29.00,0,,,100,100,13,2,0,0,1,1,0,,,,,0.0,0.0,0.0,0.0,0.0,0.0,0
-22.959725,-67.786900,23.80,0.00,2.90,0.92,23.80,23.80,3.40,1.46,9268,2025-11-27 18:00:44.385,2025-11-27 19:00:44.385,13,0,0,47.619,-22.959732,-67.786904,0.00,0.00,-2.90,0.90,3.40,117.70,0,1,0,97,88,-38729,14019,47619,2951.50,50,WP,1,0,0,0,0,0,0,1764266444385,4025,4036,3991,3999,3981,3978,18,,,,,,,0,0,0,-9.00,34.00,1177.00,0.00,0.00,0.00,14,238.00,29.00,9.20,0.00,0.00,-29.00,0,,,100,100,13,2,0,0,1,1,0,,,,,0.0,0.0,0.0,0.0,0.0,0.0,0
-22.959725,-67.786900,24.10,0.00,3.00,0.92,24.10,24.10,3.40,1.46,9369,2025-11-27 18:00:44.486,2025-11-27 19:00:44.486,13,0,0,47.619,-22.959732,-67.786904,0.00,0.00,-3.00,1.40,3.60,117.70,0,1,0,97,88,-38729,14019,47619,2951.50,50,WP,1,0,0,0,0,0,0,1764266444486,4025,4036,3991,3999,3981,3978,18,,,,,,,0,0,0,-14.00,36.00,1177.00,0.00,0.00,0.00,14,241.00,30.00,9.19,0.00,0.00,-30.00,0,,,100,100,13,2,0,0,1,1,0,,,,,0.0,0.0,0.0,0.0,0.0,0.0,0
-22.959725,-67.786900,24.40,0.00,3.00,0.92,24.40,24.40,3.40,1.46,9470,2025-11-27 18:00:44.588,2025-11-27 19:00:44.588,13,0,0,47.619,-22.959732,-67.786904,0.00,0.00,-3.00,1.70,3.70,117.70,0,1,0,97,88,-38729,14019,47619,2951.50,50,WP,1,0,0,0,0,0,0,1764266444587,4025,4036,3991,3999,3981,3978,18,,,,,,,0,0,0,-17.00,37.00,1177.00,0.00,0.00,0.00,14,244.00,30.00,9.16,0.00,0.00,-30.00,0,,,100,100,13,2,0,0,1,1,0,,,,,0.0,0.0,0.0,0.0,0.0,0.0,0
-22.959725,-67.786900,24.70,0.00,3.00,0.92,24.70,24.70,3.40,1.46,9570,2025-11-27 18:00:44.687,2025-11-27 19:00:44.687,13,0,0,47.619,-22.959732,-67.786904,0.00,0.00,-3.00,1.80,3.60,117.70,0,1,0,97,88,-38729,14019,47619,2951.50,50,WP,1,0,0,0,0,0,0,1764266444687,4025,4036,3991,3999,3981,3978,18,,,,,,,0,0,0,-18.00,36.00,1177.00,0.00,0.00,0.00,14,247.00,30.00,9.18,0.00,0.00,-30.00,0,,,100,100,13,2,0,0,1,1,0,,,,,0.0,0.0,0.0,0.0,0.0,0.0,0
-22.959725,-67.786900,25.00,0.00,2.90,0.92,25.00,25.00,3.40,1.46,9672,2025-11-27 18:00:44.789,2025-11-27 19:00:44.789,13,0,0,47.619,-22.959732,-67.786904,0.00,0.00,-2.90,1.80,3.50,117.70,0,1,0,97,88,-38729,14019,47619,2951.50,50,WP,1,0,0,0,0,0,0,1764266444789,4025,4036,3991,3999,3981,3978,18,,,,,,,0,0,0,-18.00,35.00,1177.00,0.00,0.00,0.00,14,250.00,29.00,9.19,0.00,0.00,-29.00,0,,,100,100,13,2,0,0,1,1,0,,,,,0.0,0.0,0.0,0.0,0.0,0.0,0
-22.959725,-67.786900,25.30,0.00,2.90,0.92,25.30,25.30,3.40,1.46,9772,2025-11-27 18:00:44.889,2025-11-27 19:00:44.889,13,0,0,47.619,-22.959732,-67.786904,0.00,0.00,-2.90,1.30,3.50,117.70,0,1,0,97,88,-38729,14019,47619,2951.50,50,WP,1,0,0,0,0,0,0,1764266444889,4025,4036,3991,3999,3981,3978,18,,,,,,,0,0,0,-13.00,35.00,1177.00,0.00,0.00,0.00,14,253.00,29.00,9.23,0.00,0.00,-29.00,0,,,100,100,13,2,0,0,1,1,0,,,,,0.0,0.0,0.0,0.0,0.0,0.0,0
-22.959725,-67.786900,25.50,0.00,2.90,0.93,25.50,25.50,3.40,1.46,9872,2025-11-27 18:00:44.990,2025-11-27 19:00:44.990,13,0,0,47.619,-22.959732,-67.786904,0.00,0.00,-2.90,0.90,3.40,117.70,0,1,0,97,88,-38729,14019,47619,2951.50,50,WP,1,0,0,0,0,0,0,1764266444989,4025,4036,3991,3999,3981,3978,18,,,,,,,0,0,0,-9.00,34.00,1177.00,0.00,0.00,0.00,14,255.00,29.00,9.25,0.00,0.00,-29.00,0,,,100,100,13,2,0,0,1,1,0,,,,,0.0,0.0,0.0,0.0,0.0,0.0,0
-22.959725,-67.786900,25.80,0.00,3.00,0.93,25.80,25.80,3.40,1.46,9974,2025-11-27 18:00:45.092,2025-11-27 19:00:45.092,13,0,0,47.619,-22.959732,-67.786904,0.00,0.00,-3.00,0.70,3.20,117.70,0,1,0,97,88,-38729,14019,47619,2951.50,50,WP,1,0,0,0,0,0,0,1764266445091,4025,4036,3991,3999,3981,3978,18,,,,,,,0,0,0,-7.00,32.00,1177.00,0.00,0.00,0.00,14,258.00,30.00,9.31,0.00,0.00,-30.00,0,,,100,100,13,2,0,0,1,1,0,,,,,0.0,0.0,0.0,0.0,0.0,0.0,0
-22.959725,-67.786900,26.10,0.00,3.00,0.94,26.10,26.10,3.40,1.46,10074,2025-11-27 18:00:45.192,2025-11-27 19:00:45.192,13,0,0,47.619,-22.959732,-67.786904,0.10,0.00,-3.00,0.50,3.60,117.70,0,1,0,97,88,-38729,14019,47619,2951.50,50,WP,1,0,0,0,0,0,0,1764266445191,4025,4036,3991,3999,3981,3978,18,,,,,,,0,0,0,-5.00,36.00,1177.00,0.00,0.00,0.00,14,261.00,30.02,9.38,1.00,0.00,-30.00,0,,,100,100,13,2,0,0,1,1,0,,,,,0.0,0.0,0.0,0.0,0.0,0.0,0
-22.959724,-67.786900,26.40,0.00,3.00,0.95,26.40,26.40,3.40,1.46,10174,2025-11-27 18:00:45.292,2025-11-27 19:00:45.292,13,0,0,47.619,-22.959732,-67.786904,0.10,0.00,-3.00,0.60,3.90,117.70,0,1,0,97,88,-38729,14019,47619,2951.50,50,WP,1,0,0,0,0,0,0,1764266445291,4025,4036,3991,3999,3981,3978,18,,,,,,,0,0,0,-6.00,39.00,1177.00,0.00,0.00,0.00,14,264.00,30.02,9.49,1.00,0.00,-30.00,0,,,100,100,13,2,0,0,1,1,0,,,,,0.0,0.0,0.0,0.0,0.0,0.0,0
-22.959724,-67.786900,26.70,0.00,2.90,0.96,26.70,26.70,3.40,1.46,10276,2025-11-27 18:00:45.393,2025-11-27 19:00:45.394,13,0,0,47.619,-22.959732,-67.786904,0.10,0.00,-2.90,0.60,4.50,117.80,0,1,0,97,88,-38729,14019,47619,2951.50,50,WP,1,0,0,0,0,0,0,1764266445393,4025,4036,3991,3999,3981,3978,18,,,,,,,0,0,0,-6.00,45.00,1178.00,0.00,0.00,0.00,14,267.00,29.02,9.62,1.00,0.00,-29.00,0,,,100,100,13,2,0,0,1,1,0,,,,,0.0,0.0,0.0,0.0,0.0,0.0,0
-22.959724,-67.786900,27.00,0.00,3.00,0.98,27.00,27.00,3.40,1.46,10381,2025-11-27 18:00:45.499,2025-11-27 19:00:45.499,13,0,0,47.619,-22.959732,-67.786904,0.10,0.00,-3.00,0.70,5.00,117.80,0,1,0,97,88,-38729,14019,47619,2951.50,50,WP,1,0,0,0,0,0,0,1764266445498,4025,4036,3991,3999,3981,3978,18,,,,,,,0,0,0,-7.00,50.00,1178.00,0.00,0.00,0.00,14,270.00,30.02,9.76,1.00,0.00,-30.00,0,,,100,100,13,2,0,0,1,1,0,,,,,0.0,0.0,0.0,0.0,0.0,0.0,0
-22.959724,-67.786899,27.30,0.00,3.00,0.99,27.30,27.30,3.40,1.46,10480,2025-11-27 18:00:45.597,2025-11-27 19:00:45.597,13,0,0,47.619,-22.959732,-67.786904,0.10,0.00,-3.00,0.80,5.00,117.80,0,1,0,97,88,-38729,14019,47619,2951.50,50,WP,1,0,0,0,0,0,0,1764266445597,4025,4036,3991,3999,3981,3978,18,,,,,,,0,0,0,-8.00,50.00,1178.00,0.00,0.00,0.00,14,273.00,30.02,9.93,1.00,0.00,-30.00,0,,,100,100,13,2,0,0,1,1,0,,,,,0.0,0.0,0.0,0.0,0.0,0.0,0
-22.959724,-67.786899,27.60,0.00,3.00,1.01,27.60,27.60,3.40,1.46,10582,2025-11-27 18:00:45.699,2025-11-27 19:00:45.699,13,0,0,47.619,-22.959732,-67.786904,0.00,0.00,-3.00,0.90,5.00,117.60,0,1,0,97,88,-38729,14019,47619,2951.50,50,WP,1,0,0,0,0,0,0,1764266445699,4025,4036,3991,3999,3981,3978,18,,,,,,,0,0,0,-9.00,50.00,1176.00,0.00,0.00,0.00,14,276.00,30.00,10.07,0.00,0.00,-30.00,0,,,100,100,13,2,0,0,1,1,0,,,,,0.0,0.0,0.0,0.0,0.0,0.0,0
-22.959724,-67.786899,28.20,0.00,3.00,1.02,28.20,28.20,3.40,1.46,10779,2025-11-27 18:00:45.897,2025-11-27 19:00:45.897,13,0,0,47.619,-22.959732,-67.786904,0.00,0.00,-3.00,0.60,4.80,117.50,0,1,0,97,88,-38729,14019,47619,2951.50,50,WP,1,0,0,0,0,0,0,1764266445896,4025,4036,3991,3999,3981,3978,18,,,,,,,0,0,0,-6.00,48.00,1175.00,0.00,0.00,0.00,14,282.00,30.00,10.25,0.00,0.00,-30.00,0,,,100,100,13,2,0,0,1,1,0,,,,,0.0,0.0,0.0,0.0,0.0,0.0,0
-22.959724,-67.786899,28.50,0.00,3.00,1.03,28.50,28.50,3.40,1.46,10881,2025-11-27 18:00:45.999,2025-11-27 19:00:45.999,13,0,0,47.619,-22.959732,-67.786904,0.00,0.00,-3.00,0.40,4.60,117.50,0,1,0,97,88,-38729,14019,47619,2951.50,50,WP,1,0,0,0,0,0,0,1764266445998,4025,4036,3991,3999,3981,3978,18,,,,,,,0,0,0,-4.00,46.00,1175.00,0.00,0.00,0.00,14,285.00,30.00,10.30,0.00,0.00,-30.00,0,,,100,100,13,2,0,0,1,1,0,,,,,0.0,0.0,0.0,0.0,0.0,0.0,0
-22.959724,-67.786899,28.80,0.00,3.00,1.03,28.80,28.80,3.40,1.46,10982,2025-11-27 18:00:46.099,2025-11-27 19:00:46.099,13,0,0,47.619,-22.959732,-67.786904,0.00,0.00,-3.00,0.10,4.30,117.50,0,1,0,97,88,-38729,14019,47619,2951.50,50,WP,1,0,0,0,0,0,0,1764266446099,4025,4036,3991,3999,3981,3978,18,,,,,,,0,0,0,-1.00,43.00,1175.00,0.00,0.00,0.00,14,288.00,30.00,10.35,0.00,0.00,-30.00,0,,,100,100,13,2,0,0,1,1,0,,,,,0.0,0.0,0.0,0.0,0.0,0.0,0
-22.959724,-67.786899,29.10,0.00,3.00,1.03,29.10,29.10,3.40,1.46,11082,2025-11-27 18:00:46.199,2025-11-27 19:00:46.199,13,0,0,47.619,-22.959732,-67.786904,0.00,0.00,-3.00,0.30,4.20,117.50,0,1,0,97,88,-38729,14019,47619,2951.50,50,WP,1,0,0,0,0,0,0,1764266446199,4025,4036,3991,3999,3981,3978,18,,,,,,,0,0,0,-3.00,42.00,1175.00,0.00,0.00,0.00,14,291.00,30.00,10.32,0.00,0.00,-30.00,0,,,100,100,13,2,0,0,1,1,0,,,,,0.0,0.0,0.0,0.0,0.0,0.0,0
-22.959724,-67.786899,29.40,0.00,3.00,1.03,29.40,29.40,3.40,1.46,11182,2025-11-27 18:00:46.300,2025-11-27 19:00:46.300,13,0,0,47.619,-22.959732,-67.786904,0.00,0.00,-3.00,0.50,4.30,117.50,0,1,0,97,88,-38729,14019,47619,2951.50,50,WP,1,0,0,0,0,0,0,1764266446299,4025,4036,3991,3999,3981,3978,18,,,,,,,0,0,0,-5.00,43.00,1175.00,0.00,0.00,0.00,14,294.00,30.00,10.33,0.00,0.00,-30.00,0,,,100,99,13,2,0,0,1,1,0,,,,,0.0,0.0,0.0,0.0,0.0,0.0,0
-22.959724,-67.786899,29.70,0.00,3.00,1.03,29.70,29.70,3.40,1.46,11283,2025-11-27 18:00:46.401,2025-11-27 19:00:46.401,13,0,0,47.601,-22.959732,-67.786904,0.00,0.00,-3.00,0.40,4.60,117.50,0,1,0,97,88,-38739,14019,47601,2951.50,50,WP,1,0,0,0,0,0,0,1764266446400,4025,4036,3991,3999,3981,3978,18,,,,,,,0,0,0,-4.00,46.00,1175.00,0.00,0.00,0.00,14,297.00,30.00,10.33,0.00,0.00,-30.00,0,,,100,99,13,2,0,0,1,1,0,,,,,0.0,0.0,0.0,0.0,0.0,0.0,0
-22.959724,-67.786899,30.00,0.00,3.00,1.03,30.00,30.00,3.40,1.46,11383,2025-11-27 18:00:46.501,2025-11-27 19:00:46.501,13,0,0,47.601,-22.959732,-67.786904,0.00,0.00,-3.00,0.20,4.90,117.50,0,1,0,97,88,-38739,14019,47601,2951.50,50,WP,1,0,0,0,0,0,0,1764266446500,4025,4036,3991,3999,3981,3978,18,,,,,,,0,0,0,-2.00,49.00,1175.00,0.00,0.00,0.00,14,300.00,30.00,10.35,0.00,0.00,-30.00,0,,,100,99,13,2,0,0,1,1,0,,,,,0.0,0.0,0.0,0.0,0.0,0.0,0
-22.959724,-67.786899,30.30,0.00,3.00,1.04,30.30,30.30,3.40,1.46,11483,2025-11-27 18:00:46.601,2025-11-27 19:00:46.601,13,0,0,47.601,-22.959732,-67.786904,0.00,0.00,-3.00,0.20,5.00,117.60,0,1,0,97,88,-38739,14019,47601,2951.50,50,WP,1,0,0,0,0,0,0,1764266446600,4025,4036,3991,3999,3981,3978,18,,,,,,,0,0,0,-2.00,50.00,1176.00,0.00,0.00,0.00,14,303.00,30.00,10.36,0.00,0.00,-30.00,0,,,100,99,13,2,0,0,1,1,0,,,,,0.0,0.0,0.0,0.0,0.0,0.0,0
-22.959724,-67.786899,30.60,0.00,3.00,1.04,30.60,30.60,3.40,1.46,11586,2025-11-27 18:00:46.703,2025-11-27 19:00:46.704,13,0,0,47.601,-22.959732,-67.786904,0.00,0.00,-3.00,0.30,5.10,117.60,0,1,0,97,88,-38739,14019,47601,2951.50,50,WP,1,0,0,0,0,0,0,1764266446703,4025,4036,3991,3999,3981,3978,18,,,,,,,0,0,0,-3.00,51.00,1176.00,0.00,0.00,0.00,14,306.00,30.00,10.38,0.00,0.00,-30.00,0,,,100,99,13,2,0,0,1,1,0,,,,,0.0,0.0,0.0,0.0,0.0,0.0,0
-22.959724,-67.786899,30.90,0.00,2.90,1.04,30.90,30.90,3.40,1.46,11687,2025-11-27 18:00:46.804,2025-11-27 19:00:46.804,13,0,0,47.601,-22.959732,-67.786904,0.00,0.00,-2.90,0.40,5.40,117.60,0,1,0,97,88,-38739,14019,47601,2951.50,50,WP,1,0,0,0,0,0,0,1764266446804,4025,4036,3991,3999,3981,3978,18,,,,,,,0,0,0,-4.00,54.00,1176.00,0.00,0.00,0.00,14,309.00,29.00,10.44,0.00,0.00,-29.00,0,,,100,99,13,2,0,0,1,1,0,,,,,0.0,0.0,0.0,0.0,0.0,0.0,0
-22.959724,-67.786899,31.20,0.00,2.80,1.05,31.20,31.20,3.40,1.46,11786,2025-11-27 18:00:46.904,2025-11-27 19:00:46.904,13,0,0,47.601,-22.959732,-67.786904,0.00,0.00,-2.80,0.60,5.90,117.60,0,1,0,97,88,-38739,14019,47601,2951.50,50,WP,1,0,0,0,0,0,0,1764266446903,4025,4036,3991,3999,3981,3978,18,,,,,,,0,0,0,-6.00,59.00,1176.00,0.00,0.00,0.00,14,312.00,28.00,10.48,0.00,0.00,-28.00,0,,,100,99,13,2,0,0,1,1,0,,,,,0.0,0.0,0.0,0.0,0.0,0.0,0
-22.959724,-67.786899,31.50,0.00,2.70,1.05,31.50,31.50,3.40,1.46,11887,2025-11-27 18:00:47.004,2025-11-27 19:00:47.004,13,0,0,47.601,-22.959732,-67.786904,0.00,0.00,-2.70,1.20,6.00,117.60,0,1,0,97,88,-38739,14019,47601,2951.50,50,WP,1,0,0,0,0,0,0,1764266447004,4025,4036,3991,3999,3981,3978,18,,,,,,,0,0,0,-12.00,60.00,1176.00,0.00,0.00,0.00,14,315.00,27.00,10.51,0.00,0.00,-27.00,0,,,100,99,13,2,0,0,1,1,0,,,,,0.0,0.0,0.0,0.0,0.0,0.0,0
-22.959724,-67.786899,31.70,0.00,2.50,1.05,31.70,31.70,3.40,1.46,11989,2025-11-27 18:00:47.106,2025-11-27 19:00:47.106,13,0,0,47.601,-22.959732,-67.786904,0.00,0.00,-2.50,1.70,6.30,117.70,0,1,0,97,88,-38739,14019,47601,2951.50,50,WP,1,0,0,0,0,0,0,1764266447106,4025,4036,3991,3999,3981,3978,18,,,,,,,0,0,0,-17.00,63.00,1177.00,0.00,0.00,0.00,14,317.00,25.00,10.52,0.00,0.00,-25.00,0,,,100,99,13,2,0,0,1,1,0,,,,,0.0,0.0,0.0,0.0,0.0,0.0,0
-22.959724,-67.786899,32.00,0.00,2.20,1.05,32.00,32.00,3.40,1.46,12087,2025-11-27 18:00:47.205,2025-11-27 19:00:47.205,13,0,0,47.601,-22.959732,-67.786904,0.00,0.00,-2.20,2.10,6.10,117.80,0,1,0,97,88,-38739,14019,47601,2951.50,50,WP,1,0,0,0,0,0,0,1764266447204,4025,4036,3991,3999,3981,3978,18,,,,,,,0,0,0,-21.00,61.00,1178.00,0.00,0.00,0.00,14,320.00,22.00,10.51,0.00,0.00,-22.00,0,,,100,99,13,2,0,0,1,1,0,,,,,0.0,0.0,0.0,0.0,0.0,0.0,0
-22.959724,-67.786899,32.20,0.00,2.10,1.05,32.20,32.20,3.40,1.46,12189,2025-11-27 18:00:47.307,2025-11-27 19:00:47.307,13,0,0,47.601,-22.959732,-67.786904,0.00,0.00,-2.10,2.30,5.90,117.70,0,1,0,97,88,-38739,14019,47601,2951.50,50,WP,1,0,0,0,0,0,0,1764266447306,4025,4036,3991,3999,3981,3978,18,,,,,,,0,0,0,-23.00,59.00,1177.00,0.00,0.00,0.00,14,322.00,21.00,10.46,0.00,0.00,-21.00,0,,,100,99,13,2,0,0,1,1,0,,,,,0.0,0.0,0.0,0.0,0.0,0.0,0
-22.959724,-67.786899,32.40,0.00,2.00,1.04,32.40,32.40,3.40,1.46,12290,2025-11-27 18:00:47.407,2025-11-27 19:00:47.408,13,0,0,47.601,-22.959732,-67.786904,0.00,0.00,-2.00,2.50,5.60,117.80,0,1,0,97,88,-38739,14019,47601,2951.50,50,WP,1,0,0,0,0,0,0,1764266447407,4025,4036,3991,3999,3981,3978,18,,,,,,,0,0,0,-25.00,56.00,1178.00,0.00,0.00,0.00,14,324.00,20.00,10.43,0.00,0.00,-20.00,0,,,100,99,13,2,0,0,1,1,0,,,,,0.0,0.0,0.0,0.0,0.0,0.0,0
-22.959724,-67.786899,32.80,0.00,1.70,1.03,32.80,32.80,3.40,1.46,12491,2025-11-27 18:00:47.609,2025-11-27 19:00:47.609,13,0,0,47.601,-22.959732,-67.786904,0.00,-0.10,-1.70,1.80,5.20,117.70,0,1,0,97,88,-38739,14019,47601,2951.50,50,WP,1,0,0,0,0,0,0,1764266447608,4025,4036,3991,3999,3981,3978,18,,,,,,,0,0,0,-18.00,52.00,1177.00,0.00,0.00,0.00,14,328.00,17.03,10.25,0.00,-1.00,-17.00,0,,,100,99,13,2,0,0,1,1,0,,,,,0.0,0.0,0.0,0.0,0.0,0.0,0
-22.959724,-67.786899,33.00,0.00,1.70,1.01,33.00,33.00,3.40,1.46,12593,2025-11-27 18:00:47.710,2025-11-27 19:00:47.710,13,0,0,47.601,-22.959732,-67.786904,0.00,-0.10,-1.70,1.90,4.40,117.70,0,1,0,97,88,-38739,14019,47601,2951.50,50,WP,1,0,0,0,0,0,0,1764266447710,4025,4036,3991,3999,3981,3978,18,,,,,,,0,0,0,-19.00,44.00,1177.00,0.00,0.00,0.00,14,330.00,17.03,10.13,0.00,-1.00,-17.00,0,,,100,99,13,2,0,0,1,1,0,,,,,0.0,0.0,0.0,0.0,0.0,0.0,0
-22.959724,-67.786899,33.10,0.00,1.60,1.00,33.10,33.10,3.40,1.46,12698,2025-11-27 18:00:47.815,2025-11-27 19:00:47.815,13,0,0,47.601,-22.959732,-67.786904,0.00,-0.10,-1.60,2.10,4.10,117.70,0,1,0,97,88,-38739,14019,47601,2951.50,50,WP,1,0,0,0,0,0,0,1764266447815,4025,4036,3991,3999,3981,3978,18,,,,,,,0,0,0,-21.00,41.00,1177.00,0.00,0.00,0.00,14,331.00,16.03,10.01,0.00,-1.00,-16.00,0,,,100,99,13,2,0,0,1,1,0,,,,,0.0,0.0,0.0,0.0,0.0,0.0,0
-22.959724,-67.786899,33.30,0.00,1.50,0.99,33.30,33.30,3.40,1.46,12790,2025-11-27 18:00:47.908,2025-11-27 19:00:47.908,13,0,0,47.601,-22.959732,-67.786904,0.00,-0.10,-1.50,2.20,4.10,117.70,0,1,0,97,88,-38739,14019,47601,2951.50,50,WP,1,0,0,0,0,0,0,1764266447907,4025,4036,3991,3999,3981,3978,18,,,,,,,0,0,0,-22.00,41.00,1177.00,0.00,0.00,0.00,14,333.00,15.03,9.89,0.00,-1.00,-15.00,0,,,100,96,13,2,0,0,1,1,0,,,,,0.0,0.0,0.0,0.0,0.0,0.0,0
-22.959724,-67.786900,33.40,0.00,1.40,0.98,33.40,33.40,3.40,1.46,12899,2025-11-27 18:00:48.017,2025-11-27 19:00:48.017,13,0,0,47.601,-22.959732,-67.786904,0.00,-0.10,-1.40,1.90,4.10,117.70,0,1,0,97,88,-38739,14019,47601,2951.50,50,WP,1,0,0,0,0,0,0,1764266448016,4025,4036,3991,3999,3981,3978,18,,,,,,,0,0,0,-19.00,41.00,1177.00,0.00,0.00,0.00,14,334.00,14.04,9.79,0.00,-1.00,-14.00,0,,,100,96,13,2,0,0,1,1,0,,,,,0.0,0.0,0.0,0.0,0.0,0.0,0
-22.959724,-67.786900,33.60,0.00,1.32,0.97,33.60,33.60,3.40,1.46,12997,2025-11-27 18:00:48.114,2025-11-27 19:00:48.115,13,0,0,47.601,-22.959732,-67.786904,0.00,-0.20,-1.30,1.40,3.90,117.80,0,1,0,97,88,-38739,14019,47601,2951.50,50,WP,1,0,0,0,0,0,0,1764266448114,4025,4036,3991,3999,3981,3978,18,,,,,,,0,0,0,-14.00,39.00,1178.00,0.00,0.00,0.00,14,336.00,13.15,9.68,0.00,-2.00,-13.00,0,,,100,96,13,2,0,0,1,1,0,,,,,0.0,0.0,0.0,0.0,0.0,0.0,0
-22.959724,-67.786900,33.70,0.00,1.32,0.96,33.70,33.70,3.40,1.46,13099,2025-11-27 18:00:48.217,2025-11-27 19:00:48.217,13,0,0,47.601,-22.959732,-67.786904,0.00,-0.20,-1.30,0.90,3.80,117.70,0,1,0,97,88,-38739,14019,47601,2951.50,50,WP,1,0,0,0,0,0,0,1764266448216,4025,4036,3991,3999,3981,3978,18,,,,,,,0,0,0,-9.00,38.00,1177.00,0.00,0.00,0.00,14,337.00,13.15,9.63,0.00,-2.00,-13.00,0,,,100,96,13,2,0,0,1,1,0,,,,,0.0,0.0,0.0,0.0,0.0,0.0,0
-22.959724,-67.786900,33.90,0.00,1.22,0.96,33.90,33.90,3.40,1.46,13197,2025-11-27 18:00:48.315,2025-11-27 19:00:48.315,13,0,0,47.601,-22.959732,-67.786904,0.00,-0.20,-1.20,0.20,3.80,117.70,0,1,0,97,88,-38739,14019,47601,2951.50,50,WP,1,0,0,0,0,0,0,1764266448314,4025,4036,3991,3999,3981,3978,18,,,,,,,0,0,0,-2.00,38.00,1177.00,0.00,0.00,0.00,14,339.00,12.17,9.58,0.00,-2.00,-12.00,0,,,100,96,13,2,0,0,1,1,0,,,,,0.0,0.0,0.0,0.0,0.0,0.0,0
-22.959724,-67.786901,34.00,0.00,1.20,0.96,34.00,34.00,3.40,1.46,13298,2025-11-27 18:00:48.416,2025-11-27 19:00:48.416,13,0,0,47.419,-22.959732,-67.786904,0.00,-0.10,-1.20,-0.20,3.80,117.60,0,1,0,97,88,-42153,13971,47419,2951.50,50,WP,1,0,0,0,0,0,0,1764266448415,4025,4036,3991,3999,3981,3978,18,,,,,,,0,0,0,2.00,38.00,1176.00,0.00,0.00,0.00,14,340.00,12.04,9.59,0.00,-1.00,-12.00,0,,,100,96,13,2,0,0,1,1,0,,,,,0.0,0.0,0.0,0.0,0.0,0.0,0
-22.959724,-67.786901,34.10,0.00,1.10,0.96,34.10,34.10,3.40,1.46,13399,2025-11-27 18:00:48.516,2025-11-27 19:00:48.516,13,0,0,47.419,-22.959732,-67.786904,0.00,-0.10,-1.10,-0.50,4.10,117.60,0,1,0,97,88,-42153,13971,47419,2951.50,50,WP,1,0,0,0,0,0,0,1764266448516,4025,4036,3991,3999,3981,3978,18,,,,,,,0,0,0,5.00,41.00,1176.00,0.00,0.00,0.00,14,341.00,11.05,9.59,0.00,-1.00,-11.00,0,,,100,96,13,2,0,0,1,1,0,,,,,0.0,0.0,0.0,0.0,0.0,0.0,0
-22.959724,-67.786901,34.20,0.00,1.10,0.96,34.20,34.20,3.40,1.46,13406,2025-11-27 18:00:48.524,2025-11-27 19:00:48.524,13,0,0,47.419,-22.959732,-67.786904,0.00,-0.10,-1.10,-0.50,3.90,117.60,0,1,0,97,88,-42153,13971,47419,2951.50,50,WP,1,0,0,0,0,0,0,1764266448523,4025,4036,3991,3999,3981,3978,18,,,,,,,0,0,0,5.00,39.00,1176.00,0.00,0.00,0.00,14,342.00,11.05,9.62,0.00,-1.00,-11.00,0,,,100,96,13,2,0,0,1,1,0,,,,,0.0,0.0,0.0,0.0,0.0,0.0,0
-22.959724,-67.786901,34.40,0.00,1.10,0.96,34.40,34.40,3.40,1.46,13595,2025-11-27 18:00:48.712,2025-11-27 19:00:48.712,13,0,0,47.419,-22.959732,-67.786904,0.00,0.00,-1.10,-0.50,3.40,117.60,0,1,0,97,88,-42153,13971,47419,2951.50,50,WP,1,0,0,0,0,0,0,1764266448712,4025,4036,3991,3999,3981,3978,18,,,,,,,0,0,0,5.00,34.00,1176.00,0.00,0.00,0.00,14,344.00,11.00,9.64,0.00,0.00,-11.00,0,,,100,96,13,2,0,0,1,1,0,,,,,0.0,0.0,0.0,0.0,0.0,0.0,0
-22.959724,-67.786901,34.50,0.00,1.10,0.97,34.50,34.50,3.40,1.46,13597,2025-11-27 18:00:48.715,2025-11-27 19:00:48.715,13,0,0,47.419,-22.959732,-67.786904,0.00,0.00,-1.10,-0.10,3.60,117.60,0,1,0,97,88,-42153,13971,47419,2951.50,50,WP,1,0,0,0,0,0,0,1764266448714,4025,4036,3991,3999,3981,3978,18,,,,,,,0,0,0,1.00,36.00,1176.00,0.00,0.00,0.00,14,345.00,11.00,9.66,0.00,0.00,-11.00,0,,,100,96,13,2,0,0,1,1,0,,,,,0.0,0.0,0.0,0.0,0.0,0.0,0
