latitude,longitude,altitude(m),ultrasonicHeight(m),speed(mps),distance(m),max_altitude(m),max_ascent(m),max_speed(mps),max_distance(m),time(millisecond),datetime(utc),datetime(local),satellites,pressure(Pa),temperature(F),voltage(v),home_latitude,home_longitude,velocityX(mps),velocityY(mps),velocityZ(mps),pitch(deg),roll(deg),yaw(deg),powerlevel,isflying,istakingphoto,remainPowerPercent,remainLifePercent,currentCurrent,currentElectricity,currentVoltage,batteryTemperature,dischargeCount,flightmode,isMotorsOn,isTakingVideo,Rc_elevator,Rc_aileron,Rc_throttle,Rc_rudder,Rc_gyro,timestamp,Battery_Cell1,Battery_Cell2,Battery_Cell3,Battery_Cell4,Battery_Cell5,Battery_Cell6,Dronetype,AppVersion,Planename,FlyControllerSerialNumber,RemoteSerialNumber,BatterySerialNumber,CENTER_BATTERY.productDate,CENTER_BATTERY.serialNo,CENTER_BATTERY.fullCapacity,CENTER_BATTERY.productDateRaw,pitchRaw,rollRaw,yawRaw,gimbalPitchRaw,gimbalRollRaw,gimbalYawRaw,flyState,altitudeRaw,speedRaw,distanceRaw,velocityXRaw,velocityYRaw,velocityZRaw,data_reuse,App_Tip,App_Warning,downlinkSignalQuality,uplinkSignalQuality,transmissionChannel,rcModeSwitch,rcHome,rcPause,rcTransform,rcJoystickMode,appMode,FlyControllerSerialNumber_legacy,RemoteSerialNumber_legacy,BatterySerialNumber_legacy,Battery2SerialNumber,frontAvoidDist,backAvoidDist,rightAvoidDist,leftAvoidDist,upAvoidDist,downAvoidDist,isBrakingToAvoid
-22.959733,-67.786912,0.60,0.00,0.81,0.37,0.60,0.60,0.81,0.37,4,2025-11-28 16:45:15.491,2025-11-28 13:45:15.491,17,0,0,51.622,-22.959732,-67.786915,-0.10,0.40,-0.70,1.70,-1.90,117.80,0,1,0,97,89,-4995,14077,51622,2951.50,44,TakeOff,1,0,0,0,0,0,0,1764348315490,4305,4309,4308,4306,4306,4308,18,Litchi_iOS_2.15.7,EIK Matrice 1,0670131556,03LLCA05XT,,,0,14366,0,-17.00,-19.00,1178.00,0.00,0.00,-6.00,11,6.00,8.12,3.71,-1.00,4.00,-7.00,0,,,100,100,18,2,0,0,1,1,0,(null),(null),,,0.0,0.0,0.0,0.0,0.0,0.0,0
-22.959734,-67.786911,0.60,0.00,0.73,0.43,0.60,0.60,0.81,0.43,112,2025-11-28 16:45:15.598,2025-11-28 13:45:15.599,17,0,0,51.622,-22.959732,-67.786915,-0.10,0.40,-0.60,2.20,-1.70,117.80,0,1,0,97,89,-4995,14077,51622,2951.50,44,TakeOff,1,0,0,0,0,0,0,1764348315598,4305,4309,4308,4306,4306,4308,18,,,,,,,0,0,0,-22.00,-17.00,1178.00,0.00,0.00,-6.00,11,6.00,7.28,4.26,-1.00,4.00,-6.00,0,,,100,100,18,2,0,0,1,1,0,,,,,0.0,0.0,0.0,0.0,0.0,0.0,0
-22.959734,-67.786910,0.70,0.00,0.64,0.48,0.70,0.70,0.81,0.48,192,2025-11-28 16:45:15.679,2025-11-28 13:45:15.679,17,0,0,51.622,-22.959732,-67.786915,0.00,0.40,-0.50,2.90,-0.90,117.90,0,1,0,97,89,-4995,14077,51622,2951.50,44,TakeOff,1,0,0,0,0,0,0,1764348315678,4305,4309,4308,4306,4306,4308,18,,,,,,,0,0,0,-29.00,-9.00,1179.00,0.00,0.00,-6.00,11,7.00,6.40,4.81,0.00,4.00,-5.00,0,,,100,100,18,2,0,0,1,1,0,,,,,0.0,0.0,0.0,0.0,0.0,0.0,0
-22.959734,-67.786910,0.70,0.00,0.64,0.53,0.70,0.70,0.81,0.53,297,2025-11-28 16:45:15.783,2025-11-28 13:45:15.783,17,0,0,51.622,-22.959732,-67.786915,0.00,0.40,-0.50,3.70,0.00,117.90,0,1,0,97,89,-4995,14077,51622,2951.50,44,TakeOff,1,0,0,0,0,0,0,1764348315783,4305,4309,4308,4306,4306,4308,18,,,,,,,0,0,0,-37.00,0.00,1179.00,0.00,0.00,-6.00,11,7.00,6.40,5.31,0.00,4.00,-5.00,0,,,100,100,18,2,0,0,1,1,0,,,,,0.0,0.0,0.0,0.0,0.0,0.0,0
-22.959734,-67.786909,0.80,0.00,0.57,0.58,0.80,0.80,0.81,0.58,407,2025-11-28 16:45:15.894,2025-11-28 13:45:15.894,17,0,0,51.622,-22.959732,-67.786915,0.00,0.40,-0.40,4.30,0.50,117.80,0,1,0,97,89,-4995,14077,51622,2951.50,44,TakeOff,1,0,0,0,0,0,0,1764348315893,4305,4309,4308,4306,4306,4308,18,,,,,,,0,0,0,-43.00,5.00,1178.00,0.00,0.00,-7.00,11,8.00,5.66,5.79,0.00,4.00,-4.00,0,,,100,100,18,2,0,0,1,1,0,,,,,0.0,0.0,0.0,0.0,0.0,0.0,0
-22.959734,-67.786909,0.90,0.00,0.50,0.61,0.90,0.90,0.81,0.61,491,2025-11-28 16:45:15.978,2025-11-28 13:45:15.978,16,0,0,51.622,-22.959732,-67.786915,0.00,0.30,-0.40,4.40,1.00,117.80,0,1,0,97,89,-4995,14077,51622,2951.50,44,TakeOff,1,0,0,0,0,0,0,1764348315977,4305,4309,4308,4306,4306,4308,18,,,,,,,0,0,0,-44.00,10.00,1178.00,0.00,0.00,-7.00,11,9.00,5.00,6.15,0.00,3.00,-4.00,0,,,100,100,18,2,0,0,1,1,0,,,,,0.0,0.0,0.0,0.0,0.0,0.0,0
-22.959733,-67.786908,0.90,0.00,0.45,0.67,0.90,0.90,0.81,0.67,694,2025-11-28 16:45:16.180,2025-11-28 13:45:16.180,16,0,0,51.622,-22.959732,-67.786915,0.00,0.20,-0.40,3.60,1.60,117.90,0,1,0,97,89,-4995,14077,51622,2951.50,44,TakeOff,1,0,0,0,0,0,0,1764348316180,4305,4309,4308,4306,4306,4308,18,,,,,,,0,0,0,-36.00,16.00,1179.00,0.00,0.00,-6.00,11,9.00,4.47,6.69,0.00,2.00,-4.00,0,,,100,100,18,2,0,0,1,1,0,,,,,0.0,0.0,0.0,0.0,0.0,0.0,0
-22.959733,-67.786908,1.00,0.00,0.45,0.69,1.00,1.00,0.81,0.69,794,2025-11-28 16:45:16.281,2025-11-28 13:45:16.281,16,0,0,51.622,-22.959732,-67.786915,0.00,0.20,-0.40,2.40,1.50,117.90,0,1,0,97,89,-4995,14077,51622,2951.50,44,TakeOff,1,0,0,0,0,0,0,1764348316280,4305,4309,4308,4306,4306,4308,18,,,,,,,0,0,0,-24.00,15.00,1179.00,0.00,0.00,-7.00,11,10.00,4.47,6.91,0.00,2.00,-4.00,0,,,100,100,18,2,0,0,1,1,0,,,,,0.0,0.0,0.0,0.0,0.0,0.0,0
-22.959733,-67.786908,1.00,0.00,0.45,0.71,1.00,1.00,0.81,0.71,899,2025-11-28 16:45:16.386,2025-11-28 13:45:16.386,16,0,0,51.622,-22.959732,-67.786915,0.00,0.20,-0.40,1.60,1.40,117.90,0,1,0,97,89,-4995,14077,51622,2951.50,44,TakeOff,1,0,0,0,0,0,0,1764348316385,4305,4309,4308,4306,4306,4308,18,,,,,,,0,0,0,-16.00,14.00,1179.00,0.00,0.00,-7.00,11,10.00,4.47,7.06,0.00,2.00,-4.00,0,,,100,97,18,2,0,0,1,1,0,,,,,0.0,0.0,0.0,0.0,0.0,0.0,0
-22.959733,-67.786908,1.10,0.00,0.45,0.72,1.10,1.10,0.81,0.72,997,2025-11-28 16:45:16.484,2025-11-28 13:45:16.484,16,0,0,51.622,-22.959732,-67.786915,0.00,0.20,-0.40,1.40,1.40,117.80,0,1,0,97,89,-4995,14077,51622,2951.50,44,WP,1,0,0,0,0,0,0,1764348316483,4305,4309,4308,4306,4306,4308,18,,,,,,,0,0,0,-14.00,14.00,1178.00,0.00,0.00,-7.00,14,11.00,4.47,7.23,0.00,2.00,-4.00,0,,,100,97,18,2,0,0,1,1,0,,,,,0.0,0.0,0.0,0.0,0.0,0.0,0
-22.959733,-67.786908,1.10,0.00,0.45,0.74,1.10,1.10,0.81,0.74,1099,2025-11-28 16:45:16.585,2025-11-28 13:45:16.586,16,0,0,51.622,-22.959732,-67.786915,0.00,0.20,-0.40,1.70,1.50,117.80,0,1,0,97,89,-4995,14077,51622,2951.50,44,WP,1,0,0,0,0,0,0,1764348316585,4305,4309,4308,4306,4306,4308,18,,,,,,,0,0,0,-17.00,15.00,1178.00,0.00,0.00,-7.00,14,11.00,4.47,7.40,0.00,2.00,-4.00,0,,,100,97,18,2,0,0,1,1,0,,,,,0.0,0.0,0.0,0.0,0.0,0.0,0
-22.959733,-67.786907,1.20,0.00,0.36,0.76,1.20,1.20,0.81,0.76,1196,2025-11-28 16:45:16.683,2025-11-28 13:45:16.683,16,0,0,51.622,-22.959732,-67.786915,0.00,0.20,-0.30,2.20,1.10,117.90,0,1,0,97,89,-4995,14077,51622,2951.50,44,WP,1,0,0,0,0,0,0,1764348316682,4305,4309,4308,4306,4306,4308,18,,,,,,,0,0,0,-22.00,11.00,1179.00,0.00,0.00,-6.00,14,12.00,3.61,7.58,0.00,2.00,-3.00,0,,,100,97,18,2,0,0,1,1,0,,,,,0.0,0.0,0.0,0.0,0.0,0.0,0
-22.959733,-67.786907,1.30,0.00,0.36,0.78,1.30,1.30,0.81,0.78,1301,2025-11-28 16:45:16.787,2025-11-28 13:45:16.787,16,0,0,51.622,-22.959732,-67.786915,0.00,0.20,-0.30,3.00,0.70,118.10,0,1,0,97,89,-4995,14077,51622,2951.50,44,WP,1,0,0,0,0,0,0,1764348316787,4305,4309,4308,4306,4306,4308,18,,,,,,,0,0,0,-30.00,7.00,1181.00,0.00,0.00,-6.00,14,13.00,3.61,7.76,0.00,2.00,-3.00,0,,,100,97,18,2,0,0,1,1,0,,,,,0.0,0.0,0.0,0.0,0.0,0.0,0
-22.959733,-67.786907,1.30,0.00,0.32,0.79,1.30,1.30,0.81,0.79,1411,2025-11-28 16:45:16.898,2025-11-28 13:45:16.898,16,0,0,51.622,-22.959732,-67.786915,0.00,0.10,-0.30,3.10,0.50,118.30,0,1,0,97,89,-4995,14077,51622,2951.50,44,WP,1,0,0,0,0,0,0,1764348316897,4305,4309,4308,4306,4306,4308,18,,,,,,,0,0,0,-31.00,5.00,1183.00,0.00,0.00,-8.00,14,13.00,3.16,7.92,0.00,1.00,-3.00,0,,,100,97,18,2,0,0,1,1,0,,,,,0.0,0.0,0.0,0.0,0.0,0.0,0
-22.959732,-67.786907,1.40,0.00,0.41,0.81,1.40,1.40,0.81,0.81,1500,2025-11-28 16:45:16.986,2025-11-28 13:45:16.986,16,0,0,51.622,-22.959732,-67.786915,0.00,0.10,-0.40,2.80,0.40,118.40,0,1,0,97,89,-4995,14077,51622,2951.50,44,WP,1,0,0,0,0,0,0,1764348316986,4305,4309,4308,4306,4306,4308,18,,,,,,,0,0,0,-28.00,4.00,1184.00,0.00,0.00,-10.00,14,14.00,4.12,8.09,0.00,1.00,-4.00,0,,,100,97,18,2,0,0,1,1,0,,,,,0.0,0.0,0.0,0.0,0.0,0.0,0
-22.959732,-67.786907,1.50,0.00,0.51,0.82,1.50,1.50,0.81,0.82,1610,2025-11-28 16:45:17.096,2025-11-28 13:45:17.096,16,0,0,51.622,-22.959732,-67.786915,0.00,0.10,-0.50,3.00,0.20,118.50,0,1,0,97,89,-4995,14077,51622,2951.50,44,WP,1,0,0,0,0,0,0,1764348317096,4305,4309,4308,4306,4306,4308,18,,,,,,,0,0,0,-30.00,2.00,1185.00,0.00,0.00,-10.00,14,15.00,5.10,8.22,0.00,1.00,-5.00,0,,,100,97,18,2,0,0,1,1,0,,,,,0.0,0.0,0.0,0.0,0.0,0.0,0
-22.959732,-67.786907,1.60,0.00,0.71,0.84,1.60,1.60,0.81,0.84,1711,2025-11-28 16:45:17.197,2025-11-28 13:45:17.197,16,0,0,51.622,-22.959732,-67.786915,0.10,0.10,-0.70,3.20,0.50,118.50,0,1,0,97,89,-4995,14077,51622,2951.50,44,WP,1,0,0,0,0,0,0,1764348317197,4305,4309,4308,4306,4306,4308,18,,,,,,,0,0,0,-32.00,5.00,1185.00,0.00,0.00,-13.00,14,16.00,7.14,8.39,1.00,1.00,-7.00,0,,,100,97,18,2,0,0,1,1,0,,,,,0.0,0.0,0.0,0.0,0.0,0.0,0
-22.959732,-67.786907,1.70,0.00,0.91,0.85,1.70,1.70,0.91,0.85,1811,2025-11-28 16:45:17.298,2025-11-28 13:45:17.298,16,0,0,51.622,-22.959732,-67.786915,0.10,0.10,-0.90,2.70,0.70,118.40,0,1,0,97,89,-4995,14077,51622,2951.50,44,WP,1,0,0,0,0,0,0,1764348317297,4305,4309,4308,4306,4306,4308,18,,,,,,,0,0,0,-27.00,7.00,1184.00,0.00,0.00,-12.00,14,17.00,9.11,8.50,1.00,1.00,-9.00,0,,,100,97,18,2,0,0,1,1,0,,,,,0.0,0.0,0.0,0.0,0.0,0.0,0
-22.959732,-67.786906,1.80,0.00,1.11,0.86,1.80,1.80,1.11,0.86,1903,2025-11-28 16:45:17.389,2025-11-28 13:45:17.389,16,0,0,51.622,-22.959732,-67.786915,0.10,0.10,-1.10,1.80,1.00,118.10,0,1,0,97,89,-4995,14077,51622,2951.50,44,WP,1,0,0,0,0,0,0,1764348317389,4305,4309,4308,4306,4306,4308,18,,,,,,,0,0,0,-18.00,10.00,1181.00,0.00,0.00,-12.00,14,18.00,11.09,8.64,1.00,1.00,-11.00,0,,,100,96,18,2,0,0,1,1,0,,,,,0.0,0.0,0.0,0.0,0.0,0.0,0
-22.959732,-67.786906,2.00,0.00,1.41,0.88,2.00,2.00,1.41,0.88,2011,2025-11-28 16:45:17.497,2025-11-28 13:45:17.497,16,0,0,51.622,-22.959732,-67.786915,0.10,0.10,-1.40,0.80,1.40,117.80,0,1,0,97,89,-4995,14077,51622,2951.50,44,WP,1,0,0,0,0,0,0,1764348317497,4305,4309,4308,4306,4306,4308,18,,,,,,,0,0,0,-8.00,14.00,1178.00,0.00,0.00,-11.00,14,20.00,14.07,8.75,1.00,1.00,-14.00,0,,,100,96,18,2,0,0,1,1,0,,,,,0.0,0.0,0.0,0.0,0.0,0.0,0
-22.959731,-67.786906,2.10,0.00,1.71,0.89,2.10,2.10,1.71,0.89,2111,2025-11-28 16:45:17.598,2025-11-28 13:45:17.598,16,0,0,51.622,-22.959732,-67.786915,0.10,0.10,-1.70,0.10,2.00,117.60,0,1,0,97,89,-4995,14077,51622,2951.50,44,WP,1,0,0,0,0,0,0,1764348317597,4305,4309,4308,4306,4306,4308,18,,,,,,,0,0,0,-1.00,20.00,1176.00,0.00,0.00,-7.00,14,21.00,17.06,8.92,1.00,1.00,-17.00,0,,,100,96,18,2,0,0,1,1,0,,,,,0.0,0.0,0.0,0.0,0.0,0.0,0
-22.959731,-67.786906,2.40,0.00,2.00,0.91,2.40,2.40,2.00,0.91,2204,2025-11-28 16:45:17.690,2025-11-28 13:45:17.691,16,0,0,51.622,-22.959732,-67.786915,0.00,0.10,-2.00,-0.20,2.80,117.60,0,1,0,97,89,-4995,14077,51622,2951.50,44,WP,1,0,0,0,0,0,0,1764348317690,4305,4309,4308,4306,4306,4308,18,,,,,,,0,0,0,2.00,28.00,1176.00,0.00,0.00,-5.00,14,24.00,20.02,9.08,0.00,1.00,-20.00,0,,,100,96,18,2,0,0,1,1,0,,,,,0.0,0.0,0.0,0.0,0.0,0.0,0
-22.959731,-67.786906,2.60,0.00,2.31,0.94,2.60,2.60,2.31,0.94,2308,2025-11-28 16:45:17.795,2025-11-28 13:45:17.795,16,0,0,51.622,-22.959732,-67.786915,0.00,0.20,-2.30,0.00,3.70,117.60,0,1,0,97,89,-4995,14077,51622,2951.50,44,WP,1,0,0,0,0,0,0,1764348317794,4305,4309,4308,4306,4306,4308,18,,,,,,,0,0,0,-0.00,37.00,1176.00,0.00,0.00,-4.00,14,26.00,23.09,9.36,0.00,2.00,-23.00,0,,,100,96,18,2,0,0,1,1,0,,,,,0.0,0.0,0.0,0.0,0.0,0.0,0
-22.959731,-67.786905,2.90,0.00,2.61,0.96,2.90,2.90,2.61,0.96,2412,2025-11-28 16:45:17.898,2025-11-28 13:45:17.898,16,0,0,51.622,-22.959732,-67.786915,0.00,0.20,-2.60,0.30,4.50,117.70,0,1,0,97,89,-4995,14077,51622,2951.50,44,WP,1,0,0,0,0,0,0,1764348317898,3909,3909,3950,3934,3929,3925,18,,,,,,,0,0,0,-3.00,45.00,1177.00,0.00,0.00,-4.00,14,29.00,26.08,9.61,0.00,2.00,-26.00,0,,,100,98,18,2,0,0,1,1,0,,,,,0.0,0.0,0.0,0.0,0.0,0.0,0
-22.959731,-67.786905,3.10,0.00,2.81,1.00,3.10,3.10,2.81,1.00,2509,2025-11-28 16:45:17.996,2025-11-28 13:45:17.996,16,0,0,51.622,-22.959732,-67.786915,-0.10,0.20,-2.80,1.00,4.60,117.80,0,1,0,97,89,-4995,14077,51622,2951.50,44,WP,1,0,0,0,0,0,0,1764348317995,3909,3909,3950,3934,3929,3925,18,,,,,,,0,0,0,-10.00,46.00,1178.00,0.00,0.00,-5.00,14,31.00,28.09,9.96,-1.00,2.00,-28.00,0,,,100,98,18,2,0,0,1,1,0,,,,,0.0,0.0,0.0,0.0,0.0,0.0,0
-22.959731,-67.786905,3.40,0.00,3.11,1.02,3.40,3.40,3.11,1.02,2608,2025-11-28 16:45:18.094,2025-11-28 13:45:18.094,16,0,0,51.622,-22.959732,-67.786915,-0.20,0.20,-3.10,1.70,3.90,117.80,0,1,0,97,89,-4995,14077,51622,2951.50,44,WP,1,0,0,0,0,0,0,1764348318094,3909,3909,3950,3934,3929,3925,18,,,,,,,0,0,0,-17.00,39.00,1178.00,0.00,0.00,-5.00,14,34.00,31.13,10.24,-2.00,2.00,-31.00,0,,,100,98,18,2,0,0,1,1,0,,,,,0.0,0.0,0.0,0.0,0.0,0.0,0
-22.959732,-67.786904,3.80,0.00,3.22,1.06,3.80,3.80,3.22,1.06,2711,2025-11-28 16:45:18.198,2025-11-28 13:45:18.198,16,0,0,51.622,-22.959732,-67.786915,-0.20,0.30,-3.20,2.40,2.90,117.70,0,1,0,97,89,-4995,14077,51622,2951.50,44,WP,1,0,0,0,0,0,0,1764348318197,3909,3909,3950,3934,3929,3925,18,,,,,,,0,0,0,-24.00,29.00,1177.00,0.00,0.00,-6.00,14,38.00,32.20,10.56,-2.00,3.00,-32.00,0,,,100,98,18,2,0,0,1,1,0,,,,,0.0,0.0,0.0,0.0,0.0,0.0,0
-22.959732,-67.786904,4.10,0.00,3.42,1.08,4.10,4.10,3.42,1.08,2812,2025-11-28 16:45:18.299,2025-11-28 13:45:18.299,16,0,0,51.622,-22.959732,-67.786915,-0.30,0.20,-3.40,3.20,2.00,117.70,0,1,0,97,89,-4995,14077,51622,2951.50,44,WP,1,0,0,0,0,0,0,1764348318298,3909,3909,3950,3934,3929,3925,18,,,,,,,0,0,0,-32.00,20.00,1177.00,0.00,0.00,-5.00,14,41.00,34.19,10.83,-3.00,2.00,-34.00,0,,,100,98,18,2,0,0,1,1,0,,,,,0.0,0.0,0.0,0.0,0.0,0.0,0
-22.959732,-67.786904,4.40,0.00,3.42,1.11,4.40,4.40,3.42,1.11,2910,2025-11-28 16:45:18.397,2025-11-28 13:45:18.397,16,0,0,51.622,-22.959732,-67.786915,-0.30,0.20,-3.40,3.90,1.20,117.70,0,1,0,97,89,-4995,14077,51622,2951.50,44,WP,1,0,0,0,0,0,0,1764348318396,3909,3909,3950,3934,3929,3925,18,,,,,,,0,0,0,-39.00,12.00,1177.00,0.00,0.00,-5.00,14,44.00,34.19,11.14,-3.00,2.00,-34.00,0,,,100,94,18,2,0,0,1,1,0,,,,,0.0,0.0,0.0,0.0,0.0,0.0,0
-22.959733,-67.786904,4.70,0.00,3.42,1.14,4.70,4.70,3.42,1.14,3011,2025-11-28 16:45:18.497,2025-11-28 13:45:18.497,16,0,0,51.622,-22.959732,-67.786915,-0.30,0.20,-3.40,4.70,0.90,117.50,0,1,0,97,89,-4995,14077,51622,2951.50,44,WP,1,0,0,0,0,0,0,1764348318497,3909,3909,3950,3934,3929,3925,18,,,,,,,0,0,0,-47.00,9.00,1175.00,0.00,0.00,-5.00,14,47.00,34.19,11.41,-3.00,2.00,-34.00,0,,,100,94,18,2,0,0,1,1,0,,,,,0.0,0.0,0.0,0.0,0.0,0.0,0
-22.959733,-67.786903,5.10,0.00,3.41,1.16,5.10,5.10,3.42,1.16,3113,2025-11-28 16:45:18.599,2025-11-28 13:45:18.599,16,0,0,51.622,-22.959732,-67.786915,-0.30,0.10,-3.40,5.40,1.30,117.50,0,1,0,97,89,-4995,14077,51622,2951.50,44,WP,1,0,0,0,0,0,0,1764348318599,3909,3909,3950,3934,3929,3925,18,,,,,,,0,0,0,-54.00,13.00,1175.00,0.00,0.00,-4.00,14,51.00,34.15,11.64,-3.00,1.00,-34.00,0,,,100,94,18,2,0,0,1,1,0,,,,,0.0,0.0,0.0,0.0,0.0,0.0,0
-22.959734,-67.786903,5.40,0.00,3.41,1.18,5.40,5.40,3.42,1.18,3213,2025-11-28 16:45:18.699,2025-11-28 13:45:18.700,16,0,0,51.622,-22.959732,-67.786915,-0.30,0.10,-3.40,5.50,1.60,117.40,0,1,0,97,89,-4995,14077,51622,2951.50,44,WP,1,0,0,0,0,0,0,1764348318699,3909,3909,3950,3934,3929,3925,18,,,,,,,0,0,0,-55.00,16.00,1174.00,0.00,0.00,-3.00,14,54.00,34.15,11.80,-3.00,1.00,-34.00,0,,,100,94,18,2,0,0,1,1,0,,,,,0.0,0.0,0.0,0.0,0.0,0.0,0
-22.959734,-67.786903,5.70,0.00,3.31,1.18,5.70,5.70,3.42,1.18,3316,2025-11-28 16:45:18.802,2025-11-28 13:45:18.802,16,0,0,51.622,-22.959732,-67.786915,-0.30,0.00,-3.30,5.40,1.60,117.50,0,1,0,97,89,-4995,14077,51622,2951.50,44,WP,1,0,0,0,0,0,0,1764348318802,3909,3909,3950,3934,3929,3925,18,,,,,,,0,0,0,-54.00,16.00,1175.00,0.00,0.00,-3.00,14,57.00,33.14,11.83,-3.00,0.00,-33.00,0,,,100,94,18,2,0,0,1,1,0,,,,,0.0,0.0,0.0,0.0,0.0,0.0,0
-22.959734,-67.786904,6.00,0.00,3.31,1.18,6.00,6.00,3.42,1.18,3412,2025-11-28 16:45:18.899,2025-11-28 13:45:18.899,16,0,0,51.622,-22.959732,-67.786915,-0.30,0.00,-3.30,5.10,1.10,117.60,0,1,0,97,89,-4995,14077,51622,2951.50,44,WP,1,0,0,0,0,0,0,1764348318898,3909,3909,3950,3934,3929,3925,18,,,,,,,0,0,0,-51.00,11.00,1176.00,0.00,0.00,-2.00,14,60.00,33.14,11.84,-3.00,0.00,-33.00,0,,,100,96,18,2,0,0,1,1,0,,,,,0.0,0.0,0.0,0.0,0.0,0.0,0
-22.959735,-67.786904,6.30,0.00,3.21,1.18,6.30,6.30,3.42,1.18,3516,2025-11-28 16:45:19.003,2025-11-28 13:45:19.003,17,0,0,51.622,-22.959732,-67.786915,-0.30,0.00,-3.20,4.70,0.10,117.60,0,1,0,97,89,-4995,14077,51622,2951.50,44,WP,1,0,0,0,0,0,0,1764348319002,3909,3909,3950,3934,3929,3925,18,,,,,,,0,0,0,-47.00,1.00,1176.00,0.00,0.00,-4.00,14,63.00,32.14,11.80,-3.00,0.00,-32.00,0,,,100,96,18,2,0,0,1,1,0,,,,,0.0,0.0,0.0,0.0,0.0,0.0,0
-22.959735,-67.786904,6.70,0.00,3.11,1.18,6.70,6.70,3.42,1.18,3618,2025-11-28 16:45:19.104,2025-11-28 13:45:19.104,17,0,0,47.145,-22.959732,-67.786915,-0.30,0.00,-3.10,4.20,-1.00,117.50,0,1,0,97,89,-63407,14077,47145,2951.50,44,WP,1,0,0,0,0,0,0,1764348319104,3909,3909,3950,3934,3929,3925,18,,,,,,,0,0,0,-42.00,-10.00,1175.00,0.00,0.00,-4.00,14,67.00,31.14,11.78,-3.00,0.00,-31.00,0,,,100,96,18,2,0,0,1,1,0,,,,,0.0,0.0,0.0,0.0,0.0,0.0,0
-22.959735,-67.786904,7.00,0.00,3.11,1.17,7.00,7.00,3.42,1.18,3719,2025-11-28 16:45:19.205,2025-11-28 13:45:19.206,17,0,0,47.145,-22.959732,-67.786915,-0.30,0.00,-3.10,4.20,-2.00,117.40,0,1,0,97,89,-63407,14077,47145,2951.50,44,WP,1,0,0,0,0,0,0,1764348319205,3909,3909,3950,3934,3929,3925,18,,,,,,,0,0,0,-42.00,-20.00,1174.00,0.00,0.00,-3.00,14,70.00,31.14,11.69,-3.00,0.00,-31.00,0,,,100,96,18,2,0,0,1,1,0,,,,,0.0,0.0,0.0,0.0,0.0,0.0,0
-22.959736,-67.786904,7.30,0.00,3.11,1.17,7.30,7.30,3.42,1.18,3819,2025-11-28 16:45:19.305,2025-11-28 13:45:19.305,17,0,0,47.145,-22.959732,-67.786915,-0.30,0.00,-3.10,4.50,-2.40,117.30,0,1,0,97,89,-63407,14077,47145,2951.50,44,WP,1,0,0,0,0,0,0,1764348319305,3909,3909,3950,3934,3929,3925,18,,,,,,,0,0,0,-45.00,-24.00,1173.00,0.00,0.00,-2.00,14,73.00,31.14,11.66,-3.00,0.00,-31.00,0,,,100,96,18,2,0,0,1,1,0,,,,,0.0,0.0,0.0,0.0,0.0,0.0,0
-22.959736,-67.786904,7.60,0.00,3.01,1.16,7.60,7.60,3.42,1.18,3922,2025-11-28 16:45:19.409,2025-11-28 13:45:19.409,17,0,0,47.145,-22.959732,-67.786915,-0.20,0.00,-3.00,4.80,-2.40,117.40,0,1,0,97,89,-63407,14077,47145,2951.50,44,WP,1,0,0,0,0,0,0,1764348319408,3909,3909,3950,3934,3929,3925,18,,,,,,,0,0,0,-48.00,-24.00,1174.00,0.00,0.00,-2.00,14,76.00,30.07,11.61,-2.00,0.00,-30.00,0,,,100,96,18,2,0,0,1,1,0,,,,,0.0,0.0,0.0,0.0,0.0,0.0,0
-22.959736,-67.786904,7.90,0.00,3.01,1.16,7.90,7.90,3.42,1.18,4024,2025-11-28 16:45:19.510,2025-11-28 13:45:19.510,17,0,0,47.145,-22.959732,-67.786915,-0.20,0.00,-3.00,4.80,-2.10,117.50,0,1,0,97,89,-63407,14077,47145,2951.50,44,WP,1,0,0,0,0,0,0,1764348319510,3909,3909,3950,3934,3929,3925,18,,,,,,,0,0,0,-48.00,-21.00,1175.00,0.00,0.00,-2.00,14,79.00,30.07,11.61,-2.00,0.00,-30.00,0,,,100,96,18,2,0,0,1,1,0,,,,,0.0,0.0,0.0,0.0,0.0,0.0,0
-22.959736,-67.786904,8.20,0.00,2.90,1.15,8.20,8.20,3.42,1.18,4127,2025-11-28 16:45:19.614,2025-11-28 13:45:19.614,17,0,0,47.145,-22.959732,-67.786915,-0.10,0.00,-2.90,4.50,-1.90,117.50,0,1,0,97,89,-63407,14077,47145,2951.50,44,WP,1,0,0,0,0,0,0,1764348319613,3909,3909,3950,3934,3929,3925,18,,,,,,,0,0,0,-45.00,-19.00,1175.00,0.00,0.00,-2.00,14,82.00,29.02,11.54,-1.00,0.00,-29.00,0,,,100,96,18,2,0,0,1,1,0,,,,,0.0,0.0,0.0,0.0,0.0,0.0,0
-22.959736,-67.786904,8.50,0.00,3.00,1.15,8.50,8.50,3.42,1.18,4222,2025-11-28 16:45:19.708,2025-11-28 13:45:19.709,17,0,0,47.145,-22.959732,-67.786915,-0.10,0.00,-3.00,4.30,-2.00,117.70,0,1,0,97,89,-63407,14077,47145,2951.50,44,WP,1,0,0,0,0,0,0,1764348319708,3909,3909,3950,3934,3929,3925,18,,,,,,,0,0,0,-43.00,-20.00,1177.00,0.00,0.00,-3.00,14,85.00,30.02,11.51,-1.00,0.00,-30.00,0,,,100,96,18,2,0,0,1,1,0,,,,,0.0,0.0,0.0,0.0,0.0,0.0,0
-22.959736,-67.786905,9.10,0.00,3.00,1.13,9.10,9.10,3.42,1.18,4423,2025-11-28 16:45:19.909,2025-11-28 13:45:19.909,17,0,0,47.145,-22.959732,-67.786915,0.00,0.00,-3.00,4.30,-1.60,117.70,0,1,0,97,89,-63407,14077,47145,2951.50,44,WP,1,0,0,0,0,0,0,1764348319909,3909,3909,3950,3934,3929,3925,18,,,,,,,0,0,0,-43.00,-16.00,1177.00,0.00,0.00,-5.00,14,91.00,30.00,11.28,0.00,0.00,-30.00,0,,,100,100,18,2,0,0,1,1,0,,,,,0.0,0.0,0.0,0.0,0.0,0.0,0
-22.959736,-67.786905,9.40,0.00,3.10,1.11,9.40,9.40,3.42,1.18,4528,2025-11-28 16:45:20.014,2025-11-28 13:45:20.014,17,0,0,47.145,-22.959732,-67.786915,0.00,0.00,-3.10,4.30,-1.20,117.70,0,1,0,97,89,-63407,14077,47145,2951.50,44,WP,1,0,0,0,0,0,0,1764348320014,3909,3909,3950,3934,3929,3925,18,,,,,,,0,0,0,-43.00,-12.00,1177.00,0.00,0.00,-5.00,14,94.00,31.00,11.15,0.00,0.00,-31.00,0,,,100,100,18,2,0,0,1,1,0,,,,,0.0,0.0,0.0,0.0,0.0,0.0,0
-22.959736,-67.786905,9.80,0.00,3.10,1.11,9.80,9.80,3.42,1.18,4621,2025-11-28 16:45:20.107,2025-11-28 13:45:20.107,17,0,0,47.145,-22.959732,-67.786915,0.00,0.00,-3.10,4.40,-1.00,117.80,0,1,0,97,89,-63407,14077,47145,2951.50,44,WP,1,0,0,0,0,0,0,1764348320107,3909,3909,3950,3934,3929,3925,18,,,,,,,0,0,0,-44.00,-10.00,1178.00,0.00,0.00,-5.00,14,98.00,31.00,11.06,0.00,0.00,-31.00,0,,,100,100,18,2,0,0,1,1,0,,,,,0.0,0.0,0.0,0.0,0.0,0.0,0
-22.959735,-67.786905,10.10,0.00,3.20,1.09,10.10,10.10,3.42,1.18,4727,2025-11-28 16:45:20.214,2025-11-28 13:45:20.214,17,0,0,47.145,-22.959732,-67.786915,0.00,0.00,-3.20,4.40,-0.60,117.70,0,1,0,97,89,-63407,14077,47145,2951.50,44,WP,1,0,0,0,0,0,0,1764348320213,3909,3909,3950,3934,3929,3925,18,,,,,,,0,0,0,-44.00,-6.00,1177.00,0.00,0.00,-6.00,14,101.00,32.00,10.89,0.00,0.00,-32.00,0,,,100,100,18,2,0,0,1,1,0,,,,,0.0,0.0,0.0,0.0,0.0,0.0,0
-22.959735,-67.786905,10.40,0.00,3.20,1.08,10.40,10.40,3.42,1.18,4826,2025-11-28 16:45:20.313,2025-11-28 13:45:20.313,17,0,0,47.145,-22.959732,-67.786915,0.00,0.00,-3.20,4.40,-0.20,117.80,0,1,0,97,89,-63407,14077,47145,2951.50,44,WP,1,0,0,0,0,0,0,1764348320312,3909,3909,3950,3934,3929,3925,18,,,,,,,0,0,0,-44.00,-2.00,1178.00,0.00,0.00,-6.00,14,104.00,32.00,10.78,0.00,0.00,-32.00,0,,,100,100,18,2,0,0,1,1,0,,,,,0.0,0.0,0.0,0.0,0.0,0.0,0
-22.959735,-67.786905,10.80,0.00,3.10,1.06,10.80,10.80,3.42,1.18,4925,2025-11-28 16:45:20.412,2025-11-28 13:45:20.412,17,0,0,47.145,-22.959732,-67.786915,0.00,0.00,-3.10,4.20,0.10,117.70,0,1,0,97,89,-63407,14077,47145,2951.50,44,WP,1,0,0,0,0,0,0,1764348320411,3909,3909,3950,3934,3929,3925,18,,,,,,,0,0,0,-42.00,1.00,1177.00,0.00,0.00,-6.00,14,108.00,31.00,10.61,0.00,0.00,-31.00,0,,,100,99,18,2,0,0,1,1,0,,,,,0.0,0.0,0.0,0.0,0.0,0.0,0
-22.959735,-67.786905,11.10,0.00,3.10,1.05,11.10,11.10,3.42,1.18,5028,2025-11-28 16:45:20.514,2025-11-28 13:45:20.514,17,0,0,47.145,-22.959732,-67.786915,0.00,0.00,-3.10,4.10,0.30,117.80,0,1,0,97,89,-63407,14077,47145,2951.50,44,WP,1,0,0,0,0,0,0,1764348320514,3909,3909,3950,3934,3929,3925,18,,,,,,,0,0,0,-41.00,3.00,1178.00,0.00,0.00,-6.00,14,111.00,31.00,10.49,0.00,0.00,-31.00,0,,,100,99,18,2,0,0,1,1,0,,,,,0.0,0.0,0.0,0.0,0.0,0.0,0
-22.959735,-67.786905,11.40,0.00,3.10,1.03,11.40,11.40,3.42,1.18,5125,2025-11-28 16:45:20.612,2025-11-28 13:45:20.612,17,0,0,47.145,-22.959732,-67.786915,0.00,0.00,-3.10,4.00,0.30,117.70,0,1,0,97,89,-63407,14077,47145,2951.50,44,WP,1,0,0,0,0,0,0,1764348320611,3909,3909,3950,3934,3929,3925,18,,,,,,,0,0,0,-40.00,3.00,1177.00,0.00,0.00,-6.00,14,114.00,31.00,10.33,0.00,0.00,-31.00,0,,,100,99,18,2,0,0,1,1,0,,,,,0.0,0.0,0.0,0.0,0.0,0.0,0
-22.959735,-67.786905,12.10,0.00,3.00,1.00,12.10,12.10,3.42,1.18,5329,2025-11-28 16:45:20.816,2025-11-28 13:45:20.816,17,0,0,47.145,-22.959732,-67.786915,0.00,0.00,-3.00,3.90,0.00,117.70,0,1,0,97,89,-63407,14077,47145,2951.50,44,WP,1,0,0,0,0,0,0,1764348320815,3909,3909,3950,3934,3929,3925,18,,,,,,,0,0,0,-39.00,0.00,1177.00,0.00,0.00,-5.00,14,121.00,30.00,10.03,0.00,0.00,-30.00,0,,,100,99,18,2,0,0,1,1,0,,,,,0.0,0.0,0.0,0.0,0.0,0.0,0
-22.959735,-67.786906,12.30,0.00,3.00,0.99,12.30,12.30,3.42,1.18,5432,2025-11-28 16:45:20.918,2025-11-28 13:45:20.918,17,0,0,47.145,-22.959732,-67.786915,0.00,0.00,-3.00,4.00,-0.30,117.70,0,1,0,97,89,-63407,14077,47145,2951.50,44,WP,1,0,0,0,0,0,0,1764348320918,3909,3909,3950,3934,3929,3925,18,,,,,,,0,0,0,-40.00,-3.00,1177.00,0.00,0.00,-6.00,14,123.00,30.00,9.91,0.00,0.00,-30.00,0,,,100,98,18,2,0,0,1,1,0,,,,,0.0,0.0,0.0,0.0,0.0,0.0,0
-22.959735,-67.786906,12.70,0.00,3.00,0.97,12.70,12.70,3.42,1.18,5529,2025-11-28 16:45:21.015,2025-11-28 13:45:21.015,17,0,0,47.145,-22.959732,-67.786915,0.00,0.00,-3.00,4.10,-0.40,117.70,0,1,0,97,89,-63407,14077,47145,2951.50,44,WP,1,0,0,0,0,0,0,1764348321015,3909,3909,3950,3934,3929,3925,18,,,,,,,0,0,0,-41.00,-4.00,1177.00,0.00,0.00,-5.00,14,127.00,30.00,9.73,0.00,0.00,-30.00,0,,,100,98,18,2,0,0,1,1,0,,,,,0.0,0.0,0.0,0.0,0.0,0.0,0
-22.959735,-67.786906,13.00,0.00,3.00,0.96,13.00,13.00,3.42,1.18,5633,2025-11-28 16:45:21.120,2025-11-28 13:45:21.120,17,0,0,46.060,-22.959732,-67.786915,0.00,-0.10,-3.00,4.20,-0.30,117.70,0,1,0,97,89,-62636,14029,46060,2951.50,44,WP,1,0,0,0,0,0,0,1764348321119,3909,3909,3950,3934,3929,3925,18,,,,,,,0,0,0,-42.00,-3.00,1177.00,0.00,0.00,-5.00,14,130.00,30.02,9.60,0.00,-1.00,-30.00,0,,,100,98,18,2,0,0,1,1,0,,,,,0.0,0.0,0.0,0.0,0.0,0.0,0
-22.959734,-67.786906,13.30,0.00,3.00,0.94,13.30,13.30,3.42,1.18,5733,2025-11-28 16:45:21.220,2025-11-28 13:45:21.220,17,0,0,46.060,-22.959732,-67.786915,0.00,-0.10,-3.00,4.50,-0.50,117.60,0,1,0,97,89,-62636,14029,46060,2951.50,44,WP,1,0,0,0,0,0,0,1764348321219,3909,3909,3950,3934,3929,3925,18,,,,,,,0,0,0,-45.00,-5.00,1176.00,0.00,0.00,-5.00,14,133.00,30.02,9.36,0.00,-1.00,-30.00,0,,,100,98,18,2,0,0,1,1,0,,,,,0.0,0.0,0.0,0.0,0.0,0.0,0
-22.959734,-67.786906,13.60,0.00,3.00,0.92,13.60,13.60,3.42,1.18,5831,2025-11-28 16:45:21.318,2025-11-28 13:45:21.318,17,0,0,46.060,-22.959732,-67.786915,0.00,-0.10,-3.00,4.40,-0.60,117.60,0,1,0,97,89,-62636,14029,46060,2951.50,44,WP,1,0,0,0,0,0,0,1764348321317,3909,3909,3950,3934,3929,3925,18,,,,,,,0,0,0,-44.00,-6.00,1176.00,0.00,0.00,-5.00,14,136.00,30.02,9.18,0.00,-1.00,-30.00,0,,,100,98,18,2,0,0,1,1,0,,,,,0.0,0.0,0.0,0.0,0.0,0.0,0
-22.959734,-67.786906,13.90,0.00,3.00,0.89,13.90,13.90,3.42,1.18,5934,2025-11-28 16:45:21.421,2025-11-28 13:45:21.421,17,0,0,46.060,-22.959732,-67.786915,0.00,-0.10,-3.00,4.10,-0.70,117.60,0,1,0,97,89,-62636,14029,46060,2951.50,44,WP,1,0,0,0,0,0,0,1764348321420,3909,3909,3950,3934,3929,3925,18,,,,,,,0,0,0,-41.00,-7.00,1176.00,0.00,0.00,-4.00,14,139.00,30.02,8.91,0.00,-1.00,-30.00,0,,,100,99,18,2,0,0,1,1,0,,,,,0.0,0.0,0.0,0.0,0.0,0.0,0
-22.959734,-67.786907,14.20,0.00,2.90,0.87,14.20,14.20,3.42,1.18,6035,2025-11-28 16:45:21.522,2025-11-28 13:45:21.522,17,0,0,46.060,-22.959732,-67.786915,0.00,-0.10,-2.90,3.90,-0.50,117.70,0,1,0,97,89,-62636,14029,46060,2951.50,44,WP,1,0,0,0,0,0,0,1764348321521,3909,3909,3950,3934,3929,3925,18,,,,,,,0,0,0,-39.00,-5.00,1177.00,0.00,0.00,-4.00,14,142.00,29.02,8.71,0.00,-1.00,-29.00,0,,,100,99,18,2,0,0,1,1,0,,,,,0.0,0.0,0.0,0.0,0.0,0.0,0
-22.959734,-67.786907,14.50,0.00,2.90,0.84,14.50,14.50,3.42,1.18,6134,2025-11-28 16:45:21.621,2025-11-28 13:45:21.621,17,0,0,46.060,-22.959732,-67.786915,0.00,-0.10,-2.90,3.60,-0.40,117.80,0,1,0,97,89,-62636,14029,46060,2951.50,44,WP,1,0,0,0,0,0,0,1764348321620,3909,3909,3950,3934,3929,3925,18,,,,,,,0,0,0,-36.00,-4.00,1178.00,0.00,0.00,-5.00,14,145.00,29.02,8.43,0.00,-1.00,-29.00,0,,,100,99,18,2,0,0,1,1,0,,,,,0.0,0.0,0.0,0.0,0.0,0.0,0
-22.959734,-67.786907,14.80,0.00,3.00,0.82,14.80,14.80,3.42,1.18,6244,2025-11-28 16:45:21.730,2025-11-28 13:45:21.730,17,0,0,46.060,-22.959732,-67.786915,0.00,-0.10,-3.00,3.40,-0.30,117.80,0,1,0,97,89,-62636,14029,46060,2951.50,44,WP,1,0,0,0,0,0,0,1764348321730,3909,3909,3950,3934,3929,3925,18,,,,,,,0,0,0,-34.00,-3.00,1178.00,0.00,0.00,-5.00,14,148.00,30.02,8.24,0.00,-1.00,-30.00,0,,,100,99,18,2,0,0,1,1,0,,,,,0.0,0.0,0.0,0.0,0.0,0.0,0
-22.959734,-67.786907,15.10,0.00,3.00,0.80,15.10,15.10,3.42,1.18,6339,2025-11-28 16:45:21.826,2025-11-28 13:45:21.826,17,0,0,46.060,-22.959732,-67.786915,0.00,-0.10,-3.00,3.10,-0.30,117.70,0,1,0,97,89,-62636,14029,46060,2951.50,44,WP,1,0,0,0,0,0,0,1764348321825,3909,3909,3950,3934,3929,3925,18,,,,,,,0,0,0,-31.00,-3.00,1177.00,0.00,0.00,-5.00,14,151.00,30.02,8.00,0.00,-1.00,-30.00,0,,,100,99,18,2,0,0,1,1,0,,,,,0.0,0.0,0.0,0.0,0.0,0.0,0
-22.959733,-67.786907,15.40,0.00,3.00,0.78,15.40,15.40,3.42,1.18,6440,2025-11-28 16:45:21.927,2025-11-28 13:45:21.927,17,0,0,46.060,-22.959732,-67.786915,0.10,0.00,-3.00,3.00,-0.20,117.70,0,1,0,97,89,-62636,14029,46060,2951.50,44,WP,1,0,0,0,0,0,0,1764348321926,3909,3909,3950,3934,3929,3925,18,,,,,,,0,0,0,-30.00,-2.00,1177.00,0.00,0.00,-6.00,14,154.00,30.02,7.84,1.00,0.00,-30.00,0,,,100,99,18,2,0,0,1,1,0,,,,,0.0,0.0,0.0,0.0,0.0,0.0,0
-22.959733,-67.786907,15.70,0.00,3.00,0.77,15.70,15.70,3.42,1.18,6544,2025-11-28 16:45:22.030,2025-11-28 13:45:22.030,17,0,0,46.060,-22.959732,-67.786915,0.10,0.00,-3.00,3.00,-0.30,117.90,0,1,0,97,89,-62636,14029,46060,2951.50,44,WP,1,0,0,0,0,0,0,1764348322030,3909,3909,3950,3934,3929,3925,18,,,,,,,0,0,0,-30.00,-3.00,1179.00,0.00,0.00,-5.00,14,157.00,30.02,7.67,1.00,0.00,-30.00,0,,,100,99,18,2,0,0,1,1,0,,,,,0.0,0.0,0.0,0.0,0.0,0.0,0
-22.959733,-67.786907,16.00,0.00,3.00,0.76,16.00,16.00,3.42,1.18,6640,2025-11-28 16:45:22.126,2025-11-28 13:45:22.126,17,0,0,46.060,-22.959732,-67.786915,0.10,0.00,-3.00,3.30,-0.20,117.90,0,1,0,97,89,-62636,14029,46060,2951.50,44,WP,1,0,0,0,0,0,0,1764348322126,3909,3909,3950,3934,3929,3925,18,,,,,,,0,0,0,-33.00,-2.00,1179.00,0.00,0.00,-6.00,14,160.00,30.02,7.59,1.00,0.00,-30.00,0,,,100,99,18,2,0,0,1,1,0,,,,,0.0,0.0,0.0,0.0,0.0,0.0,0
-22.959733,-67.786908,16.30,0.00,2.80,0.75,16.30,16.30,3.42,1.18,6744,2025-11-28 16:45:22.230,2025-11-28 13:45:22.230,17,0,0,46.112,-22.959732,-67.786915,0.10,0.00,-2.80,3.90,0.10,117.90,0,1,0,97,89,-60027,14029,46112,2951.50,44,WP,1,0,0,0,0,0,0,1764348322230,3909,3909,3950,3934,3929,3925,18,,,,,,,0,0,0,-39.00,1.00,1179.00,0.00,0.00,-7.00,14,163.00,28.02,7.49,1.00,0.00,-28.00,0,,,100,99,18,2,0,0,1,1,0,,,,,0.0,0.0,0.0,0.0,0.0,0.0,0
-22.959732,-67.786908,16.60,0.00,2.71,0.74,16.60,16.60,3.42,1.18,6841,2025-11-28 16:45:22.327,2025-11-28 13:45:22.328,17,0,0,46.112,-22.959732,-67.786915,0.20,0.00,-2.70,4.20,0.90,117.90,0,1,0,97,89,-60027,14029,46112,2951.50,44,WP,1,0,0,0,0,0,0,1764348322327,3909,3909,3950,3934,3929,3925,18,,,,,,,0,0,0,-42.00,9.00,1179.00,0.00,0.00,-7.00,14,166.00,27.07,7.45,2.00,0.00,-27.00,0,,,100,99,18,2,0,0,1,1,0,,,,,0.0,0.0,0.0,0.0,0.0,0.0,0
-22.959732,-67.786908,16.80,0.00,2.51,0.75,16.80,16.80,3.42,1.18,6940,2025-11-28 16:45:22.427,2025-11-28 13:45:22.427,17,0,0,46.112,-22.959732,-67.786915,0.20,0.00,-2.50,4.50,1.80,117.90,0,1,0,97,89,-60027,14029,46112,2951.50,44,WP,1,0,0,0,0,0,0,1764348322426,3909,3909,3950,3934,3929,3925,18,,,,,,,0,0,0,-45.00,18.00,1179.00,0.00,0.00,-7.00,14,168.00,25.08,7.46,2.00,0.00,-25.00,0,,,100,100,18,2,0,0,1,1,0,,,,,0.0,0.0,0.0,0.0,0.0,0.0,0
-22.959732,-67.786908,17.10,0.00,2.41,0.75,17.10,17.10,3.42,1.18,7042,2025-11-28 16:45:22.529,2025-11-28 13:45:22.529,17,0,0,46.112,-22.959732,-67.786915,0.20,0.00,-2.40,4.60,2.60,117.90,0,1,0,97,89,-60027,14029,46112,2951.50,44,WP,1,0,0,0,0,0,0,1764348322528,3909,3909,3950,3934,3929,3925,18,,,,,,,0,0,0,-46.00,26.00,1179.00,0.00,0.00,-7.00,14,171.00,24.08,7.48,2.00,0.00,-24.00,0,,,100,100,18,2,0,0,1,1,0,,,,,0.0,0.0,0.0,0.0,0.0,0.0,0
-22.959732,-67.786908,17.30,0.00,2.20,0.75,17.30,17.30,3.42,1.18,7146,2025-11-28 16:45:22.633,2025-11-28 13:45:22.633,17,0,0,46.112,-22.959732,-67.786915,0.10,0.00,-2.20,4.50,3.30,117.90,0,1,0,97,89,-60027,14029,46112,2951.50,44,WP,1,0,0,0,0,0,0,1764348322632,3909,3909,3950,3934,3929,3925,18,,,,,,,0,0,0,-45.00,33.00,1179.00,0.00,0.00,-7.00,14,173.00,22.02,7.46,1.00,0.00,-22.00,0,,,100,100,18,2,0,0,1,1,0,,,,,0.0,0.0,0.0,0.0,0.0,0.0,0
-22.959731,-67.786908,17.50,0.00,2.00,0.74,17.50,17.50,3.42,1.18,7242,2025-11-28 16:45:22.728,2025-11-28 13:45:22.728,17,0,0,46.112,-22.959732,-67.786915,0.10,0.00,-2.00,4.50,3.70,117.90,0,1,0,97,89,-60027,14029,46112,2951.50,44,WP,1,0,0,0,0,0,0,1764348322728,3909,3909,3950,3934,3929,3925,18,,,,,,,0,0,0,-45.00,37.00,1179.00,0.00,0.00,-7.00,14,175.00,20.02,7.42,1.00,0.00,-20.00,0,,,100,100,18,2,0,0,1,1,0,,,,,0.0,0.0,0.0,0.0,0.0,0.0,0
-22.959731,-67.786908,17.70,0.00,1.80,0.73,17.70,17.70,3.42,1.18,7346,2025-11-28 16:45:22.832,2025-11-28 13:45:22.832,17,0,0,46.112,-22.959732,-67.786915,0.00,-0.10,-1.80,4.30,3.80,117.80,0,1,0,97,89,-60027,14029,46112,2951.50,44,WP,1,0,0,0,0,0,0,1764348322832,3909,3909,3950,3934,3929,3925,18,,,,,,,0,0,0,-43.00,38.00,1178.00,0.00,0.00,-7.00,14,177.00,18.03,7.29,0.00,-1.00,-18.00,0,,,100,100,18,2,0,0,1,1,0,,,,,0.0,0.0,0.0,0.0,0.0,0.0,0
-22.959731,-67.786908,17.90,0.00,1.70,0.72,17.90,17.90,3.42,1.18,7443,2025-11-28 16:45:22.929,2025-11-28 13:45:22.930,17,0,0,46.112,-22.959732,-67.786915,0.00,-0.10,-1.70,3.80,3.60,117.90,0,1,0,97,89,-60027,14029,46112,2951.50,44,WP,1,0,0,0,0,0,0,1764348322929,3909,3909,3950,3934,3929,3925,18,,,,,,,0,0,0,-38.00,36.00,1179.00,0.00,0.00,-6.00,14,179.00,17.03,7.17,0.00,-1.00,-17.00,0,,,100,100,18,2,0,0,1,1,0,,,,,0.0,0.0,0.0,0.0,0.0,0.0,0
-22.959731,-67.786908,18.10,0.00,1.50,0.69,18.10,18.10,3.42,1.18,7547,2025-11-28 16:45:23.034,2025-11-28 13:45:23.034,17,0,0,46.112,-22.959732,-67.786915,0.00,-0.10,-1.50,3.40,3.00,117.90,0,1,0,97,89,-60027,14029,46112,2951.50,44,WP,1,0,0,0,0,0,0,1764348323033,3909,3909,3950,3934,3929,3925,18,,,,,,,0,0,0,-34.00,30.00,1179.00,0.00,0.00,-6.00,14,181.00,15.03,6.95,0.00,-1.00,-15.00,0,,,100,100,18,2,0,0,1,1,0,,,,,0.0,0.0,0.0,0.0,0.0,0.0,0
-22.959731,-67.786908,18.20,0.00,1.30,0.68,18.20,18.20,3.42,1.18,7648,2025-11-28 16:45:23.134,2025-11-28 13:45:23.134,17,0,0,46.112,-22.959732,-67.786915,0.00,-0.10,-1.30,3.30,2.20,117.90,0,1,0,97,89,-60027,14029,46112,2951.50,44,WP,1,0,0,0,0,0,0,1764348323134,3909,3909,3950,3934,3929,3925,18,,,,,,,0,0,0,-33.00,22.00,1179.00,0.00,0.00,-7.00,14,182.00,13.04,6.76,0.00,-1.00,-13.00,0,,,100,100,18,2,0,0,1,1,0,,,,,0.0,0.0,0.0,0.0,0.0,0.0,0
-22.959731,-67.786908,18.40,0.00,1.21,0.65,18.40,18.40,3.42,1.18,7749,2025-11-28 16:45:23.236,2025-11-28 13:45:23.236,17,0,0,46.112,-22.959732,-67.786915,-0.10,-0.10,-1.20,2.90,1.10,117.90,0,1,0,97,89,-60027,14029,46112,2951.50,44,WP,1,0,0,0,0,0,0,1764348323235,3909,3909,3950,3934,3929,3925,18,,,,,,,0,0,0,-29.00,11.00,1179.00,0.00,0.00,-7.00,14,184.00,12.08,6.52,-1.00,-1.00,-12.00,0,,,100,100,18,2,0,0,1,1,0,,,,,0.0,0.0,0.0,0.0,0.0,0.0,0
-22.959732,-67.786909,18.60,0.00,1.21,0.63,18.60,18.60,3.42,1.18,7849,2025-11-28 16:45:23.336,2025-11-28 13:45:23.336,17,0,0,46.112,-22.959732,-67.786915,-0.10,-0.10,-1.20,2.60,0.30,117.90,0,1,0,97,89,-60027,14029,46112,2951.50,44,WP,1,0,0,0,0,0,0,1764348323335,3909,3909,3950,3934,3929,3925,18,,,,,,,0,0,0,-26.00,3.00,1179.00,0.00,0.00,-7.00,14,186.00,12.08,6.34,-1.00,-1.00,-12.00,0,,,100,100,18,2,0,0,1,1,0,,,,,0.0,0.0,0.0,0.0,0.0,0.0,0
-22.959732,-67.786909,18.70,0.00,1.12,0.61,18.70,18.70,3.42,1.18,7956,2025-11-28 16:45:23.442,2025-11-28 13:45:23.442,17,0,0,46.112,-22.959732,-67.786915,-0.20,-0.10,-1.10,2.40,-0.40,117.80,0,1,0,97,89,-60027,14029,46112,2951.50,44,WP,1,0,0,0,0,0,0,1764348323442,3909,3909,3950,3934,3929,3925,18,,,,,,,0,0,0,-24.00,-4.00,1178.00,0.00,0.00,-7.00,14,187.00,11.22,6.07,-2.00,-1.00,-11.00,0,,,100,98,18,2,0,0,1,1,0,,,,,0.0,0.0,0.0,0.0,0.0,0.0,0
-22.959732,-67.786909,18.80,0.00,1.11,0.59,18.80,18.80,3.42,1.18,8058,2025-11-28 16:45:23.545,2025-11-28 13:45:23.545,17,0,0,46.112,-22.959732,-67.786915,-0.10,-0.10,-1.10,2.30,-0.90,117.70,0,1,0,97,89,-60027,14029,46112,2951.50,44,WP,1,0,0,0,0,0,0,1764348323544,3909,3909,3950,3934,3929,3925,18,,,,,,,0,0,0,-23.00,-9.00,1177.00,0.00,0.00,-7.00,14,188.00,11.09,5.92,-1.00,-1.00,-11.00,0,,,100,98,18,2,0,0,1,1,0,,,,,0.0,0.0,0.0,0.0,0.0,0.0,0
-22.959732,-67.786909,19.00,0.00,1.10,0.58,19.00,19.00,3.42,1.18,8149,2025-11-28 16:45:23.635,2025-11-28 13:45:23.635,17,0,0,46.112,-22.959732,-67.786915,-0.10,0.00,-1.10,2.40,-0.90,117.70,0,1,0,97,89,-60027,14029,46112,2951.50,44,WP,1,0,0,0,0,0,0,1764348323635,3909,3909,3950,3934,3929,3925,18,,,,,,,0,0,0,-24.00,-9.00,1177.00,0.00,0.00,-6.00,14,190.00,11.05,5.79,-1.00,0.00,-11.00,0,,,100,98,18,2,0,0,1,1,0,,,,,0.0,0.0,0.0,0.0,0.0,0.0,0
-22.959733,-67.786909,19.10,0.00,1.10,0.57,19.10,19.10,3.42,1.18,8258,2025-11-28 16:45:23.745,2025-11-28 13:45:23.745,17,0,0,46.112,-22.959732,-67.786915,-0.10,0.00,-1.10,2.50,-0.60,117.80,0,1,0,97,89,-60027,14029,46112,2951.50,44,WP,1,0,0,0,0,0,0,1764348323744,3909,3909,3950,3934,3929,3925,18,,,,,,,0,0,0,-25.00,-6.00,1178.00,0.00,0.00,-5.00,14,191.00,11.05,5.74,-1.00,0.00,-11.00,0,,,100,98,18,2,0,0,1,1,0,,,,,0.0,0.0,0.0,0.0,0.0,0.0,0
-22.959733,-67.786909,19.20,0.00,1.10,0.57,19.20,19.20,3.42,1.18,8266,2025-11-28 16:45:23.752,2025-11-28 13:45:23.752,17,0,0,46.112,-22.959732,-67.786915,-0.10,0.00,-1.10,2.40,-0.30,117.80,0,1,0,97,89,-60027,14029,46112,2951.50,44,WP,1,0,0,0,0,0,0,1764348323752,3909,3909,3950,3934,3929,3925,18,,,,,,,0,0,0,-24.00,-3.00,1178.00,0.00,0.00,-6.00,14,192.00,11.05,5.73,-1.00,0.00,-11.00,0,,,100,98,18,2,0,0,1,1,0,,,,,0.0,0.0,0.0,0.0,0.0,0.0,0
-22.959733,-67.786909,19.30,0.00,1.10,0.58,19.30,19.30,3.42,1.18,8457,2025-11-28 16:45:23.943,2025-11-28 13:45:23.943,17,0,0,46.112,-22.959732,-67.786915,-0.10,0.00,-1.10,2.40,0.00,117.80,0,1,0,97,89,-60027,14029,46112,2951.50,44,WP,1,0,0,0,0,0,0,1764348323943,3909,3909,3950,3934,3929,3925,18,,,,,,,0,0,0,-24.00,0.00,1178.00,0.00,0.00,-6.00,14,193.00,11.05,5.79,-1.00,0.00,-11.00,0,,,100,97,18,2,0,0,1,1,0,,,,,0.0,0.0,0.0,0.0,0.0,0.0,0
-22.959733,-67.786909,19.50,0.00,1.12,0.58,19.50,19.50,3.42,1.18,8463,2025-11-28 16:45:23.950,2025-11-28 13:45:23.950,17,0,0,46.112,-22.959732,-67.786915,-0.20,0.00,-1.10,2.50,-0.10,117.70,0,1,0,97,89,-60027,14029,46112,2951.50,44,WP,1,0,0,0,0,0,0,1764348323949,3909,3909,3950,3934,3929,3925,18,,,,,,,0,0,0,-25.00,-1.00,1177.00,0.00,0.00,-6.00,14,195.00,11.18,5.79,-2.00,0.00,-11.00,0,,,100,97,18,2,0,0,1,1,0,,,,,0.0,0.0,0.0,0.0,0.0,0.0,0
-22.959733,-67.786909,19.60,0.00,1.12,0.59,19.60,19.60,3.42,1.18,8658,2025-11-28 16:45:24.144,2025-11-28 13:45:24.144,17,0,0,46.112,-22.959732,-67.786915,-0.20,0.00,-1.10,3.00,-0.40,117.80,0,1,0,97,89,-60027,14029,46112,2951.50,44,WP,1,0,0,0,0,0,0,1764348324144,3909,3909,3950,3934,3929,3925,18,,,,,,,0,0,0,-30.00,-4.00,1178.00,0.00,0.00,-5.00,14,196.00,11.18,5.88,-2.00,0.00,-11.00,0,,,100,97,18,2,0,0,1,1,0,,,,,0.0,0.0,0.0,0.0,0.0,0.0,0
-22.959733,-67.786909,19.70,0.00,1.02,0.59,19.70,19.70,3.42,1.18,8760,2025-11-28 16:45:24.247,2025-11-28 13:45:24.247,17,0,0,46.112,-22.959732,-67.786915,-0.20,0.00,-1.00,3.60,-0.90,117.80,0,1,0,97,89,-60027,14029,46112,2951.50,44,WP,1,0,0,0,0,0,0,1764348324246,3909,3909,3950,3934,3929,3925,18,,,,,,,0,0,0,-36.00,-9.00,1178.00,0.00,0.00,-5.00,14,197.00,10.20,5.94,-2.00,0.00,-10.00,0,,,100,97,18,2,0,0,1,1,0,,,,,0.0,0.0,0.0,0.0,0.0,0.0,0
-22.959734,-67.786909,19.80,0.00,0.92,0.61,19.80,19.80,3.42,1.18,8767,2025-11-28 16:45:24.254,2025-11-28 13:45:24.254,17,0,0,46.112,-22.959732,-67.786915,-0.20,0.00,-0.90,4.20,-1.70,117.80,0,1,0,97,89,-60027,14029,46112,2951.50,44,WP,1,0,0,0,0,0,0,1764348324253,3909,3909,3950,3934,3929,3925,18,,,,,,,0,0,0,-42.00,-17.00,1178.00,0.00,0.00,-6.00,14,198.00,9.22,6.05,-2.00,0.00,-9.00,0,,,100,97,18,2,0,0,1,1,0,,,,,0.0,0.0,0.0,0.0,0.0,0.0,0
-22.959734,-67.786909,19.90,0.00,0.81,0.61,19.90,19.90,3.42,1.18,8957,2025-11-28 16:45:24.443,2025-11-28 13:45:24.443,17,0,0,46.112,-22.959732,-67.786915,-0.10,0.00,-0.80,4.40,-2.00,116.30,0,1,0,97,89,-60027,14029,46112,2951.50,44,WP,1,0,0,0,0,0,0,1764348324443,3909,3909,3950,3934,3929,3925,18,,,,,,,0,0,0,-44.00,-20.00,1163.00,0.00,0.00,-6.00,14,199.00,8.06,6.08,-1.00,0.00,-8.00,0,,,100,97,18,2,0,0,1,1,0,,,,,0.0,0.0,0.0,0.0,0.0,0.0,0
-22.959734,-67.786909,20.00,0.00,0.61,0.62,20.00,20.00,3.42,1.18,9060,2025-11-28 16:45:24.547,2025-11-28 13:45:24.547,17,0,0,46.112,-22.959732,-67.786915,-0.10,0.00,-0.60,4.80,-2.30,112.30,0,1,0,97,89,-60027,14029,46112,2951.50,44,WP,1,0,0,0,0,0,0,1764348324546,3909,3909,3950,3934,3929,3925,18,,,,,,,0,0,0,-48.00,-23.00,1123.00,0.00,0.00,-2.00,14,200.00,6.08,6.15,-1.00,0.00,-6.00,0,,,100,97,18,2,0,0,1,1,0,,,,,0.0,0.0,0.0,0.0,0.0,0.0,0
-22.959734,-67.786909,20.10,0.00,0.41,0.61,20.10,20.10,3.42,1.18,9157,2025-11-28 16:45:24.644,2025-11-28 13:45:24.644,17,0,0,46.112,-22.959732,-67.786915,-0.10,0.00,-0.40,5.40,-2.30,109.00,0,1,0,97,89,-60027,14029,46112,2951.50,44,WP,1,0,0,0,0,0,0,1764348324643,3909,3909,3950,3934,3929,3925,18,,,,,,,0,0,0,-54.00,-23.00,1090.00,0.00,0.00,21.00,14,201.00,4.12,6.12,-1.00,0.00,-4.00,0,,,100,97,18,2,0,0,1,1,0,,,,,0.0,0.0,0.0,0.0,0.0,0.0,0
-22.959734,-67.786909,20.10,0.00,0.20,0.62,20.10,20.10,3.42,1.18,9163,2025-11-28 16:45:24.650,2025-11-28 13:45:24.650,17,0,0,46.112,-22.959732,-67.786915,0.00,0.00,-0.20,5.90,-1.80,106.40,0,1,0,97,89,-60027,14029,46112,2951.50,44,WP,1,0,0,0,0,0,0,1764348324649,3909,3909,3950,3934,3929,3925,18,,,,,,,0,0,0,-59.00,-18.00,1064.00,0.00,0.00,67.00,14,201.00,2.00,6.17,0.00,0.00,-2.00,0,,,100,97,18,2,0,0,1,1,0,,,,,0.0,0.0,0.0,0.0,0.0,0.0,0
-22.959734,-67.786909,20.10,0.00,0.10,0.61,20.10,20.10,3.42,1.18,9360,2025-11-28 16:45:24.846,2025-11-28 13:45:24.846,17,0,0,46.112,-22.959732,-67.786915,0.00,0.00,-0.10,6.00,-0.70,105.00,0,1,0,97,89,-60027,14029,46112,2951.50,44,WP,1,0,0,0,0,0,0,1764348324846,3909,3909,3950,3934,3929,3925,18,,,,,,,0,0,0,-60.00,-7.00,1050.00,0.00,0.00,94.00,14,201.00,1.00,6.08,0.00,0.00,-1.00,0,,,100,97,18,2,0,0,1,1,0,,,,,0.0,0.0,0.0,0.0,0.0,0.0,0
-22.959734,-67.786909,20.20,0.00,0.00,0.61,20.20,20.20,3.42,1.18,9367,2025-11-28 16:45:24.854,2025-11-28 13:45:24.854,17,0,0,46.112,-22.959732,-67.786915,0.00,0.00,0.00,5.20,0.00,104.40,0,1,0,97,89,-60027,14029,46112,2951.50,44,WP,1,0,0,0,0,0,0,1764348324853,3909,3909,3950,3934,3929,3925,18,,,,,,,0,0,0,-52.00,0.00,1044.00,0.00,0.00,98.00,14,202.00,0.00,6.05,0.00,0.00,0.00,0,,,100,94,18,2,0,0,1,1,0,,,,,0.0,0.0,0.0,0.0,0.0,0.0,0
-22.959734,-67.786909,20.20,0.00,0.00,0.59,20.20,20.20,3.42,1.18,9465,2025-11-28 16:45:24.951,2025-11-28 13:45:24.951,17,0,0,46.112,-22.959732,-67.786915,0.00,0.00,0.00,3.00,0.00,104.20,0,1,0,97,89,-60027,14029,46112,2951.50,44,WP,1,0,0,0,0,0,0,1764348324951,3909,3909,3950,3934,3929,3925,18,,,,,,,0,0,0,-30.00,0.00,1042.00,0.00,0.00,90.00,14,202.00,0.00,5.87,0.00,0.00,0.00,0,,,100,94,18,2,0,0,1,1,0,,,,,0.0,0.0,0.0,0.0,0.0,0.0,0
-22.959734,-67.786910,20.20,0.00,0.00,0.58,20.20,20.20,3.42,1.18,9662,2025-11-28 16:45:25.148,2025-11-28 13:45:25.148,17,0,0,46.739,-22.959732,-67.786915,0.00,0.00,0.00,-0.10,0.00,104.20,0,1,0,96,89,-53822,13885,46739,2951.50,44,WP,1,0,0,0,0,0,0,1764348325148,3909,3909,3950,3934,3929,3925,18,,,,,,,0,0,0,1.00,0.00,1042.00,0.00,0.00,90.00,14,202.00,0.00,5.79,0.00,0.00,0.00,0,,,100,94,18,2,0,0,1,1,0,,,,,0.0,0.0,0.0,0.0,0.0,0.0,0
-22.959734,-67.786910,20.20,0.00,0.10,0.57,20.20,20.20,3.42,1.18,9676,2025-11-28 16:45:25.163,2025-11-28 13:45:25.163,17,0,0,46.739,-22.959732,-67.786915,-0.10,0.00,0.00,-3.40,-0.40,104.20,0,1,0,96,89,-53822,13885,46739,2951.50,44,WP,1,0,0,0,0,0,0,1764348325162,3909,3909,3950,3934,3929,3925,18,,,,,,,0,0,0,34.00,-4.00,1042.00,0.00,0.00,88.00,14,202.00,1.00,5.70,-1.00,0.00,0.00,0,,,100,94,18,2,0,0,1,1,0,,,,,0.0,0.0,0.0,0.0,0.0,0.0,0
-22.959734,-67.786910,20.20,0.00,0.14,0.58,20.20,20.20,3.42,1.18,9762,2025-11-28 16:45:25.249,2025-11-28 13:45:25.249,17,0,0,46.739,-22.959732,-67.786915,-0.10,0.10,0.00,-6.40,-0.70,104.30,0,1,0,96,89,-53822,13885,46739,2951.50,44,WP,1,0,0,0,0,0,0,1764348325248,3909,3909,3950,3934,3929,3925,18,,,,,,,0,0,0,64.00,-7.00,1043.00,0.00,0.00,86.00,14,202.00,1.41,5.79,-1.00,1.00,0.00,0,,,100,94,18,2,0,0,1,1,0,,,,,0.0,0.0,0.0,0.0,0.0,0.0,0
-22.959734,-67.786909,20.20,0.00,0.22,0.61,20.20,20.20,3.42,1.18,9867,2025-11-28 16:45:25.353,2025-11-28 13:45:25.353,17,0,0,46.739,-22.959732,-67.786915,-0.10,0.20,0.00,-8.40,-1.00,104.30,0,1,0,96,89,-53822,13885,46739,2951.50,44,WP,1,0,0,0,0,0,0,1764348325353,3909,3909,3950,3934,3929,3925,18,,,,,,,0,0,0,84.00,-10.00,1043.00,0.00,0.00,83.00,14,202.00,2.24,6.07,-1.00,2.00,0.00,0,,,100,94,18,2,0,0,1,1,0,,,,,0.0,0.0,0.0,0.0,0.0,0.0,0
-22.959734,-67.786909,20.20,0.00,0.45,0.65,20.20,20.20,3.42,1.18,10065,2025-11-28 16:45:25.551,2025-11-28 13:45:25.551,17,0,0,46.739,-22.959732,-67.786915,-0.20,0.40,0.00,-10.00,-1.30,104.40,0,1,0,96,89,-53822,13885,46739,2951.50,44,WP,1,0,0,0,0,0,0,1764348325551,3909,3909,3950,3934,3929,3925,18,,,,,,,0,0,0,100.00,-13.00,1044.00,0.00,0.00,81.00,14,202.00,4.47,6.55,-2.00,4.00,0.00,0,,,100,95,18,2,0,0,1,1,0,,,,,0.0,0.0,0.0,0.0,0.0,0.0,0
-22.959734,-67.786908,20.20,0.00,0.73,0.73,20.20,20.20,3.42,1.18,10079,2025-11-28 16:45:25.565,2025-11-28 13:45:25.565,17,0,0,46.739,-22.959732,-67.786915,-0.20,0.70,0.00,-11.00,-1.40,104.50,0,1,0,96,89,-53822,13885,46739,2951.50,44,WP,1,0,0,0,0,0,0,1764348325565,3909,3909,3950,3934,3929,3925,18,,,,,,,0,0,0,110.00,-14.00,1045.00,0.00,0.00,78.00,14,202.00,7.28,7.32,-2.00,7.00,0.00,0,,,100,95,18,2,0,0,1,1,0,,,,,0.0,0.0,0.0,0.0,0.0,0.0,0
-22.959735,-67.786907,20.20,0.00,0.95,0.83,20.20,20.20,3.42,1.18,10164,2025-11-28 16:45:25.651,2025-11-28 13:45:25.651,17,0,0,46.739,-22.959732,-67.786915,-0.30,0.90,0.00,-11.90,-1.50,104.50,0,1,0,96,89,-53822,13885,46739,2951.50,44,WP,1,0,0,0,0,0,0,1764348325650,3909,3909,3950,3934,3929,3925,18,,,,,,,0,0,0,119.00,-15.00,1045.00,0.00,0.00,78.00,14,202.00,9.49,8.31,-3.00,9.00,0.00,0,,,100,95,18,2,0,0,1,1,0,,,,,0.0,0.0,0.0,0.0,0.0,0.0,0
-22.959735,-67.786906,20.20,0.00,1.24,0.98,20.20,20.20,3.42,1.18,10374,2025-11-28 16:45:25.860,2025-11-28 13:45:25.860,17,0,0,46.739,-22.959732,-67.786915,-0.30,1.20,0.00,-12.40,-1.60,104.50,0,1,0,96,89,-53822,13885,46739,2951.50,44,WP,1,0,0,0,0,0,0,1764348325860,3909,3909,3950,3934,3929,3925,18,,,,,,,0,0,0,124.00,-16.00,1045.00,0.00,0.00,78.00,14,202.00,12.37,9.82,-3.00,12.00,0.00,0,,,100,95,18,2,0,0,1,1,0,,,,,0.0,0.0,0.0,0.0,0.0,0.0,0
-22.959735,-67.786904,20.20,0.00,1.46,1.15,20.20,20.20,3.42,1.18,10379,2025-11-28 16:45:25.866,2025-11-28 13:45:25.866,17,0,0,46.739,-22.959732,-67.786915,-0.40,1.40,0.00,-12.70,-1.80,104.50,0,1,0,96,89,-53822,13885,46739,2951.50,44,WP,1,0,0,0,0,0,0,1764348325865,3909,3909,3950,3934,3929,3925,18,,,,,,,0,0,0,127.00,-18.00,1045.00,0.00,0.00,72.00,14,202.00,14.56,11.50,-4.00,14.00,0.00,0,,,100,95,18,2,0,0,1,1,0,,,,,0.0,0.0,0.0,0.0,0.0,0.0,0
-22.959736,-67.786902,20.20,0.00,1.77,1.38,20.20,20.20,3.42,1.38,10477,2025-11-28 16:45:25.964,2025-11-28 13:45:25.964,17,0,0,46.739,-22.959732,-67.786915,-0.50,1.70,0.00,-12.80,-1.80,104.50,0,1,0,96,89,-53822,13885,46739,2951.50,44,WP,1,0,0,0,0,0,0,1764348325963,3909,3909,3950,3934,3929,3925,18,,,,,,,0,0,0,128.00,-18.00,1045.00,0.00,0.00,72.00,14,202.00,17.72,13.81,-5.00,17.00,0.00,0,,,100,98,18,2,0,0,1,1,0,,,,,0.0,0.0,0.0,0.0,0.0,0.0,0
-22.959736,-67.786900,20.20,0.00,2.06,1.62,20.20,20.20,3.42,1.62,10569,2025-11-28 16:45:26.055,2025-11-28 13:45:26.055,17,0,0,46.739,-22.959732,-67.786915,-0.50,2.00,0.00,-12.50,-1.80,104.50,0,1,0,96,89,-53822,13885,46739,2951.50,44,WP,1,0,0,0,0,0,0,1764348326055,3909,3909,3950,3934,3929,3925,18,,,,,,,0,0,0,125.00,-18.00,1045.00,0.00,0.00,69.00,14,202.00,20.62,16.20,-5.00,20.00,0.00,0,,,100,98,18,2,0,0,1,1,0,,,,,0.0,0.0,0.0,0.0,0.0,0.0,0
-22.959737,-67.786897,20.20,0.00,2.38,1.91,20.20,20.20,3.42,1.91,10673,2025-11-28 16:45:26.160,2025-11-28 13:45:26.160,17,0,0,46.739,-22.959732,-67.786915,-0.60,2.30,0.00,-11.70,-1.70,104.60,0,1,0,96,89,-53822,13885,46739,2951.50,44,WP,1,0,0,0,0,0,0,1764348326159,3909,3909,3950,3934,3929,3925,18,,,,,,,0,0,0,117.00,-17.00,1046.00,0.00,0.00,67.00,14,202.00,23.77,19.11,-6.00,23.00,0.00,0,,,100,98,18,2,0,0,1,1,0,,,,,0.0,0.0,0.0,0.0,0.0,0.0,0
-22.959738,-67.786894,20.20,0.00,2.57,2.21,20.20,20.20,3.42,2.21,10774,2025-11-28 16:45:26.261,2025-11-28 13:45:26.261,17,0,0,46.739,-22.959732,-67.786915,-0.60,2.50,0.00,-11.00,-2.00,104.70,0,1,0,96,89,-53822,13885,46739,2951.50,44,WP,1,0,0,0,0,0,0,1764348326260,3909,3909,3950,3934,3929,3925,18,,,,,,,0,0,0,110.00,-20.00,1047.00,0.00,0.00,65.00,14,202.00,25.71,22.08,-6.00,25.00,0.00,0,,,100,98,18,2,0,0,1,1,0,,,,,0.0,0.0,0.0,0.0,0.0,0.0,0
-22.959739,-67.786891,20.20,0.00,2.79,2.55,20.20,20.20,3.42,2.55,10875,2025-11-28 16:45:26.362,2025-11-28 13:45:26.362,17,0,0,46.739,-22.959732,-67.786915,-0.70,2.70,0.00,-10.70,-2.10,104.80,0,1,0,96,89,-53822,13885,46739,2951.50,44,WP,1,0,0,0,0,0,0,1764348326361,3909,3909,3950,3934,3929,3925,18,,,,,,,0,0,0,107.00,-21.00,1048.00,0.00,0.00,62.00,14,202.00,27.89,25.48,-7.00,27.00,0.00,0,,,100,98,18,2,0,0,1,1,0,,,,,0.0,0.0,0.0,0.0,0.0,0.0,0
-22.959739,-67.786888,20.20,0.00,3.08,2.89,20.20,20.20,3.42,2.89,10977,2025-11-28 16:45:26.463,2025-11-28 13:45:26.464,17,0,0,46.739,-22.959732,-67.786915,-0.70,3.00,0.00,-10.60,-2.40,104.80,0,1,0,96,89,-53822,13885,46739,2951.50,44,WP,1,0,0,0,0,0,0,1764348326463,3909,3909,3950,3934,3929,3925,18,,,,,,,0,0,0,106.00,-24.00,1048.00,0.00,0.00,60.00,14,202.00,30.81,28.94,-7.00,30.00,0.00,0,,,100,96,18,2,0,0,1,1,0,,,,,0.0,0.0,0.0,0.0,0.0,0.0,0
-22.959740,-67.786884,20.20,0.00,3.30,3.30,20.20,20.20,3.42,3.30,11077,2025-11-28 16:45:26.563,2025-11-28 13:45:26.563,17,0,0,46.739,-22.959732,-67.786915,-0.80,3.20,0.00,-10.90,-2.60,104.80,0,1,0,96,89,-53822,13885,46739,2951.50,44,WP,1,0,0,0,0,0,0,1764348326563,3909,3909,3950,3934,3929,3925,18,,,,,,,0,0,0,109.00,-26.00,1048.00,0.00,0.00,58.00,14,202.00,32.98,32.96,-8.00,32.00,0.00,0,,,100,96,18,2,0,0,1,1,0,,,,,0.0,0.0,0.0,0.0,0.0,0.0,0
-22.959741,-67.786880,20.20,0.00,3.49,3.70,20.20,20.20,3.49,3.70,11172,2025-11-28 16:45:26.659,2025-11-28 13:45:26.659,17,0,0,46.739,-22.959732,-67.786915,-0.80,3.40,0.00,-11.50,-2.90,104.80,0,1,0,96,89,-53822,13885,46739,2951.50,44,WP,1,0,0,0,0,0,0,1764348326658,3909,3909,3950,3934,3929,3925,18,,,,,,,0,0,0,115.00,-29.00,1048.00,0.00,0.00,56.00,14,202.00,34.93,36.98,-8.00,34.00,0.00,0,,,100,96,18,2,0,0,1,1,0,,,,,0.0,0.0,0.0,0.0,0.0,0.0,0
-22.959742,-67.786876,20.20,0.00,3.69,4.15,20.20,20.20,3.69,4.15,11375,2025-11-28 16:45:26.862,2025-11-28 13:45:26.862,16,0,0,46.739,-22.959732,-67.786915,-0.80,3.60,0.00,-12.40,-3.10,104.80,0,1,0,96,89,-53822,13885,46739,2951.50,44,WP,1,0,0,0,0,0,0,1764348326861,3909,3909,3950,3934,3929,3925,18,,,,,,,0,0,0,124.00,-31.00,1048.00,0.00,0.00,54.00,14,202.00,36.88,41.51,-8.00,36.00,0.00,0,,,100,96,18,2,0,0,1,1,0,,,,,0.0,0.0,0.0,0.0,0.0,0.0,0
-22.959743,-67.786872,20.20,0.00,4.00,4.60,20.20,20.20,4.00,4.60,11383,2025-11-28 16:45:26.869,2025-11-28 13:45:26.869,16,0,0,46.739,-22.959732,-67.786915,-0.90,3.90,0.00,-12.90,-3.60,104.80,0,1,0,96,89,-53822,13885,46739,2951.50,44,WP,1,0,0,0,0,0,0,1764348326869,3909,3909,3950,3934,3929,3925,18,,,,,,,0,0,0,129.00,-36.00,1048.00,0.00,0.00,52.00,14,202.00,40.02,46.05,-9.00,39.00,0.00,0,,,100,96,18,2,0,0,1,1,0,,,,,0.0,0.0,0.0,0.0,0.0,0.0,0
-22.959744,-67.786867,20.20,0.00,4.30,5.12,20.20,20.20,4.30,5.12,11476,2025-11-28 16:45:26.963,2025-11-28 13:45:26.963,16,0,0,46.739,-22.959732,-67.786915,-0.90,4.20,0.00,-12.90,-3.90,104.80,0,1,0,96,89,-53822,13885,46739,2951.50,44,WP,1,0,0,0,0,0,0,1764348326962,3909,3909,3950,3934,3929,3925,18,,,,,,,0,0,0,129.00,-39.00,1048.00,0.00,0.00,50.00,14,202.00,42.95,51.15,-9.00,42.00,0.00,0,,,100,96,18,2,0,0,1,1,0,,,,,0.0,0.0,0.0,0.0,0.0,0.0,0
-22.959745,-67.786862,20.20,0.00,4.51,5.62,20.20,20.20,4.51,5.62,11576,2025-11-28 16:45:27.063,2025-11-28 13:45:27.063,16,0,0,46.739,-22.959732,-67.786915,-1.00,4.40,0.10,-12.40,-4.10,104.80,0,1,0,96,89,-53822,13885,46739,2951.50,44,WP,1,0,0,0,0,0,0,1764348327062,3909,3909,3950,3934,3929,3925,18,,,,,,,0,0,0,124.00,-41.00,1048.00,0.00,0.00,49.00,14,202.00,45.13,56.24,-10.00,44.00,1.00,0,,,100,95,18,2,0,0,1,1,0,,,,,0.0,0.0,0.0,0.0,0.0,0.0,0
-22.959746,-67.786857,20.20,0.00,4.81,6.18,20.20,20.20,4.81,6.18,11679,2025-11-28 16:45:27.165,2025-11-28 13:45:27.165,16,0,0,46.555,-22.959732,-67.786915,-1.00,4.70,0.10,-11.80,-4.00,104.70,0,1,0,96,89,-55493,13885,46555,2951.50,44,WP,1,0,0,0,0,0,0,1764348327165,3909,3909,3950,3934,3929,3925,18,,,,,,,0,0,0,118.00,-40.00,1047.00,0.00,0.00,47.00,14,202.00,48.06,61.84,-10.00,47.00,1.00,0,,,100,95,18,2,0,0,1,1,0,,,,,0.0,0.0,0.0,0.0,0.0,0.0,0
-22.959747,-67.786851,20.10,0.00,5.10,6.74,20.20,20.20,5.10,6.74,11778,2025-11-28 16:45:27.264,2025-11-28 13:45:27.264,16,0,0,46.555,-22.959732,-67.786915,-1.00,5.00,0.00,-11.10,-3.70,104.60,0,1,0,96,89,-55493,13885,46555,2951.50,44,WP,1,0,0,0,0,0,0,1764348327264,3909,3909,3950,3934,3929,3925,18,,,,,,,0,0,0,111.00,-37.00,1046.00,0.00,0.00,46.00,14,201.00,50.99,67.43,-10.00,50.00,0.00,0,,,100,95,18,2,0,0,1,1,0,,,,,0.0,0.0,0.0,0.0,0.0,0.0,0
-22.959749,-67.786845,20.10,0.00,5.32,7.34,20.20,20.20,5.32,7.34,11881,2025-11-28 16:45:27.367,2025-11-28 13:45:27.368,16,0,0,46.555,-22.959732,-67.786915,-1.10,5.20,0.10,-10.50,-3.60,104.50,0,1,0,96,89,-55493,13885,46555,2951.50,44,WP,1,0,0,0,0,0,0,1764348327367,3909,3909,3950,3934,3929,3925,18,,,,,,,0,0,0,105.00,-36.00,1045.00,0.00,0.00,45.00,14,201.00,53.16,73.45,-11.00,52.00,1.00,0,,,100,95,18,2,0,0,1,1,0,,,,,0.0,0.0,0.0,0.0,0.0,0.0,0
-22.959750,-67.786840,20.10,0.00,5.61,7.95,20.20,20.20,5.61,7.95,12081,2025-11-28 16:45:27.567,2025-11-28 13:45:27.567,16,0,0,46.555,-22.959732,-67.786915,-1.10,5.50,0.10,-10.40,-3.40,104.50,0,1,0,96,89,-55493,13885,46555,2951.50,44,WP,1,0,0,0,0,0,0,1764348327567,3909,3909,3950,3934,3929,3925,18,,,,,,,0,0,0,104.00,-34.00,1045.00,0.00,0.00,44.00,14,201.00,56.10,79.48,-11.00,55.00,1.00,0,,,100,95,18,2,0,0,1,1,0,,,,,0.0,0.0,0.0,0.0,0.0,0.0,0
-22.959751,-67.786833,20.10,0.00,5.81,8.61,20.20,20.20,5.81,8.61,12095,2025-11-28 16:45:27.582,2025-11-28 13:45:27.582,17,0,0,46.555,-22.959732,-67.786915,-1.10,5.70,0.10,-10.10,-3.00,104.50,0,1,0,96,89,-55493,13885,46555,2951.50,44,WP,1,0,0,0,0,0,0,1764348327581,3909,3909,3950,3934,3929,3925,18,,,,,,,0,0,0,101.00,-30.00,1045.00,0.00,0.00,42.00,14,201.00,58.06,86.14,-11.00,57.00,1.00,0,,,100,98,18,2,0,0,1,1,0,,,,,0.0,0.0,0.0,0.0,0.0,0.0,0
-22.959752,-67.786827,20.00,0.00,6.02,9.27,20.20,20.20,6.02,9.27,12180,2025-11-28 16:45:27.666,2025-11-28 13:45:27.666,17,0,0,46.555,-22.959732,-67.786915,-1.20,5.90,0.00,-9.80,-2.60,104.40,0,1,0,96,89,-55493,13885,46555,2951.50,44,WP,1,0,0,0,0,0,0,1764348327666,3909,3909,3950,3934,3929,3925,18,,,,,,,0,0,0,98.00,-26.00,1044.00,0.00,0.00,41.00,14,200.00,60.21,92.72,-12.00,59.00,0.00,0,,,100,98,18,2,0,0,1,1,0,,,,,0.0,0.0,0.0,0.0,0.0,0.0,0
-22.959753,-67.786820,20.00,0.00,6.22,9.97,20.20,20.20,6.22,9.97,12285,2025-11-28 16:45:27.772,2025-11-28 13:45:27.772,17,0,0,46.555,-22.959732,-67.786915,-1.20,6.10,0.10,-9.50,-2.50,104.40,0,1,0,96,89,-55493,13885,46555,2951.50,44,WP,1,0,0,0,0,0,0,1764348327771,3909,3909,3950,3934,3929,3925,18,,,,,,,0,0,0,95.00,-25.00,1044.00,0.00,0.00,40.00,14,200.00,62.18,99.71,-12.00,61.00,1.00,0,,,100,98,18,2,0,0,1,1,0,,,,,0.0,0.0,0.0,0.0,0.0,0.0,0
-22.959754,-67.786814,20.00,0.00,6.53,10.66,20.20,20.20,6.53,10.66,12382,2025-11-28 16:45:27.869,2025-11-28 13:45:27.869,17,0,0,46.555,-22.959732,-67.786915,-1.30,6.40,0.00,-9.20,-2.50,104.40,0,1,0,96,89,-55493,13885,46555,2951.50,44,WP,1,0,0,0,0,0,0,1764348327868,3909,3909,3950,3934,3929,3925,18,,,,,,,0,0,0,92.00,-25.00,1044.00,0.00,0.00,38.00,14,200.00,65.31,106.64,-13.00,64.00,0.00,0,,,100,98,18,2,0,0,1,1,0,,,,,0.0,0.0,0.0,0.0,0.0,0.0,0
-22.959756,-67.786806,19.90,0.00,6.73,11.42,20.20,20.20,6.73,11.42,12491,2025-11-28 16:45:27.978,2025-11-28 13:45:27.978,16,0,0,46.555,-22.959732,-67.786915,-1.30,6.60,0.10,-8.90,-2.80,104.40,0,1,0,96,89,-55493,13885,46555,2951.50,44,WP,1,0,0,0,0,0,0,1764348327977,3909,3909,3950,3934,3929,3925,18,,,,,,,0,0,0,89.00,-28.00,1044.00,0.00,0.00,37.00,14,199.00,67.28,114.18,-13.00,66.00,1.00,0,,,100,98,18,2,0,0,1,1,0,,,,,0.0,0.0,0.0,0.0,0.0,0.0,0
-22.959757,-67.786799,19.90,0.00,6.92,12.16,20.20,20.20,6.92,12.16,12585,2025-11-28 16:45:28.072,2025-11-28 13:45:28.072,16,0,0,46.555,-22.959732,-67.786915,-1.30,6.80,0.00,-8.70,-3.10,104.40,0,1,0,96,89,-55493,13885,46555,2951.50,44,WP,1,0,0,0,0,0,0,1764348328071,3909,3909,3950,3934,3929,3925,18,,,,,,,0,0,0,87.00,-31.00,1044.00,0.00,0.00,35.00,14,199.00,69.23,121.59,-13.00,68.00,0.00,0,,,100,98,18,2,0,0,1,1,0,,,,,0.0,0.0,0.0,0.0,0.0,0.0,0
-22.959758,-67.786792,19.90,0.00,7.12,12.93,20.20,20.20,7.12,12.93,12692,2025-11-28 16:45:28.179,2025-11-28 13:45:28.179,17,0,0,46.555,-22.959732,-67.786915,-1.30,7.00,0.00,-8.40,-3.20,104.40,0,1,0,96,89,-55493,13885,46555,2951.50,44,WP,1,0,0,0,0,0,0,1764348328178,3909,3909,3950,3934,3929,3925,18,,,,,,,0,0,0,84.00,-32.00,1044.00,0.00,0.00,33.00,14,199.00,71.20,129.32,-13.00,70.00,0.00,0,,,100,98,18,2,0,0,1,1,0,,,,,0.0,0.0,0.0,0.0,0.0,0.0,0
-22.959760,-67.786785,19.90,0.00,7.24,13.70,20.20,20.20,7.24,13.70,12783,2025-11-28 16:45:28.270,2025-11-28 13:45:28.270,17,0,0,46.555,-22.959732,-67.786915,-1.40,7.10,0.00,-8.10,-3.10,104.30,0,1,0,96,89,-55493,13885,46555,2951.50,44,WP,1,0,0,0,0,0,0,1764348328269,3909,3909,3950,3934,3929,3925,18,,,,,,,0,0,0,81.00,-31.00,1043.00,0.00,0.00,32.00,14,199.00,72.37,136.97,-14.00,71.00,0.00,0,,,100,98,18,2,0,0,1,1,0,,,,,0.0,0.0,0.0,0.0,0.0,0.0,0
-22.959761,-67.786777,19.90,0.00,7.43,14.46,20.20,20.20,7.43,14.46,12890,2025-11-28 16:45:28.377,2025-11-28 13:45:28.377,17,0,0,46.555,-22.959732,-67.786915,-1.40,7.30,0.00,-7.80,-2.80,104.30,0,1,0,96,89,-55493,13885,46555,2951.50,44,WP,1,0,0,0,0,0,0,1764348328376,3909,3909,3950,3934,3929,3925,18,,,,,,,0,0,0,78.00,-28.00,1043.00,0.00,0.00,30.00,14,199.00,74.33,144.61,-14.00,73.00,0.00,0,,,100,98,18,2,0,0,1,1,0,,,,,0.0,0.0,0.0,0.0,0.0,0.0,0
-22.959762,-67.786770,19.90,0.00,7.63,15.23,20.20,20.20,7.63,15.23,12993,2025-11-28 16:45:28.480,2025-11-28 13:45:28.480,17,0,0,46.555,-22.959732,-67.786915,-1.40,7.50,0.00,-7.60,-2.30,104.30,0,1,0,96,89,-55493,13885,46555,2951.50,44,WP,1,0,0,0,0,0,0,1764348328479,3909,3909,3950,3934,3929,3925,18,,,,,,,0,0,0,76.00,-23.00,1043.00,0.00,0.00,29.00,14,199.00,76.30,152.30,-14.00,75.00,0.00,0,,,100,98,18,2,0,0,1,1,0,,,,,0.0,0.0,0.0,0.0,0.0,0.0,0
-22.959763,-67.786762,19.90,0.00,7.73,16.09,20.20,20.20,7.73,16.09,13089,2025-11-28 16:45:28.575,2025-11-28 13:45:28.575,17,0,0,46.555,-22.959732,-67.786915,-1.40,7.60,0.00,-7.60,-1.80,104.30,0,1,0,96,89,-56009,13885,46555,2951.50,44,WP,1,0,0,0,0,0,0,1764348328575,3909,3909,3950,3934,3929,3925,18,,,,,,,0,0,0,76.00,-18.00,1043.00,0.00,0.00,28.00,14,199.00,77.28,160.86,-14.00,76.00,0.00,0,,,100,98,18,2,0,0,1,1,0,,,,,0.0,0.0,0.0,0.0,0.0,0.0,0
-22.959765,-67.786754,19.90,0.00,7.94,16.93,20.20,20.20,7.94,16.93,13194,2025-11-28 16:45:28.680,2025-11-28 13:45:28.680,17,0,0,46.555,-22.959732,-67.786915,-1.50,7.80,0.00,-8.10,-1.30,104.40,0,1,0,96,89,-56009,13885,46555,2951.50,44,WP,1,0,0,0,0,0,0,1764348328680,3909,3909,3950,3934,3929,3925,18,,,,,,,0,0,0,81.00,-13.00,1044.00,0.00,0.00,26.00,14,199.00,79.43,169.26,-15.00,78.00,0.00,0,,,100,97,18,2,0,0,1,1,0,,,,,0.0,0.0,0.0,0.0,0.0,0.0,0
-22.959766,-67.786745,19.90,0.00,8.04,17.82,20.20,20.20,8.04,17.82,13290,2025-11-28 16:45:28.776,2025-11-28 13:45:28.776,17,0,0,46.555,-22.959732,-67.786915,-1.50,7.90,0.00,-8.50,-1.20,104.60,0,1,0,96,89,-56009,13885,46555,2951.50,44,WP,1,0,0,0,0,0,0,1764348328776,3909,3909,3950,3934,3929,3925,18,,,,,,,0,0,0,85.00,-12.00,1046.00,0.00,0.00,23.00,14,199.00,80.41,178.17,-15.00,79.00,0.00,0,,,100,97,18,2,0,0,1,1,0,,,,,0.0,0.0,0.0,0.0,0.0,0.0,0
-22.959768,-67.786737,19.90,0.00,8.26,18.69,20.20,20.20,8.26,18.69,13396,2025-11-28 16:45:28.883,2025-11-28 13:45:28.883,17,0,0,46.555,-22.959732,-67.786915,-1.60,8.10,-0.10,-8.70,-1.20,104.50,0,1,0,96,89,-56009,13885,46555,2951.50,44,WP,1,0,0,0,0,0,0,1764348328882,3821,3834,3856,3836,3805,3831,18,,,,,,,0,0,0,87.00,-12.00,1045.00,0.00,0.00,21.00,14,199.00,82.57,186.88,-16.00,81.00,-1.00,0,,,100,97,18,2,0,0,1,1,0,,,,,0.0,0.0,0.0,0.0,0.0,0.0,0
-22.959770,-67.786728,20.00,0.00,8.45,19.60,20.20,20.20,8.45,19.60,13492,2025-11-28 16:45:28.978,2025-11-28 13:45:28.978,17,0,0,46.555,-22.959732,-67.786915,-1.60,8.30,-0.10,-7.80,-1.20,104.40,0,1,0,96,89,-56009,13885,46555,2951.50,44,WP,1,0,0,0,0,0,0,1764348328978,3821,3834,3856,3836,3805,3831,18,,,,,,,0,0,0,78.00,-12.00,1044.00,0.00,0.00,20.00,14,200.00,84.53,196.03,-16.00,83.00,-1.00,0,,,100,97,18,2,0,0,1,1,0,,,,,0.0,0.0,0.0,0.0,0.0,0.0,0
