latitude,longitude,altitude(m),ultrasonicHeight(m),speed(mps),distance(m),max_altitude(m),max_ascent(m),max_speed(mps),max_distance(m),time(millisecond),datetime(utc),datetime(local),satellites,pressure(Pa),temperature(F),voltage(v),home_latitude,home_longitude,velocityX(mps),velocityY(mps),velocityZ(mps),pitch(deg),roll(deg),yaw(deg),powerlevel,isflying,istakingphoto,remainPowerPercent,remainLifePercent,currentCurrent,currentElectricity,currentVoltage,batteryTemperature,dischargeCount,flightmode,isMotorsOn,isTakingVideo,Rc_elevator,Rc_aileron,Rc_throttle,Rc_rudder,Rc_gyro,timestamp,Battery_Cell1,Battery_Cell2,Battery_Cell3,Battery_Cell4,Battery_Cell5,Battery_Cell6,Dronetype,AppVersion,Planename,FlyControllerSerialNumber,RemoteSerialNumber,BatterySerialNumber,CENTER_BATTERY.productDate,CENTER_BATTERY.serialNo,CENTER_BATTERY.fullCapacity,CENTER_BATTERY.productDateRaw,pitchRaw,rollRaw,yawRaw,gimbalPitchRaw,gimbalRollRaw,gimbalYawRaw,flyState,altitudeRaw,speedRaw,distanceRaw,velocityXRaw,velocityYRaw,velocityZRaw,data_reuse,App_Tip,App_Warning,downlinkSignalQuality,uplinkSignalQuality,transmissionChannel,rcModeSwitch,rcHome,rcPause,rcTransform,rcJoystickMode,appMode,FlyControllerSerialNumber_legacy,RemoteSerialNumber_legacy,BatterySerialNumber_legacy,Battery2SerialNumber,frontAvoidDist,backAvoidDist,rightAvoidDist,leftAvoidDist,upAvoidDist,downAvoidDist,isBrakingToAvoid
-22.959718,-67.786904,0.70,0.00,0.71,0.21,0.70,0.70,0.71,0.21,2,2025-11-30 15:13:26.115,2025-11-30 12:13:26.115,14,0,0,51.807,-22.959719,-67.786902,0.10,0.00,-0.70,-0.50,0.20,98.10,0,1,0,100,88,-1160,14193,51807,2931.50,51,TakeOff,1,0,0,0,0,0,0,1764515606114,4328,4328,4326,4326,4329,4318,18,Litchi_iOS_2.15.7,EIK Matrice 1,0670131556,03LLCA05XT,,,0,14193,0,5.00,2.00,981.00,0.00,2.00,7.00,11,7.00,7.07,2.14,1.00,0.00,-7.00,0,,,100,100,20,2,0,0,1,1,0,(null),(null),(null),(null),0.0,0.0,0.0,0.0,0.0,0.0,0
-22.959718,-67.786904,0.80,0.00,0.71,0.22,0.80,0.80,0.71,0.22,91,2025-11-30 15:13:26.204,2025-11-30 12:13:26.204,14,0,0,51.807,-22.959719,-67.786902,0.10,0.00,-0.70,0.00,0.50,98.10,0,1,0,100,88,-1160,14193,51807,2931.50,51,TakeOff,1,0,0,0,0,0,0,1764515606203,4328,4328,4326,4326,4329,4318,18,,,,,,,0,0,0,-0.00,5.00,981.00,0.00,2.00,8.00,11,8.00,7.07,2.21,1.00,0.00,-7.00,0,,,100,100,20,2,0,0,1,1,0,,,,,0.0,0.0,0.0,0.0,0.0,0.0,0
-22.959718,-67.786903,0.90,0.00,0.51,0.24,0.90,0.90,0.71,0.24,297,2025-11-30 15:13:26.409,2025-11-30 12:13:26.409,14,0,0,51.807,-22.959719,-67.786902,0.10,0.00,-0.50,0.20,1.50,98.00,0,1,0,100,88,-1160,14193,51807,2931.50,51,TakeOff,1,0,0,0,0,0,0,1764515606409,4328,4328,4326,4326,4329,4318,18,,,,,,,0,0,0,-2.00,15.00,980.00,0.00,2.00,8.00,11,9.00,5.10,2.40,1.00,0.00,-5.00,0,,,100,100,20,2,0,0,1,1,0,,,,,0.0,0.0,0.0,0.0,0.0,0.0,0
-22.959717,-67.786903,0.90,0.00,0.40,0.25,0.90,0.90,0.71,0.25,399,2025-11-30 15:13:26.512,2025-11-30 12:13:26.512,14,0,0,51.807,-22.959719,-67.786902,0.00,0.00,-0.40,0.00,1.80,98.00,0,1,0,100,88,-1160,14193,51807,2931.50,51,TakeOff,1,0,0,0,0,0,0,1764515606511,4328,4328,4326,4326,4329,4318,18,,,,,,,0,0,0,-0.00,18.00,980.00,0.00,2.00,8.00,11,9.00,4.00,2.50,0.00,0.00,-4.00,0,,,100,100,20,2,0,0,1,1,0,,,,,0.0,0.0,0.0,0.0,0.0,0.0,0
-22.959717,-67.786903,1.00,0.00,0.40,0.26,1.00,1.00,0.71,0.26,494,2025-11-30 15:13:26.607,2025-11-30 12:13:26.607,14,0,0,51.807,-22.959719,-67.786902,0.00,0.00,-0.40,-0.50,1.80,98.00,0,1,0,100,88,-1160,14193,51807,2931.50,51,TakeOff,1,0,0,0,0,0,0,1764515606606,4328,4328,4326,4326,4329,4318,18,,,,,,,0,0,0,5.00,18.00,980.00,0.00,2.00,8.00,11,10.00,4.00,2.57,0.00,0.00,-4.00,0,,,100,100,20,2,0,0,1,1,0,,,,,0.0,0.0,0.0,0.0,0.0,0.0,0
-22.959717,-67.786903,1.00,0.00,0.30,0.26,1.00,1.00,0.71,0.26,598,2025-11-30 15:13:26.710,2025-11-30 12:13:26.710,14,0,0,51.807,-22.959719,-67.786902,0.00,0.00,-0.30,-0.90,1.50,98.00,0,1,0,100,88,-1160,14193,51807,2931.50,51,WP,1,0,0,0,0,0,0,1764515606710,4328,4328,4326,4326,4329,4318,18,,,,,,,0,0,0,9.00,15.00,980.00,-1.00,2.00,8.00,14,10.00,3.00,2.59,0.00,0.00,-3.00,0,,,100,100,20,2,0,0,1,1,0,,,,,0.0,0.0,0.0,0.0,0.0,0.0,0
-22.959717,-67.786903,1.10,0.00,0.30,0.26,1.10,1.10,0.71,0.26,698,2025-11-30 15:13:26.810,2025-11-30 12:13:26.810,14,0,0,50.714,-22.959719,-67.786902,0.00,0.00,-0.30,-1.00,0.90,98.00,0,1,0,100,88,-22400,14193,50714,2931.50,51,WP,1,0,0,0,0,0,0,1764515606810,4328,4328,4326,4326,4329,4318,18,,,,,,,0,0,0,10.00,9.00,980.00,-1.00,2.00,9.00,14,11.00,3.00,2.57,0.00,0.00,-3.00,0,,,100,100,20,2,0,0,1,1,0,,,,,0.0,0.0,0.0,0.0,0.0,0.0,0
-22.959717,-67.786903,1.10,0.00,0.20,0.25,1.10,1.10,0.71,0.26,798,2025-11-30 15:13:26.911,2025-11-30 12:13:26.911,14,0,0,50.714,-22.959719,-67.786902,0.00,0.00,-0.20,-0.80,0.00,98.00,0,1,0,100,88,-22400,14193,50714,2931.50,51,WP,1,0,0,0,0,0,0,1764515606910,4328,4328,4326,4326,4329,4318,18,,,,,,,0,0,0,8.00,0.00,980.00,0.00,2.00,9.00,14,11.00,2.00,2.55,0.00,0.00,-2.00,0,,,100,100,20,2,0,0,1,1,0,,,,,0.0,0.0,0.0,0.0,0.0,0.0,0
-22.959717,-67.786903,1.10,0.00,0.10,0.25,1.10,1.10,0.71,0.26,899,2025-11-30 15:13:27.011,2025-11-30 12:13:27.011,14,0,0,50.714,-22.959719,-67.786902,0.00,0.00,-0.10,-0.60,-0.60,98.00,0,1,0,100,88,-22400,14193,50714,2931.50,51,WP,1,0,0,0,0,0,0,1764515607011,4328,4328,4326,4326,4329,4318,18,,,,,,,0,0,0,6.00,-6.00,980.00,0.00,2.00,9.00,14,11.00,1.00,2.55,0.00,0.00,-1.00,0,,,100,100,20,2,0,0,1,1,0,,,,,0.0,0.0,0.0,0.0,0.0,0.0,0
-22.959717,-67.786903,1.20,0.00,0.22,0.26,1.20,1.20,0.71,0.26,1003,2025-11-30 15:13:27.116,2025-11-30 12:13:27.116,14,0,0,50.714,-22.959719,-67.786902,0.00,0.10,-0.20,-0.20,-0.60,98.00,0,1,0,100,88,-22400,14193,50714,2931.50,51,WP,1,0,0,0,0,0,0,1764515607115,4328,4328,4326,4326,4329,4318,18,,,,,,,0,0,0,2.00,-6.00,980.00,0.00,2.00,9.00,14,12.00,2.24,2.61,0.00,1.00,-2.00,0,,,100,100,20,2,0,0,1,1,0,,,,,0.0,0.0,0.0,0.0,0.0,0.0,0
-22.959717,-67.786903,1.20,0.00,0.22,0.27,1.20,1.20,0.71,0.27,1105,2025-11-30 15:13:27.217,2025-11-30 12:13:27.218,14,0,0,50.714,-22.959719,-67.786902,0.00,0.10,-0.20,0.20,-0.40,98.00,0,1,0,100,88,-22400,14193,50714,2931.50,51,WP,1,0,0,0,0,0,0,1764515607217,4328,4328,4326,4326,4329,4318,18,,,,,,,0,0,0,-2.00,-4.00,980.00,0.00,2.00,8.00,14,12.00,2.24,2.70,0.00,1.00,-2.00,0,,,100,100,20,2,0,0,1,1,0,,,,,0.0,0.0,0.0,0.0,0.0,0.0,0
-22.959717,-67.786902,1.30,0.00,0.41,0.30,1.30,1.30,0.71,0.30,1301,2025-11-30 15:13:27.413,2025-11-30 12:13:27.413,14,0,0,50.714,-22.959719,-67.786902,0.00,0.10,-0.40,1.10,0.70,98.00,0,1,0,100,88,-22400,14193,50714,2931.50,51,WP,1,0,0,0,0,0,0,1764515607413,4328,4328,4326,4326,4329,4318,18,,,,,,,0,0,0,-11.00,7.00,980.00,0.00,2.00,9.00,14,13.00,4.12,2.97,0.00,1.00,-4.00,0,,,100,100,20,2,0,0,1,1,0,,,,,0.0,0.0,0.0,0.0,0.0,0.0,0
-22.959717,-67.786902,1.30,0.00,0.62,0.31,1.30,1.30,0.71,0.31,1406,2025-11-30 15:13:27.518,2025-11-30 12:13:27.518,14,0,0,50.714,-22.959719,-67.786902,0.10,0.10,-0.60,1.60,1.40,98.00,0,1,0,100,88,-22400,14193,50714,2931.50,51,WP,1,0,0,0,0,0,0,1764515607518,4328,4328,4326,4326,4329,4318,18,,,,,,,0,0,0,-16.00,14.00,980.00,0.00,2.00,8.00,14,13.00,6.16,3.15,1.00,1.00,-6.00,0,,,100,100,20,2,0,0,1,1,0,,,,,0.0,0.0,0.0,0.0,0.0,0.0,0
-22.959717,-67.786902,1.40,0.00,0.90,0.33,1.40,1.40,0.90,0.33,1515,2025-11-30 15:13:27.627,2025-11-30 12:13:27.627,14,0,0,50.714,-22.959719,-67.786902,0.00,0.00,-0.90,1.50,1.70,97.90,0,1,0,100,88,-22400,14193,50714,2931.50,51,WP,1,0,0,0,0,0,0,1764515607627,4328,4328,4326,4326,4329,4318,18,,,,,,,0,0,0,-15.00,17.00,979.00,0.00,2.00,9.00,14,14.00,9.00,3.26,0.00,0.00,-9.00,0,,,100,100,20,2,0,0,1,1,0,,,,,0.0,0.0,0.0,0.0,0.0,0.0,0
-22.959716,-67.786902,1.50,0.00,1.20,0.34,1.50,1.50,1.20,0.34,1616,2025-11-30 15:13:27.728,2025-11-30 12:13:27.728,14,0,0,50.714,-22.959719,-67.786902,0.00,0.00,-1.20,0.70,1.30,97.70,0,1,0,100,88,-22400,14193,50714,2931.50,51,WP,1,0,0,0,0,0,0,1764515607728,4328,4328,4326,4326,4329,4318,18,,,,,,,0,0,0,-7.00,13.00,977.00,0.00,2.00,10.00,14,15.00,12.00,3.37,0.00,0.00,-12.00,0,,,100,100,20,2,0,0,1,1,0,,,,,0.0,0.0,0.0,0.0,0.0,0.0,0
-22.959716,-67.786902,1.70,0.00,1.50,0.34,1.70,1.70,1.50,0.34,1703,2025-11-30 15:13:27.816,2025-11-30 12:13:27.816,14,0,0,50.714,-22.959719,-67.786902,0.00,0.00,-1.50,0.00,0.30,97.60,0,1,0,100,88,-22400,14193,50714,2931.50,51,WP,1,0,0,0,0,0,0,1764515607815,4328,4328,4326,4326,4329,4318,18,,,,,,,0,0,0,-0.00,3.00,976.00,-1.00,2.00,12.00,14,17.00,15.00,3.42,0.00,0.00,-15.00,0,,,100,100,20,2,0,0,1,1,0,,,,,0.0,0.0,0.0,0.0,0.0,0.0,0
-22.959716,-67.786901,1.90,0.00,1.80,0.35,1.90,1.90,1.80,0.35,1813,2025-11-30 15:13:27.925,2025-11-30 12:13:27.926,14,0,0,50.714,-22.959719,-67.786902,0.00,0.00,-1.80,-0.70,-0.60,97.60,0,1,0,100,88,-22400,14193,50714,2931.50,51,WP,1,0,0,0,0,0,0,1764515607925,4328,4328,4326,4326,4329,4318,18,,,,,,,0,0,0,7.00,-6.00,976.00,0.00,2.00,13.00,14,19.00,18.00,3.51,0.00,0.00,-18.00,0,,,100,100,20,2,0,0,1,1,0,,,,,0.0,0.0,0.0,0.0,0.0,0.0,0
-22.959716,-67.786901,2.10,0.00,2.00,0.36,2.10,2.10,2.00,0.36,1915,2025-11-30 15:13:28.027,2025-11-30 12:13:28.027,14,0,0,50.714,-22.959719,-67.786902,0.00,0.10,-2.00,-0.80,-1.20,97.70,0,1,0,100,88,-22400,14193,50714,2931.50,51,WP,1,0,0,0,0,0,0,1764515608027,4328,4328,4326,4326,4329,4318,18,,,,,,,0,0,0,8.00,-12.00,977.00,0.00,2.00,12.00,14,21.00,20.02,3.60,0.00,1.00,-20.00,0,,,100,100,20,2,0,0,1,1,0,,,,,0.0,0.0,0.0,0.0,0.0,0.0,0
-22.959716,-67.786901,2.30,0.00,2.30,0.38,2.30,2.30,2.30,0.38,2012,2025-11-30 15:13:28.124,2025-11-30 12:13:28.124,14,0,0,50.714,-22.959719,-67.786902,0.10,0.10,-2.30,-0.50,-1.00,97.90,0,1,0,100,88,-22400,14193,50714,2931.50,51,WP,1,0,0,0,0,0,0,1764515608124,4328,4328,4326,4326,4329,4318,18,,,,,,,0,0,0,5.00,-10.00,979.00,0.00,2.00,11.00,14,23.00,23.04,3.81,1.00,1.00,-23.00,0,,,100,100,20,2,0,0,1,1,0,,,,,0.0,0.0,0.0,0.0,0.0,0.0,0
-22.959716,-67.786901,2.60,0.00,2.51,0.40,2.60,2.60,2.51,0.40,2115,2025-11-30 15:13:28.227,2025-11-30 12:13:28.227,14,0,0,50.714,-22.959719,-67.786902,0.10,0.20,-2.50,0.20,-0.20,98.00,0,1,0,100,88,-22400,14193,50714,2931.50,51,WP,1,0,0,0,0,0,0,1764515608227,4328,4328,4326,4326,4329,4318,18,,,,,,,0,0,0,-2.00,-2.00,980.00,0.00,2.00,10.00,14,26.00,25.10,4.05,1.00,2.00,-25.00,0,,,100,100,20,2,0,0,1,1,0,,,,,0.0,0.0,0.0,0.0,0.0,0.0,0
-22.959716,-67.786900,3.10,0.00,3.01,0.47,3.10,3.10,3.01,0.47,2311,2025-11-30 15:13:28.423,2025-11-30 12:13:28.423,14,0,0,50.714,-22.959719,-67.786902,0.10,0.20,-3.00,1.50,1.80,98.10,0,1,0,100,88,-22400,14193,50714,2931.50,51,WP,1,0,0,0,0,0,0,1764515608423,4328,4328,4326,4326,4329,4318,18,,,,,,,0,0,0,-15.00,18.00,981.00,0.00,2.00,8.00,14,31.00,30.08,4.69,1.00,2.00,-30.00,0,,,100,100,20,2,0,0,1,1,0,,,,,0.0,0.0,0.0,0.0,0.0,0.0,0
-22.959715,-67.786900,3.50,0.00,3.21,0.51,3.50,3.50,3.21,0.51,2413,2025-11-30 15:13:28.526,2025-11-30 12:13:28.526,14,0,0,50.714,-22.959719,-67.786902,0.10,0.20,-3.20,2.10,2.60,98.10,0,1,0,100,88,-22400,14193,50714,2931.50,51,WP,1,0,0,0,0,0,0,1764515608525,4328,4328,4326,4326,4329,4318,18,,,,,,,0,0,0,-21.00,26.00,981.00,0.00,2.00,8.00,14,35.00,32.08,5.05,1.00,2.00,-32.00,0,,,100,100,20,2,0,0,1,1,0,,,,,0.0,0.0,0.0,0.0,0.0,0.0,0
-22.959715,-67.786900,3.80,0.00,3.31,0.53,3.80,3.80,3.31,0.53,2512,2025-11-30 15:13:28.624,2025-11-30 12:13:28.624,14,0,0,50.714,-22.959719,-67.786902,0.10,0.20,-3.30,2.70,2.90,98.20,0,1,0,100,88,-22400,14193,50714,2931.50,51,WP,1,0,0,0,0,0,0,1764515608624,4328,4328,4326,4326,4329,4318,18,,,,,,,0,0,0,-27.00,29.00,982.00,0.00,2.00,7.00,14,38.00,33.08,5.34,1.00,2.00,-33.00,0,,,100,100,20,2,0,0,1,1,0,,,,,0.0,0.0,0.0,0.0,0.0,0.0,0
-22.959715,-67.786899,4.10,0.00,3.50,0.57,4.10,4.10,3.50,0.57,2610,2025-11-30 15:13:28.723,2025-11-30 12:13:28.723,14,0,0,50.714,-22.959719,-67.786902,0.10,0.10,-3.50,3.20,2.80,98.10,0,1,0,100,88,-22400,14193,50714,2931.50,51,WP,1,0,0,0,0,0,0,1764515608722,4328,4328,4326,4326,4329,4318,18,,,,,,,0,0,0,-32.00,28.00,981.00,0.00,2.00,7.00,14,41.00,35.03,5.65,1.00,1.00,-35.00,0,,,100,100,20,2,0,0,1,1,0,,,,,0.0,0.0,0.0,0.0,0.0,0.0,0
-22.959715,-67.786899,4.50,0.00,3.50,0.59,4.50,4.50,3.50,0.59,2713,2025-11-30 15:13:28.826,2025-11-30 12:13:28.826,14,0,0,46.432,-22.959719,-67.786902,0.00,0.10,-3.50,3.50,2.60,98.10,0,1,0,98,88,-49731,14003,46432,2931.50,51,WP,1,0,0,0,0,0,0,1764515608825,4328,4328,4326,4326,4329,4318,18,,,,,,,0,0,0,-35.00,26.00,981.00,0.00,2.00,7.00,14,45.00,35.01,5.86,0.00,1.00,-35.00,0,,,100,100,20,2,0,0,1,1,0,,,,,0.0,0.0,0.0,0.0,0.0,0.0,0
-22.959715,-67.786899,4.80,0.00,3.50,0.61,4.80,4.80,3.50,0.61,2813,2025-11-30 15:13:28.925,2025-11-30 12:13:28.925,14,0,0,46.432,-22.959719,-67.786902,0.00,0.10,-3.50,3.40,2.10,98.10,0,1,0,98,88,-49731,14003,46432,2931.50,51,WP,1,0,0,0,0,0,0,1764515608925,4328,4328,4326,4326,4329,4318,18,,,,,,,0,0,0,-34.00,21.00,981.00,0.00,2.00,7.00,14,48.00,35.01,6.08,0.00,1.00,-35.00,0,,,100,100,20,2,0,0,1,1,0,,,,,0.0,0.0,0.0,0.0,0.0,0.0,0
-22.959715,-67.786899,5.20,0.00,3.50,0.62,5.20,5.20,3.50,0.62,2915,2025-11-30 15:13:29.027,2025-11-30 12:13:29.027,14,0,0,46.432,-22.959719,-67.786902,0.00,0.00,-3.50,3.20,1.90,98.10,0,1,0,98,88,-49731,14003,46432,2931.50,51,WP,1,0,0,0,0,0,0,1764515609027,4328,4328,4326,4326,4329,4318,18,,,,,,,0,0,0,-32.00,19.00,981.00,0.00,2.00,7.00,14,52.00,35.00,6.18,0.00,0.00,-35.00,0,,,100,100,20,2,0,0,1,1,0,,,,,0.0,0.0,0.0,0.0,0.0,0.0,0
-22.959715,-67.786899,5.50,0.00,3.50,0.62,5.50,5.50,3.50,0.62,3016,2025-11-30 15:13:29.129,2025-11-30 12:13:29.129,14,0,0,46.432,-22.959719,-67.786902,0.00,0.00,-3.50,2.80,1.60,98.10,0,1,0,98,88,-49731,14003,46432,2931.50,51,WP,1,0,0,0,0,0,0,1764515609128,4328,4328,4326,4326,4329,4318,18,,,,,,,0,0,0,-28.00,16.00,981.00,0.00,2.00,7.00,14,55.00,35.00,6.23,0.00,0.00,-35.00,0,,,100,100,20,2,0,0,1,1,0,,,,,0.0,0.0,0.0,0.0,0.0,0.0,0
-22.959715,-67.786899,5.90,0.00,3.50,0.62,5.90,5.90,3.50,0.62,3117,2025-11-30 15:13:29.229,2025-11-30 12:13:29.230,14,0,0,46.432,-22.959719,-67.786902,0.00,0.00,-3.50,2.30,1.60,98.10,0,1,0,98,88,-49731,14003,46432,2931.50,51,WP,1,0,0,0,0,0,0,1764515609229,4328,4328,4326,4326,4329,4318,18,,,,,,,0,0,0,-23.00,16.00,981.00,0.00,2.00,8.00,14,59.00,35.00,6.21,0.00,0.00,-35.00,0,,,100,100,20,2,0,0,1,1,0,,,,,0.0,0.0,0.0,0.0,0.0,0.0,0
-22.959715,-67.786898,6.50,0.00,3.30,0.61,6.50,6.50,3.50,0.62,3317,2025-11-30 15:13:29.430,2025-11-30 12:13:29.430,14,0,0,46.432,-22.959719,-67.786902,0.00,0.00,-3.30,2.00,1.80,98.10,0,1,0,98,88,-49731,14003,46432,2931.50,51,WP,1,0,0,0,0,0,0,1764515609429,4328,4328,4326,4326,4329,4318,18,,,,,,,0,0,0,-20.00,18.00,981.00,0.00,2.00,8.00,14,65.00,33.00,6.14,0.00,0.00,-33.00,0,,,100,100,20,2,0,0,1,1,0,,,,,0.0,0.0,0.0,0.0,0.0,0.0,0
-22.959715,-67.786898,6.80,0.00,3.20,0.61,6.80,6.80,3.50,0.62,3419,2025-11-30 15:13:29.532,2025-11-30 12:13:29.532,14,0,0,46.432,-22.959719,-67.786902,0.00,0.00,-3.20,2.20,1.90,98.10,0,1,0,98,88,-49731,14003,46432,2931.50,51,WP,1,0,0,0,0,0,0,1764515609531,4328,4328,4326,4326,4329,4318,18,,,,,,,0,0,0,-22.00,19.00,981.00,0.00,2.00,8.00,14,68.00,32.00,6.09,0.00,0.00,-32.00,0,,,100,100,20,2,0,0,1,1,0,,,,,0.0,0.0,0.0,0.0,0.0,0.0,0
-22.959715,-67.786898,7.20,0.00,3.20,0.60,7.20,7.20,3.50,0.62,3516,2025-11-30 15:13:29.629,2025-11-30 12:13:29.629,14,0,0,46.432,-22.959719,-67.786902,0.00,0.00,-3.20,2.40,1.90,98.00,0,1,0,98,88,-49731,14003,46432,2931.50,51,WP,1,0,0,0,0,0,0,1764515609628,4328,4328,4326,4326,4329,4318,18,,,,,,,0,0,0,-24.00,19.00,980.00,0.00,2.00,8.00,14,72.00,32.00,6.01,0.00,0.00,-32.00,0,,,100,100,20,2,0,0,1,1,0,,,,,0.0,0.0,0.0,0.0,0.0,0.0,0
-22.959715,-67.786898,7.50,0.00,3.10,0.59,7.50,7.50,3.50,0.62,3628,2025-11-30 15:13:29.741,2025-11-30 12:13:29.741,14,0,0,46.432,-22.959719,-67.786902,0.00,0.00,-3.10,2.50,1.70,98.00,0,1,0,98,88,-49731,14003,46432,2931.50,51,WP,1,0,0,0,0,0,0,1764515609740,4328,4328,4326,4326,4329,4318,18,,,,,,,0,0,0,-25.00,17.00,980.00,0.00,2.00,8.00,14,75.00,31.00,5.91,0.00,0.00,-31.00,0,,,100,100,20,2,0,0,1,1,0,,,,,0.0,0.0,0.0,0.0,0.0,0.0,0
-22.959716,-67.786899,7.80,0.00,3.10,0.58,7.80,7.80,3.50,0.62,3722,2025-11-30 15:13:29.835,2025-11-30 12:13:29.835,14,0,0,46.432,-22.959719,-67.786902,0.00,0.00,-3.10,2.40,1.50,98.00,0,1,0,98,88,-49731,14003,46432,2931.50,51,WP,1,0,0,0,0,0,0,1764515609834,4328,4328,4326,4326,4329,4318,18,,,,,,,0,0,0,-24.00,15.00,980.00,0.00,2.00,8.00,14,78.00,31.00,5.79,0.00,0.00,-31.00,0,,,100,100,20,2,0,0,1,1,0,,,,,0.0,0.0,0.0,0.0,0.0,0.0,0
-22.959716,-67.786899,8.10,0.00,3.10,0.57,8.10,8.10,3.50,0.62,3828,2025-11-30 15:13:29.941,2025-11-30 12:13:29.941,14,0,0,46.432,-22.959719,-67.786902,0.00,0.00,-3.10,2.30,1.30,98.00,0,1,0,98,88,-49731,14003,46432,2931.50,51,WP,1,0,0,0,0,0,0,1764515609940,4328,4328,4326,4326,4329,4318,18,,,,,,,0,0,0,-23.00,13.00,980.00,0.00,2.00,8.00,14,81.00,31.00,5.71,0.00,0.00,-31.00,0,,,100,100,20,2,0,0,1,1,0,,,,,0.0,0.0,0.0,0.0,0.0,0.0,0
-22.959716,-67.786899,8.40,0.00,3.10,0.56,8.40,8.40,3.50,0.62,3927,2025-11-30 15:13:30.039,2025-11-30 12:13:30.039,14,0,0,46.432,-22.959719,-67.786902,0.00,0.00,-3.10,2.10,1.00,98.00,0,1,0,98,88,-49731,14003,46432,2931.50,51,WP,1,0,0,0,0,0,0,1764515610039,4328,4328,4326,4326,4329,4318,18,,,,,,,0,0,0,-21.00,10.00,980.00,0.00,2.00,9.00,14,84.00,31.00,5.62,0.00,0.00,-31.00,0,,,100,100,20,2,0,0,1,1,0,,,,,0.0,0.0,0.0,0.0,0.0,0.0,0
-22.959716,-67.786899,8.80,0.00,3.10,0.55,8.80,8.80,3.50,0.62,4030,2025-11-30 15:13:30.143,2025-11-30 12:13:30.143,14,0,0,46.432,-22.959719,-67.786902,0.00,0.00,-3.10,1.90,0.70,98.00,0,1,0,98,88,-49731,14003,46432,2931.50,51,WP,1,0,0,0,0,0,0,1764515610142,4328,4328,4326,4326,4329,4318,18,,,,,,,0,0,0,-19.00,7.00,980.00,0.00,2.00,9.00,14,88.00,31.00,5.54,0.00,0.00,-31.00,0,,,100,100,20,2,0,0,1,1,0,,,,,0.0,0.0,0.0,0.0,0.0,0.0,0
-22.959716,-67.786899,9.10,0.00,3.10,0.54,9.10,9.10,3.50,0.62,4128,2025-11-30 15:13:30.240,2025-11-30 12:13:30.240,14,0,0,46.432,-22.959719,-67.786902,0.00,0.00,-3.10,1.80,0.70,98.00,0,1,0,98,88,-49731,14003,46432,2931.50,51,WP,1,0,0,0,0,0,0,1764515610240,4328,4328,4326,4326,4329,4318,18,,,,,,,0,0,0,-18.00,7.00,980.00,0.00,2.00,9.00,14,91.00,31.00,5.41,0.00,0.00,-31.00,0,,,100,100,20,2,0,0,1,1,0,,,,,0.0,0.0,0.0,0.0,0.0,0.0,0
-22.959716,-67.786899,9.70,0.00,3.10,0.52,9.70,9.70,3.50,0.62,4328,2025-11-30 15:13:30.440,2025-11-30 12:13:30.441,14,0,0,46.432,-22.959719,-67.786902,0.00,0.00,-3.10,1.80,0.90,98.00,0,1,0,98,88,-49731,14003,46432,2931.50,51,WP,1,0,0,0,0,0,0,1764515610440,4328,4328,4326,4326,4329,4318,18,,,,,,,0,0,0,-18.00,9.00,980.00,0.00,2.00,9.00,14,97.00,31.00,5.23,0.00,0.00,-31.00,0,,,100,100,20,2,0,0,1,1,0,,,,,0.0,0.0,0.0,0.0,0.0,0.0,0
-22.959716,-67.786899,10.00,0.00,3.10,0.52,10.00,10.00,3.50,0.62,4431,2025-11-30 15:13:30.544,2025-11-30 12:13:30.544,14,0,0,46.432,-22.959719,-67.786902,0.00,0.00,-3.10,1.90,1.10,98.00,0,1,0,98,88,-49731,14003,46432,2931.50,51,WP,1,0,0,0,0,0,0,1764515610543,4328,4328,4326,4326,4329,4318,18,,,,,,,0,0,0,-19.00,11.00,980.00,0.00,2.00,9.00,14,100.00,31.00,5.19,0.00,0.00,-31.00,0,,,100,100,20,2,0,0,1,1,0,,,,,0.0,0.0,0.0,0.0,0.0,0.0,0
-22.959716,-67.786899,10.70,0.00,3.10,0.50,10.70,10.70,3.50,0.62,4627,2025-11-30 15:13:30.740,2025-11-30 12:13:30.740,14,0,0,46.432,-22.959719,-67.786902,0.00,-0.10,-3.10,2.00,1.50,98.00,0,1,0,98,88,-49731,14003,46432,2931.50,51,WP,1,0,0,0,0,0,0,1764515610739,4328,4328,4326,4326,4329,4318,18,,,,,,,0,0,0,-20.00,15.00,980.00,0.00,2.00,8.00,14,107.00,31.02,5.04,0.00,-1.00,-31.00,0,,,100,100,20,2,0,0,1,1,0,,,,,0.0,0.0,0.0,0.0,0.0,0.0,0
-22.959716,-67.786899,11.00,0.00,3.10,0.49,11.00,11.00,3.50,0.62,4726,2025-11-30 15:13:30.839,2025-11-30 12:13:30.839,14,0,0,46.432,-22.959719,-67.786902,0.00,-0.10,-3.10,2.00,1.60,98.00,0,1,0,98,88,-49731,14003,46432,2931.50,51,WP,1,0,0,0,0,0,0,1764515610838,4328,4328,4326,4326,4329,4318,18,,,,,,,0,0,0,-20.00,16.00,980.00,0.00,2.00,8.00,14,110.00,31.02,4.92,0.00,-1.00,-31.00,0,,,100,100,20,2,0,0,1,1,0,,,,,0.0,0.0,0.0,0.0,0.0,0.0,0
-22.959716,-67.786899,11.30,0.00,3.10,0.48,11.30,11.30,3.50,0.62,4828,2025-11-30 15:13:30.941,2025-11-30 12:13:30.941,14,0,0,46.432,-22.959719,-67.786902,0.00,-0.10,-3.10,2.00,1.40,98.00,0,1,0,98,88,-49731,14003,46432,2931.50,51,WP,1,0,0,0,0,0,0,1764515610940,4328,4328,4326,4326,4329,4318,18,,,,,,,0,0,0,-20.00,14.00,980.00,0.00,2.00,8.00,14,113.00,31.02,4.81,0.00,-1.00,-31.00,0,,,100,100,20,2,0,0,1,1,0,,,,,0.0,0.0,0.0,0.0,0.0,0.0,0
-22.959716,-67.786899,11.60,0.00,3.10,0.47,11.60,11.60,3.50,0.62,4930,2025-11-30 15:13:31.043,2025-11-30 12:13:31.043,14,0,0,46.432,-22.959719,-67.786902,0.00,-0.10,-3.10,1.90,1.30,98.00,0,1,0,98,88,-49731,14003,46432,2931.50,51,WP,1,0,0,0,0,0,0,1764515611042,4328,4328,4326,4326,4329,4318,18,,,,,,,0,0,0,-19.00,13.00,980.00,0.00,2.00,9.00,14,116.00,31.02,4.66,0.00,-1.00,-31.00,0,,,100,100,20,2,0,0,1,1,0,,,,,0.0,0.0,0.0,0.0,0.0,0.0,0
-22.959716,-67.786900,12.00,0.00,3.10,0.45,12.00,12.00,3.50,0.62,5031,2025-11-30 15:13:31.143,2025-11-30 12:13:31.144,14,0,0,46.432,-22.959719,-67.786902,0.00,-0.10,-3.10,1.70,1.10,98.00,0,1,0,98,88,-49731,14003,46432,2931.50,51,WP,1,0,0,0,0,0,0,1764515611143,4328,4328,4326,4326,4329,4318,18,,,,,,,0,0,0,-17.00,11.00,980.00,0.00,2.00,9.00,14,120.00,31.02,4.48,0.00,-1.00,-31.00,0,,,100,96,20,2,0,0,1,1,0,,,,,0.0,0.0,0.0,0.0,0.0,0.0,0
-22.959716,-67.786900,12.30,0.00,3.10,0.43,12.30,12.30,3.50,0.62,5129,2025-11-30 15:13:31.242,2025-11-30 12:13:31.242,14,0,0,46.432,-22.959719,-67.786902,0.00,-0.10,-3.10,1.50,1.10,98.00,0,1,0,98,88,-49731,14003,46432,2931.50,51,WP,1,0,0,0,0,0,0,1764515611241,4328,4328,4326,4326,4329,4318,18,,,,,,,0,0,0,-15.00,11.00,980.00,0.00,2.00,9.00,14,123.00,31.02,4.28,0.00,-1.00,-31.00,0,,,100,96,20,2,0,0,1,1,0,,,,,0.0,0.0,0.0,0.0,0.0,0.0,0
-22.959717,-67.786900,12.90,0.00,3.01,0.38,12.90,12.90,3.50,0.62,5332,2025-11-30 15:13:31.444,2025-11-30 12:13:31.444,14,0,0,46.432,-22.959719,-67.786902,-0.10,-0.20,-3.00,0.90,1.10,97.90,0,1,0,98,88,-49731,14003,46432,2931.50,51,WP,1,0,0,0,0,0,0,1764515611444,4328,4328,4326,4326,4329,4318,18,,,,,,,0,0,0,-9.00,11.00,979.00,0.00,2.00,9.00,14,129.00,30.08,3.82,-1.00,-2.00,-30.00,0,,,100,96,20,2,0,0,1,1,0,,,,,0.0,0.0,0.0,0.0,0.0,0.0,0
-22.959717,-67.786901,13.20,0.00,3.01,0.36,13.20,13.20,3.50,0.62,5434,2025-11-30 15:13:31.547,2025-11-30 12:13:31.547,14,0,0,46.432,-22.959719,-67.786902,-0.10,-0.20,-3.00,0.70,0.90,97.90,0,1,0,98,88,-49731,14003,46432,2931.50,51,WP,1,0,0,0,0,0,0,1764515611546,4328,4328,4326,4326,4329,4318,18,,,,,,,0,0,0,-7.00,9.00,979.00,0.00,2.00,9.00,14,132.00,30.08,3.57,-1.00,-2.00,-30.00,0,,,100,96,20,2,0,0,1,1,0,,,,,0.0,0.0,0.0,0.0,0.0,0.0,0
-22.959717,-67.786901,13.50,0.00,3.01,0.33,13.50,13.50,3.50,0.62,5532,2025-11-30 15:13:31.644,2025-11-30 12:13:31.644,14,0,0,46.432,-22.959719,-67.786902,-0.10,-0.20,-3.00,0.60,0.80,97.90,0,1,0,98,88,-49731,14003,46432,2931.50,51,WP,1,0,0,0,0,0,0,1764515611644,4328,4328,4326,4326,4329,4318,18,,,,,,,0,0,0,-6.00,8.00,979.00,0.00,2.00,9.00,14,135.00,30.08,3.35,-1.00,-2.00,-30.00,0,,,100,94,20,2,0,0,1,1,0,,,,,0.0,0.0,0.0,0.0,0.0,0.0,0
-22.959717,-67.786901,13.80,0.00,2.90,0.31,13.80,13.80,3.50,0.62,5634,2025-11-30 15:13:31.746,2025-11-30 12:13:31.746,14,0,0,46.432,-22.959719,-67.786902,-0.10,-0.10,-2.90,0.50,0.70,97.90,0,1,0,98,88,-49731,14003,46432,2931.50,51,WP,1,0,0,0,0,0,0,1764515611746,4328,4328,4326,4326,4329,4318,18,,,,,,,0,0,0,-5.00,7.00,979.00,0.00,2.00,9.00,14,138.00,29.03,3.12,-1.00,-1.00,-29.00,0,,,100,94,20,2,0,0,1,1,0,,,,,0.0,0.0,0.0,0.0,0.0,0.0,0
-22.959717,-67.786901,14.10,0.00,3.00,0.29,14.10,14.10,3.50,0.62,5738,2025-11-30 15:13:31.851,2025-11-30 12:13:31.851,14,0,0,46.432,-22.959719,-67.786902,-0.10,-0.10,-3.00,0.40,0.60,97.90,0,1,0,98,88,-49731,14003,46432,2931.50,51,WP,1,0,0,0,0,0,0,1764515611850,4328,4328,4326,4326,4329,4318,18,,,,,,,0,0,0,-4.00,6.00,979.00,0.00,2.00,10.00,14,141.00,30.03,2.92,-1.00,-1.00,-30.00,0,,,100,94,20,2,0,0,1,1,0,,,,,0.0,0.0,0.0,0.0,0.0,0.0,0
-22.959717,-67.786901,14.40,0.00,3.00,0.27,14.40,14.40,3.50,0.62,5846,2025-11-30 15:13:31.958,2025-11-30 12:13:31.958,14,0,0,46.432,-22.959719,-67.786902,-0.10,-0.10,-3.00,0.50,0.50,97.90,0,1,0,98,88,-49731,14003,46432,2931.50,51,WP,1,0,0,0,0,0,0,1764515611958,4328,4328,4326,4326,4329,4318,18,,,,,,,0,0,0,-5.00,5.00,979.00,0.00,2.00,10.00,14,144.00,30.03,2.74,-1.00,-1.00,-30.00,0,,,100,94,20,2,0,0,1,1,0,,,,,0.0,0.0,0.0,0.0,0.0,0.0,0
-22.959717,-67.786902,14.70,0.00,3.00,0.26,14.70,14.70,3.50,0.62,5935,2025-11-30 15:13:32.048,2025-11-30 12:13:32.048,14,0,0,46.432,-22.959719,-67.786902,-0.10,-0.10,-3.00,0.40,0.50,97.90,0,1,0,98,88,-49731,14003,46432,2931.50,51,WP,1,0,0,0,0,0,0,1764515612047,4328,4328,4326,4326,4329,4318,18,,,,,,,0,0,0,-4.00,5.00,979.00,0.00,2.00,9.00,14,147.00,30.03,2.57,-1.00,-1.00,-30.00,0,,,100,94,20,2,0,0,1,1,0,,,,,0.0,0.0,0.0,0.0,0.0,0.0,0
-22.959717,-67.786902,15.00,0.00,3.00,0.24,15.00,15.00,3.50,0.62,6036,2025-11-30 15:13:32.148,2025-11-30 12:13:32.148,14,0,0,46.432,-22.959719,-67.786902,-0.10,-0.10,-3.00,0.20,0.50,98.00,0,1,0,98,88,-49731,14003,46432,2931.50,51,WP,1,0,0,0,0,0,0,1764515612148,4328,4328,4326,4326,4329,4318,18,,,,,,,0,0,0,-2.00,5.00,980.00,0.00,2.00,9.00,14,150.00,30.03,2.41,-1.00,-1.00,-30.00,0,,,100,95,20,2,0,0,1,1,0,,,,,0.0,0.0,0.0,0.0,0.0,0.0,0
-22.959717,-67.786902,15.30,0.00,3.00,0.23,15.30,15.30,3.50,0.62,6145,2025-11-30 15:13:32.258,2025-11-30 12:13:32.258,14,0,0,46.432,-22.959719,-67.786902,-0.10,-0.10,-3.00,0.20,0.50,98.10,0,1,0,98,88,-49731,14003,46432,2931.50,51,WP,1,0,0,0,0,0,0,1764515612257,4328,4328,4326,4326,4329,4318,18,,,,,,,0,0,0,-2.00,5.00,981.00,0.00,2.00,8.00,14,153.00,30.03,2.27,-1.00,-1.00,-30.00,0,,,100,95,20,2,0,0,1,1,0,,,,,0.0,0.0,0.0,0.0,0.0,0.0,0
-22.959718,-67.786902,15.90,0.00,2.90,0.20,15.90,15.90,3.50,0.62,6346,2025-11-30 15:13:32.458,2025-11-30 12:13:32.458,14,0,0,46.432,-22.959719,-67.786902,-0.10,-0.10,-2.90,0.40,0.20,98.10,0,1,0,98,88,-49731,14003,46432,2931.50,51,WP,1,0,0,0,0,0,0,1764515612458,4328,4328,4326,4326,4329,4318,18,,,,,,,0,0,0,-4.00,2.00,981.00,0.00,2.00,8.00,14,159.00,29.03,2.01,-1.00,-1.00,-29.00,0,,,100,95,20,2,0,0,1,1,0,,,,,0.0,0.0,0.0,0.0,0.0,0.0,0
-22.959718,-67.786902,16.20,0.00,2.90,0.19,16.20,16.20,3.50,0.62,6448,2025-11-30 15:13:32.560,2025-11-30 12:13:32.560,14,0,0,46.432,-22.959719,-67.786902,-0.10,-0.10,-2.90,0.80,0.10,98.10,0,1,0,98,88,-49731,14003,46432,2931.50,51,WP,1,0,0,0,0,0,0,1764515612560,4328,4328,4326,4326,4329,4318,18,,,,,,,0,0,0,-8.00,1.00,981.00,0.00,2.00,7.00,14,162.00,29.03,1.89,-1.00,-1.00,-29.00,0,,,100,95,20,2,0,0,1,1,0,,,,,0.0,0.0,0.0,0.0,0.0,0.0,0
-22.959718,-67.786902,16.50,0.00,2.80,0.18,16.50,16.50,3.50,0.62,6542,2025-11-30 15:13:32.655,2025-11-30 12:13:32.655,14,0,0,46.432,-22.959719,-67.786902,0.00,-0.10,-2.80,1.00,0.10,98.00,0,1,0,98,88,-49731,14003,46432,2931.50,51,WP,1,0,0,0,0,0,0,1764515612654,4328,4328,4326,4326,4329,4318,18,,,,,,,0,0,0,-10.00,1.00,980.00,0.00,2.00,8.00,14,165.00,28.02,1.78,0.00,-1.00,-28.00,0,,,100,95,20,2,0,0,1,1,0,,,,,0.0,0.0,0.0,0.0,0.0,0.0,0
-22.959718,-67.786903,16.80,0.00,2.60,0.17,16.80,16.80,3.50,0.62,6644,2025-11-30 15:13:32.756,2025-11-30 12:13:32.756,14,0,0,46.432,-22.959719,-67.786902,0.00,-0.10,-2.60,1.20,0.10,98.00,0,1,0,98,88,-49731,14003,46432,2931.50,51,WP,1,0,0,0,0,0,0,1764515612756,4328,4328,4326,4326,4329,4318,18,,,,,,,0,0,0,-12.00,1.00,980.00,0.00,2.00,8.00,14,168.00,26.02,1.71,0.00,-1.00,-26.00,0,,,100,95,20,2,0,0,1,1,0,,,,,0.0,0.0,0.0,0.0,0.0,0.0,0
-22.959718,-67.786903,17.10,0.00,2.40,0.17,17.10,17.10,3.50,0.62,6743,2025-11-30 15:13:32.855,2025-11-30 12:13:32.856,14,0,0,44.979,-22.959719,-67.786902,0.00,-0.10,-2.40,1.30,0.20,98.00,0,1,0,97,88,-59517,13908,44979,2931.50,51,WP,1,0,0,0,0,0,0,1764515612855,4328,4328,4326,4326,4329,4318,18,,,,,,,0,0,0,-13.00,2.00,980.00,0.00,2.00,9.00,14,171.00,24.02,1.66,0.00,-1.00,-24.00,0,,,100,95,20,2,0,0,1,1,0,,,,,0.0,0.0,0.0,0.0,0.0,0.0,0
-22.959718,-67.786903,17.30,0.00,2.20,0.17,17.30,17.30,3.50,0.62,6844,2025-11-30 15:13:32.956,2025-11-30 12:13:32.956,14,0,0,44.979,-22.959719,-67.786902,0.00,-0.10,-2.20,1.20,0.20,97.90,0,1,0,97,88,-59517,13908,44979,2931.50,51,WP,1,0,0,0,0,0,0,1764515612956,4328,4328,4326,4326,4329,4318,18,,,,,,,0,0,0,-12.00,2.00,979.00,0.00,2.00,9.00,14,173.00,22.02,1.68,0.00,-1.00,-22.00,0,,,100,95,20,2,0,0,1,1,0,,,,,0.0,0.0,0.0,0.0,0.0,0.0,0
-22.959718,-67.786903,17.50,0.00,2.00,0.17,17.50,17.50,3.50,0.62,6848,2025-11-30 15:13:32.960,2025-11-30 12:13:32.960,14,0,0,44.979,-22.959719,-67.786902,0.00,-0.10,-2.00,1.00,0.10,97.90,0,1,0,97,88,-59517,13908,44979,2931.50,51,WP,1,0,0,0,0,0,0,1764515612960,4328,4328,4326,4326,4329,4318,18,,,,,,,0,0,0,-10.00,1.00,979.00,0.00,2.00,9.00,14,175.00,20.02,1.72,0.00,-1.00,-20.00,0,,,100,95,20,2,0,0,1,1,0,,,,,0.0,0.0,0.0,0.0,0.0,0.0,0
-22.959718,-67.786903,17.70,0.00,1.80,0.18,17.70,17.70,3.50,0.62,7047,2025-11-30 15:13:33.160,2025-11-30 12:13:33.160,14,0,0,44.979,-22.959719,-67.786902,0.00,-0.10,-1.80,0.70,0.10,97.90,0,1,0,97,88,-59517,13908,44979,2931.50,51,WP,1,0,0,0,0,0,0,1764515613159,3742,3744,3751,3750,3738,3712,18,,,,,,,0,0,0,-7.00,1.00,979.00,0.00,2.00,10.00,14,177.00,18.03,1.81,0.00,-1.00,-18.00,0,,,100,97,20,2,0,0,1,1,0,,,,,0.0,0.0,0.0,0.0,0.0,0.0,0
-22.959718,-67.786903,17.90,0.00,1.60,0.19,17.90,17.90,3.50,0.62,7146,2025-11-30 15:13:33.259,2025-11-30 12:13:33.259,14,0,0,44.979,-22.959719,-67.786902,0.00,-0.10,-1.60,0.50,0.00,97.90,0,1,0,97,88,-59517,13908,44979,2931.50,51,WP,1,0,0,0,0,0,0,1764515613258,3742,3744,3751,3750,3738,3712,18,,,,,,,0,0,0,-5.00,0.00,979.00,-1.00,2.00,9.00,14,179.00,16.03,1.85,0.00,-1.00,-16.00,0,,,100,97,20,2,0,0,1,1,0,,,,,0.0,0.0,0.0,0.0,0.0,0.0,0
-22.959718,-67.786904,18.20,0.00,1.30,0.20,18.20,18.20,3.50,0.62,7249,2025-11-30 15:13:33.361,2025-11-30 12:13:33.361,14,0,0,44.979,-22.959719,-67.786902,0.00,0.00,-1.30,0.40,0.00,98.00,0,1,0,97,88,-59517,13908,44979,2931.50,51,WP,1,0,0,0,0,0,0,1764515613361,3742,3744,3751,3750,3738,3712,18,,,,,,,0,0,0,-4.00,0.00,980.00,-1.00,2.00,9.00,14,182.00,13.00,2.00,0.00,0.00,-13.00,0,,,100,97,20,2,0,0,1,1,0,,,,,0.0,0.0,0.0,0.0,0.0,0.0,0
-22.959718,-67.786904,18.30,0.00,1.20,0.21,18.30,18.30,3.50,0.62,7349,2025-11-30 15:13:33.461,2025-11-30 12:13:33.461,14,0,0,44.979,-22.959719,-67.786902,0.00,0.00,-1.20,0.40,0.00,98.00,0,1,0,97,88,-59517,13908,44979,2931.50,51,WP,1,0,0,0,0,0,0,1764515613461,3742,3744,3751,3750,3738,3712,18,,,,,,,0,0,0,-4.00,0.00,980.00,0.00,2.00,9.00,14,183.00,12.00,2.10,0.00,0.00,-12.00,0,,,100,97,20,2,0,0,1,1,0,,,,,0.0,0.0,0.0,0.0,0.0,0.0,0
-22.959718,-67.786904,18.40,0.00,1.10,0.22,18.40,18.40,3.50,0.62,7447,2025-11-30 15:13:33.560,2025-11-30 12:13:33.560,14,0,0,44.979,-22.959719,-67.786902,0.00,0.00,-1.10,0.30,-0.10,98.00,0,1,0,97,88,-59517,13908,44979,2931.50,51,WP,1,0,0,0,0,0,0,1764515613559,3742,3744,3751,3750,3738,3712,18,,,,,,,0,0,0,-3.00,-1.00,980.00,0.00,2.00,9.00,14,184.00,11.00,2.17,0.00,0.00,-11.00,0,,,100,98,20,2,0,0,1,1,0,,,,,0.0,0.0,0.0,0.0,0.0,0.0,0
-22.959718,-67.786904,18.50,0.00,1.10,0.23,18.50,18.50,3.50,0.62,7549,2025-11-30 15:13:33.662,2025-11-30 12:13:33.662,14,0,0,44.979,-22.959719,-67.786902,0.00,0.00,-1.10,0.20,-0.10,98.00,0,1,0,97,88,-59517,13908,44979,2931.50,51,WP,1,0,0,0,0,0,0,1764515613661,3742,3744,3751,3750,3738,3712,18,,,,,,,0,0,0,-2.00,-1.00,980.00,0.00,2.00,9.00,14,185.00,11.00,2.28,0.00,0.00,-11.00,0,,,100,98,20,2,0,0,1,1,0,,,,,0.0,0.0,0.0,0.0,0.0,0.0,0
-22.959718,-67.786904,18.70,0.00,1.00,0.24,18.70,18.70,3.50,0.62,7749,2025-11-30 15:13:33.862,2025-11-30 12:13:33.862,14,0,0,44.979,-22.959719,-67.786902,0.00,0.00,-1.00,0.10,0.10,98.00,0,1,0,97,88,-59517,13908,44979,2931.50,51,WP,1,0,0,0,0,0,0,1764515613861,3742,3744,3751,3750,3738,3712,18,,,,,,,0,0,0,-1.00,1.00,980.00,-1.00,2.00,8.00,14,187.00,10.00,2.36,0.00,0.00,-10.00,0,,,100,98,20,2,0,0,1,1,0,,,,,0.0,0.0,0.0,0.0,0.0,0.0,0
-22.959718,-67.786904,18.80,0.00,1.00,0.25,18.80,18.80,3.50,0.62,7762,2025-11-30 15:13:33.875,2025-11-30 12:13:33.875,14,0,0,44.979,-22.959719,-67.786902,0.00,0.00,-1.00,0.10,0.40,98.10,0,1,0,97,88,-59517,13908,44979,2931.50,51,WP,1,0,0,0,0,0,0,1764515613874,3742,3744,3751,3750,3738,3712,18,,,,,,,0,0,0,-1.00,4.00,981.00,0.00,2.00,8.00,14,188.00,10.00,2.50,0.00,0.00,-10.00,0,,,100,98,20,2,0,0,1,1,0,,,,,0.0,0.0,0.0,0.0,0.0,0.0,0
-22.959717,-67.786904,18.90,0.00,1.10,0.26,18.90,18.90,3.50,0.62,7850,2025-11-30 15:13:33.962,2025-11-30 12:13:33.962,14,0,0,44.979,-22.959719,-67.786902,0.00,0.00,-1.10,0.10,0.70,98.10,0,1,0,97,88,-59517,13908,44979,2931.50,51,WP,1,0,0,0,0,0,0,1764515613962,3742,3744,3751,3750,3738,3712,18,,,,,,,0,0,0,-1.00,7.00,981.00,0.00,2.00,8.00,14,189.00,11.00,2.63,0.00,0.00,-11.00,0,,,100,98,20,2,0,0,1,1,0,,,,,0.0,0.0,0.0,0.0,0.0,0.0,0
-22.959717,-67.786903,19.10,0.00,1.10,0.28,19.10,19.10,3.50,0.62,7952,2025-11-30 15:13:34.065,2025-11-30 12:13:34.065,14,0,0,44.979,-22.959719,-67.786902,0.10,0.00,-1.10,0.10,0.90,98.10,0,1,0,97,88,-59517,13908,44979,2931.50,51,WP,1,0,0,0,0,0,0,1764515614064,3742,3744,3751,3750,3738,3712,18,,,,,,,0,0,0,-1.00,9.00,981.00,0.00,2.00,8.00,14,191.00,11.05,2.80,1.00,0.00,-11.00,0,,,100,100,20,2,0,0,1,1,0,,,,,0.0,0.0,0.0,0.0,0.0,0.0,0
-22.959717,-67.786903,19.20,0.00,1.10,0.30,19.20,19.20,3.50,0.62,8053,2025-11-30 15:13:34.166,2025-11-30 12:13:34.166,14,0,0,44.979,-22.959719,-67.786902,0.10,0.00,-1.10,0.10,0.90,98.00,0,1,0,97,88,-59517,13908,44979,2931.50,51,WP,1,0,0,0,0,0,0,1764515614165,3742,3744,3751,3750,3738,3712,18,,,,,,,0,0,0,-1.00,9.00,980.00,0.00,2.00,8.00,14,192.00,11.05,2.95,1.00,0.00,-11.00,0,,,100,100,20,2,0,0,1,1,0,,,,,0.0,0.0,0.0,0.0,0.0,0.0,0
-22.959717,-67.786903,19.50,0.00,1.11,0.33,19.50,19.50,3.50,0.62,8262,2025-11-30 15:13:34.375,2025-11-30 12:13:34.375,14,0,0,44.979,-22.959719,-67.786902,0.10,0.10,-1.10,0.50,1.70,98.00,0,1,0,97,88,-59517,13908,44979,2931.50,51,WP,1,0,0,0,0,0,0,1764515614374,3742,3744,3751,3750,3738,3712,18,,,,,,,0,0,0,-5.00,17.00,980.00,0.00,2.00,9.00,14,195.00,11.09,3.25,1.00,1.00,-11.00,0,,,100,100,20,2,0,0,1,1,0,,,,,0.0,0.0,0.0,0.0,0.0,0.0,0
-22.959717,-67.786903,19.60,0.00,1.01,0.34,19.60,19.60,3.50,0.62,8356,2025-11-30 15:13:34.469,2025-11-30 12:13:34.469,14,0,0,44.979,-22.959719,-67.786902,0.10,0.10,-1.00,0.80,2.20,98.00,0,1,0,97,88,-59517,13908,44979,2931.50,51,WP,1,0,0,0,0,0,0,1764515614468,3742,3744,3751,3750,3738,3712,18,,,,,,,0,0,0,-8.00,22.00,980.00,0.00,2.00,9.00,14,196.00,10.10,3.40,1.00,1.00,-10.00,0,,,100,100,20,2,0,0,1,1,0,,,,,0.0,0.0,0.0,0.0,0.0,0.0,0
-22.959716,-67.786903,19.70,0.00,1.01,0.35,19.70,19.70,3.50,0.62,8461,2025-11-30 15:13:34.574,2025-11-30 12:13:34.574,14,0,0,44.979,-22.959719,-67.786902,0.10,0.10,-1.00,1.30,2.50,98.20,0,1,0,97,88,-59517,13908,44979,2931.50,51,WP,1,0,0,0,0,0,0,1764515614573,3742,3744,3751,3750,3738,3712,18,,,,,,,0,0,0,-13.00,25.00,982.00,0.00,2.00,8.00,14,197.00,10.10,3.53,1.00,1.00,-10.00,0,,,100,98,20,2,0,0,1,1,0,,,,,0.0,0.0,0.0,0.0,0.0,0.0,0
-22.959716,-67.786903,19.80,0.00,0.81,0.37,19.80,19.80,3.50,0.62,8565,2025-11-30 15:13:34.677,2025-11-30 12:13:34.677,14,0,0,44.979,-22.959719,-67.786902,0.10,0.10,-0.80,1.60,2.30,101.40,0,1,0,97,88,-59517,13908,44979,2931.50,51,WP,1,0,0,0,0,0,0,1764515614677,3742,3744,3751,3750,3738,3712,18,,,,,,,0,0,0,-16.00,23.00,1014.00,0.00,2.00,0.00,14,198.00,8.12,3.68,1.00,1.00,-8.00,0,,,100,98,20,2,0,0,1,1,0,,,,,0.0,0.0,0.0,0.0,0.0,0.0,0
-22.959716,-67.786903,19.90,0.00,0.62,0.38,19.90,19.90,3.50,0.62,8665,2025-11-30 15:13:34.778,2025-11-30 12:13:34.778,14,0,0,44.979,-22.959719,-67.786902,0.10,0.10,-0.60,1.70,2.10,107.60,0,1,0,97,88,-59517,13908,44979,2931.50,51,WP,1,0,0,0,0,0,0,1764515614777,3742,3744,3751,3750,3738,3712,18,,,,,,,0,0,0,-17.00,21.00,1076.00,0.00,2.00,-44.00,14,199.00,6.16,3.83,1.00,1.00,-6.00,0,,,100,98,20,2,0,0,1,1,0,,,,,0.0,0.0,0.0,0.0,0.0,0.0,0
-22.959716,-67.786903,19.90,0.00,0.42,0.40,19.90,19.90,3.50,0.62,8765,2025-11-30 15:13:34.877,2025-11-30 12:13:34.878,14,0,0,44.979,-22.959719,-67.786902,0.10,0.10,-0.40,1.70,2.10,116.10,0,1,0,97,88,-59517,13908,44979,2931.50,51,WP,1,0,0,0,0,0,0,1764515614877,3742,3744,3751,3750,3738,3712,18,,,,,,,0,0,0,-17.00,21.00,1161.00,0.00,2.00,-110.00,14,199.00,4.24,4.03,1.00,1.00,-4.00,0,,,100,98,20,2,0,0,1,1,0,,,,,0.0,0.0,0.0,0.0,0.0,0.0,0
-22.959716,-67.786902,19.90,0.00,0.17,0.42,19.90,19.90,3.50,0.62,8860,2025-11-30 15:13:34.973,2025-11-30 12:13:34.973,14,0,0,44.979,-22.959719,-67.786902,0.10,0.10,-0.10,1.50,2.60,125.30,0,1,0,97,88,-59517,13908,44979,2931.50,51,WP,1,0,0,0,0,0,0,1764515614972,3742,3744,3751,3750,3738,3712,18,,,,,,,0,0,0,-15.00,26.00,1253.00,0.00,2.00,-197.00,14,199.00,1.73,4.21,1.00,1.00,-1.00,0,,,100,98,20,2,0,0,1,1,0,,,,,0.0,0.0,0.0,0.0,0.0,0.0,0
-22.959715,-67.786902,19.90,0.00,0.10,0.45,19.90,19.90,3.50,0.62,8960,2025-11-30 15:13:35.073,2025-11-30 12:13:35.073,14,0,0,44.979,-22.959719,-67.786902,0.10,0.00,0.00,1.20,3.00,134.40,0,1,0,97,88,-59517,13908,44979,2931.50,51,WP,1,0,0,0,0,0,0,1764515615072,3742,3744,3751,3750,3738,3712,18,,,,,,,0,0,0,-12.00,30.00,1344.00,0.00,2.00,-274.00,14,199.00,1.00,4.48,1.00,0.00,0.00,0,,,100,98,20,2,0,0,1,1,0,,,,,0.0,0.0,0.0,0.0,0.0,0.0,0
-22.959715,-67.786902,19.90,0.00,0.10,0.47,19.90,19.90,3.50,0.62,9064,2025-11-30 15:13:35.176,2025-11-30 12:13:35.176,14,0,0,44.979,-22.959719,-67.786902,0.10,0.00,0.00,0.80,3.20,143.40,0,1,0,97,88,-59517,13908,44979,2931.50,51,WP,1,0,0,0,0,0,0,1764515615176,3742,3744,3751,3750,3738,3712,18,,,,,,,0,0,0,-8.00,32.00,1434.00,0.00,2.00,-358.00,14,199.00,1.00,4.74,1.00,0.00,0.00,0,,,100,98,20,2,0,0,1,1,0,,,,,0.0,0.0,0.0,0.0,0.0,0.0,0
-22.959715,-67.786902,19.90,0.00,0.14,0.52,19.90,19.90,3.50,0.62,9262,2025-11-30 15:13:35.375,2025-11-30 12:13:35.375,14,0,0,44.979,-22.959719,-67.786902,0.10,0.00,0.10,-0.20,2.60,161.10,0,1,0,97,88,-59517,13908,44979,2931.50,51,WP,1,0,0,0,0,0,0,1764515615374,3742,3744,3751,3750,3738,3712,18,,,,,,,0,0,0,2.00,26.00,1611.00,0.00,2.00,-455.00,14,199.00,1.41,5.22,1.00,0.00,1.00,0,,,100,98,20,2,0,0,1,1,0,,,,,0.0,0.0,0.0,0.0,0.0,0.0,0
-22.959715,-67.786902,19.90,0.00,0.22,0.54,19.90,19.90,3.50,0.62,9364,2025-11-30 15:13:35.477,2025-11-30 12:13:35.477,14,0,0,44.979,-22.959719,-67.786902,0.10,0.00,0.20,-0.40,2.10,168.00,0,1,0,97,88,-59517,13908,44979,2931.50,51,WP,1,0,0,0,0,0,0,1764515615476,3742,3744,3751,3750,3738,3712,18,,,,,,,0,0,0,4.00,21.00,1680.00,0.00,2.00,-463.00,14,199.00,2.24,5.45,1.00,0.00,2.00,0,,,100,98,20,2,0,0,1,1,0,,,,,0.0,0.0,0.0,0.0,0.0,0.0,0
-22.959714,-67.786902,19.90,0.00,0.22,0.57,19.90,19.90,3.50,0.62,9466,2025-11-30 15:13:35.578,2025-11-30 12:13:35.578,14,0,0,44.979,-22.959719,-67.786902,0.10,0.00,0.20,-0.30,2.00,173.00,0,1,0,97,88,-59517,13908,44979,2931.50,51,WP,1,0,0,0,0,0,0,1764515615578,3742,3744,3751,3750,3738,3712,18,,,,,,,0,0,0,3.00,20.00,1730.00,0.00,2.00,-474.00,14,199.00,2.24,5.66,1.00,0.00,2.00,0,,,100,98,20,2,0,0,1,1,0,,,,,0.0,0.0,0.0,0.0,0.0,0.0,0
-22.959714,-67.786902,19.90,0.00,0.14,0.59,19.90,19.90,3.50,0.62,9566,2025-11-30 15:13:35.678,2025-11-30 12:13:35.678,14,0,0,44.979,-22.959719,-67.786902,0.10,0.00,0.10,-0.30,2.10,176.30,0,1,0,97,88,-59517,13908,44979,2931.50,51,WP,1,0,0,0,0,0,0,1764515615678,3742,3744,3751,3750,3738,3712,18,,,,,,,0,0,0,3.00,21.00,1763.00,0.00,1.00,-443.00,14,199.00,1.41,5.90,1.00,0.00,1.00,0,,,100,98,20,2,0,0,1,1,0,,,,,0.0,0.0,0.0,0.0,0.0,0.0,0
-22.959714,-67.786902,19.90,0.00,0.22,0.61,19.90,19.90,3.50,0.62,9663,2025-11-30 15:13:35.776,2025-11-30 12:13:35.776,14,0,0,44.979,-22.959719,-67.786902,0.20,0.00,0.10,-0.20,2.10,178.00,0,1,0,97,88,-59517,13908,44979,2931.50,51,WP,1,0,0,0,0,0,0,1764515615775,3742,3744,3751,3750,3738,3712,18,,,,,,,0,0,0,2.00,21.00,1780.00,0.00,1.00,-411.00,14,199.00,2.24,6.13,2.00,0.00,1.00,0,,,100,98,20,2,0,0,1,1,0,,,,,0.0,0.0,0.0,0.0,0.0,0.0,0
-22.959714,-67.786903,19.90,0.00,0.20,0.64,19.90,19.90,3.50,0.64,9765,2025-11-30 15:13:35.878,2025-11-30 12:13:35.878,14,0,0,45.774,-22.959719,-67.786902,0.20,0.00,0.00,-0.20,2.10,178.60,0,1,0,97,88,-50824,13908,45774,2931.50,51,WP,1,0,0,0,0,0,0,1764515615877,3742,3744,3751,3750,3738,3712,18,,,,,,,0,0,0,2.00,21.00,1786.00,0.00,2.00,-363.00,14,199.00,2.00,6.38,2.00,0.00,0.00,0,,,100,98,20,2,0,0,1,1,0,,,,,0.0,0.0,0.0,0.0,0.0,0.0,0
-22.959714,-67.786903,19.90,0.00,0.20,0.66,19.90,19.90,3.50,0.66,9868,2025-11-30 15:13:35.980,2025-11-30 12:13:35.981,14,0,0,45.774,-22.959719,-67.786902,0.20,0.00,0.00,-1.60,2.10,178.90,0,1,0,97,88,-50824,13908,45774,2931.50,51,WP,1,0,0,0,0,0,0,1764515615980,3742,3744,3751,3750,3738,3712,18,,,,,,,0,0,0,16.00,21.00,1789.00,0.00,2.00,-319.00,14,199.00,2.00,6.62,2.00,0.00,0.00,0,,,100,98,20,2,0,0,1,1,0,,,,,0.0,0.0,0.0,0.0,0.0,0.0,0
-22.959713,-67.786903,19.90,0.00,0.20,0.69,19.90,19.90,3.50,0.69,9966,2025-11-30 15:13:36.078,2025-11-30 12:13:36.078,14,0,0,45.774,-22.959719,-67.786902,0.20,0.00,0.00,-4.40,1.90,179.00,0,1,0,97,88,-50824,13908,45774,2931.50,51,WP,1,0,0,0,0,0,0,1764515616078,3742,3744,3751,3750,3738,3712,18,,,,,,,0,0,0,44.00,19.00,1790.00,-1.00,2.00,-283.00,14,199.00,2.00,6.89,2.00,0.00,0.00,0,,,100,98,20,2,0,0,1,1,0,,,,,0.0,0.0,0.0,0.0,0.0,0.0,0
-22.959713,-67.786903,20.00,0.00,0.14,0.71,20.00,20.00,3.50,0.71,10071,2025-11-30 15:13:36.183,2025-11-30 12:13:36.184,14,0,0,45.774,-22.959719,-67.786902,0.10,-0.10,0.00,-7.80,1.40,179.10,0,1,0,97,88,-50824,13908,45774,2931.50,51,WP,1,0,0,0,0,0,0,1764515616183,3742,3744,3751,3750,3738,3712,18,,,,,,,0,0,0,78.00,14.00,1791.00,-1.00,2.00,-256.00,14,200.00,1.41,7.10,1.00,-1.00,0.00,0,,,100,98,20,2,0,0,1,1,0,,,,,0.0,0.0,0.0,0.0,0.0,0.0,0
-22.959713,-67.786903,20.00,0.00,0.10,0.71,20.00,20.00,3.50,0.71,10268,2025-11-30 15:13:36.381,2025-11-30 12:13:36.381,14,0,0,45.774,-22.959719,-67.786902,-0.10,0.00,0.00,-13.90,0.60,179.30,0,1,0,97,88,-50824,13908,45774,2931.50,51,WP,1,0,0,0,0,0,0,1764515616380,3742,3744,3751,3750,3738,3712,18,,,,,,,0,0,0,139.00,6.00,1793.00,-1.00,1.00,-220.00,14,200.00,1.00,7.09,-1.00,0.00,0.00,0,,,100,98,20,2,0,0,1,1,0,,,,,0.0,0.0,0.0,0.0,0.0,0.0,0
-22.959713,-67.786903,20.00,0.00,0.30,0.67,20.00,20.00,3.50,0.71,10371,2025-11-30 15:13:36.484,2025-11-30 12:13:36.484,14,0,0,45.774,-22.959719,-67.786902,-0.30,0.00,0.00,-16.00,0.40,179.30,0,1,0,97,88,-50824,13908,45774,2931.50,51,WP,1,0,0,0,0,0,0,1764515616483,3742,3744,3751,3750,3738,3712,18,,,,,,,0,0,0,160.00,4.00,1793.00,-1.00,1.00,-206.00,14,200.00,3.00,6.72,-3.00,0.00,0.00,0,,,100,98,20,2,0,0,1,1,0,,,,,0.0,0.0,0.0,0.0,0.0,0.0,0
-22.959714,-67.786903,20.00,0.00,0.50,0.61,20.00,20.00,3.50,0.71,10469,2025-11-30 15:13:36.582,2025-11-30 12:13:36.582,14,0,0,45.774,-22.959719,-67.786902,-0.50,0.00,0.00,-17.50,0.60,179.30,0,1,0,97,88,-50824,13908,45774,2931.50,51,WP,1,0,0,0,0,0,0,1764515616581,3742,3744,3751,3750,3738,3712,18,,,,,,,0,0,0,175.00,6.00,1793.00,-1.00,1.00,-194.00,14,200.00,5.00,6.13,-5.00,0.00,0.00,0,,,100,98,20,2,0,0,1,1,0,,,,,0.0,0.0,0.0,0.0,0.0,0.0,0
-22.959715,-67.786903,20.00,0.00,0.80,0.52,20.00,20.00,3.50,0.71,10577,2025-11-30 15:13:36.690,2025-11-30 12:13:36.690,14,0,0,45.774,-22.959719,-67.786902,-0.80,0.00,0.00,-18.10,0.90,179.20,0,1,0,97,88,-50824,13908,45774,2931.50,51,WP,1,0,0,0,0,0,0,1764515616689,3742,3744,3751,3750,3738,3712,18,,,,,,,0,0,0,181.00,9.00,1792.00,-1.00,2.00,-184.00,14,200.00,8.00,5.21,-8.00,0.00,0.00,0,,,100,98,20,2,0,0,1,1,0,,,,,0.0,0.0,0.0,0.0,0.0,0.0,0
-22.959716,-67.786903,20.00,0.00,1.10,0.41,20.00,20.00,3.50,0.71,10681,2025-11-30 15:13:36.793,2025-11-30 12:13:36.793,14,0,0,45.774,-22.959719,-67.786902,-1.10,0.00,0.00,-18.30,1.30,179.20,0,1,0,97,88,-50824,13908,45774,2931.50,51,WP,1,0,0,0,0,0,0,1764515616793,3742,3744,3751,3750,3738,3712,18,,,,,,,0,0,0,183.00,13.00,1792.00,0.00,2.00,-174.00,14,200.00,11.00,4.07,-11.00,0.00,0.00,0,,,100,98,20,2,0,0,1,1,0,,,,,0.0,0.0,0.0,0.0,0.0,0.0,0
-22.959717,-67.786903,20.10,0.00,1.30,0.24,20.10,20.10,3.50,0.71,10772,2025-11-30 15:13:36.885,2025-11-30 12:13:36.885,14,0,0,45.774,-22.959719,-67.786902,-1.30,0.00,0.00,-18.20,2.00,179.00,0,1,0,97,88,-51871,13861,45774,2931.50,51,WP,1,0,0,0,0,0,0,1764515616884,3742,3744,3751,3750,3738,3712,18,,,,,,,0,0,0,182.00,20.00,1790.00,0.00,2.00,-166.00,14,201.00,13.00,2.44,-13.00,0.00,0.00,0,,,100,98,20,2,0,0,1,1,0,,,,,0.0,0.0,0.0,0.0,0.0,0.0,0
-22.959719,-67.786902,20.10,0.00,1.60,0.06,20.10,20.10,3.50,0.71,10879,2025-11-30 15:13:36.992,2025-11-30 12:13:36.992,14,0,0,45.774,-22.959719,-67.786902,-1.60,0.00,-0.10,-18.10,2.40,179.00,0,1,0,97,88,-51871,13861,45774,2931.50,51,WP,1,0,0,0,0,0,0,1764515616991,3742,3744,3751,3750,3738,3712,18,,,,,,,0,0,0,181.00,24.00,1790.00,0.00,2.00,-159.00,14,201.00,16.03,0.57,-16.00,0.00,-1.00,0,,,100,98,20,2,0,0,1,1,0,,,,,0.0,0.0,0.0,0.0,0.0,0.0,0
-22.959721,-67.786902,20.10,0.00,1.90,0.18,20.10,20.10,3.50,0.71,10974,2025-11-30 15:13:37.086,2025-11-30 12:13:37.086,14,0,0,45.774,-22.959719,-67.786902,-1.90,0.00,0.00,-18.10,2.40,179.00,0,1,0,97,88,-51871,13861,45774,2931.50,51,WP,1,0,0,0,0,0,0,1764515617086,3742,3744,3751,3750,3738,3712,18,,,,,,,0,0,0,181.00,24.00,1790.00,-1.00,2.00,-152.00,14,201.00,19.00,1.81,-19.00,0.00,0.00,0,,,100,99,20,2,0,0,1,1,0,,,,,0.0,0.0,0.0,0.0,0.0,0.0,0
-22.959723,-67.786902,20.10,0.00,2.10,0.43,20.10,20.10,3.50,0.71,11077,2025-11-30 15:13:37.189,2025-11-30 12:13:37.189,14,0,0,45.774,-22.959719,-67.786902,-2.10,0.00,0.00,-18.00,2.50,179.00,0,1,0,97,88,-51871,13861,45774,2931.50,51,WP,1,0,0,0,0,0,0,1764515617189,3742,3744,3751,3750,3738,3712,18,,,,,,,0,0,0,180.00,25.00,1790.00,-1.00,2.00,-152.00,14,201.00,21.00,4.31,-21.00,0.00,0.00,0,,,100,99,20,2,0,0,1,1,0,,,,,0.0,0.0,0.0,0.0,0.0,0.0,0
-22.959729,-67.786902,20.10,0.00,2.60,1.04,20.10,20.10,3.50,1.04,11277,2025-11-30 15:13:37.390,2025-11-30 12:13:37.390,14,0,0,45.774,-22.959719,-67.786902,-2.60,0.00,0.00,-18.20,2.20,178.90,0,1,0,97,88,-51871,13861,45774,2931.50,51,WP,1,0,0,0,0,0,0,1764515617389,3742,3744,3751,3750,3738,3712,18,,,,,,,0,0,0,182.00,22.00,1789.00,-1.00,2.00,-137.00,14,201.00,26.00,10.36,-26.00,0.00,0.00,0,,,100,99,20,2,0,0,1,1,0,,,,,0.0,0.0,0.0,0.0,0.0,0.0,0
-22.959732,-67.786901,20.20,0.00,2.90,1.39,20.20,20.20,3.50,1.39,11381,2025-11-30 15:13:37.494,2025-11-30 12:13:37.494,14,0,0,45.774,-22.959719,-67.786902,-2.90,0.00,0.00,-18.50,1.90,178.90,0,1,0,97,88,-51871,13861,45774,2931.50,51,WP,1,0,0,0,0,0,0,1764515617493,3742,3744,3751,3750,3738,3712,18,,,,,,,0,0,0,185.00,19.00,1789.00,-1.00,2.00,-133.00,14,202.00,29.00,13.93,-29.00,0.00,0.00,0,,,100,99,20,2,0,0,1,1,0,,,,,0.0,0.0,0.0,0.0,0.0,0.0,0
-22.959735,-67.786901,20.20,0.00,3.20,1.76,20.20,20.20,3.50,1.76,11483,2025-11-30 15:13:37.595,2025-11-30 12:13:37.595,14,0,0,45.774,-22.959719,-67.786902,-3.20,0.00,0.00,-18.60,1.70,178.90,0,1,0,97,88,-51871,13861,45774,2931.50,51,WP,1,0,0,0,0,0,0,1764515617595,3742,3744,3751,3750,3738,3712,18,,,,,,,0,0,0,186.00,17.00,1789.00,-2.00,2.00,-130.00,14,202.00,32.00,17.60,-32.00,0.00,0.00,0,,,100,100,20,2,0,0,1,1,0,,,,,0.0,0.0,0.0,0.0,0.0,0.0,0
-22.959739,-67.786901,20.20,0.00,3.40,2.17,20.20,20.20,3.50,2.17,11578,2025-11-30 15:13:37.691,2025-11-30 12:13:37.691,14,0,0,45.774,-22.959719,-67.786902,-3.40,0.00,0.00,-18.80,1.60,178.90,0,1,0,97,88,-51871,13861,45774,2931.50,51,WP,1,0,0,0,0,0,0,1764515617690,3742,3744,3751,3750,3738,3712,18,,,,,,,0,0,0,188.00,16.00,1789.00,-2.00,2.00,-126.00,14,202.00,34.00,21.72,-34.00,0.00,0.00,0,,,100,100,20,2,0,0,1,1,0,,,,,0.0,0.0,0.0,0.0,0.0,0.0,0
-22.959743,-67.786901,20.30,0.00,3.70,2.59,20.30,20.30,3.70,2.59,11682,2025-11-30 15:13:37.795,2025-11-30 12:13:37.795,14,0,0,45.774,-22.959719,-67.786902,-3.70,0.10,0.00,-19.00,2.00,178.80,0,1,0,97,88,-51871,13861,45774,2931.50,51,WP,1,0,0,0,0,0,0,1764515617794,3742,3744,3751,3750,3738,3712,18,,,,,,,0,0,0,190.00,20.00,1788.00,-1.00,2.00,-123.00,14,203.00,37.01,25.92,-37.00,1.00,0.00,0,,,100,100,20,2,0,0,1,1,0,,,,,0.0,0.0,0.0,0.0,0.0,0.0,0
-22.959747,-67.786900,20.30,0.00,4.00,3.06,20.30,20.30,4.00,3.06,11781,2025-11-30 15:13:37.893,2025-11-30 12:13:37.893,14,0,0,45.774,-22.959719,-67.786902,-4.00,0.10,0.00,-18.80,2.40,178.70,0,1,0,97,88,-51871,13861,45774,2931.50,51,WP,1,0,0,0,0,0,0,1764515617893,3742,3744,3751,3750,3738,3712,18,,,,,,,0,0,0,188.00,24.00,1787.00,-1.00,2.00,-119.00,14,203.00,40.01,30.58,-40.00,1.00,0.00,0,,,100,100,20,2,0,0,1,1,0,,,,,0.0,0.0,0.0,0.0,0.0,0.0,0
-22.959751,-67.786900,20.30,0.00,4.20,3.53,20.30,20.30,4.20,3.53,11883,2025-11-30 15:13:37.995,2025-11-30 12:13:37.995,14,0,0,45.774,-22.959719,-67.786902,-4.20,0.10,0.00,-18.40,2.80,178.70,0,1,0,97,88,-51871,13861,45774,2931.50,51,WP,1,0,0,0,0,0,0,1764515617995,3742,3744,3751,3750,3738,3712,18,,,,,,,0,0,0,184.00,28.00,1787.00,0.00,2.00,-116.00,14,203.00,42.01,35.33,-42.00,1.00,0.00,0,,,100,100,20,2,0,0,1,1,0,,,,,0.0,0.0,0.0,0.0,0.0,0.0,0
-22.959761,-67.786899,20.30,0.00,4.80,4.59,20.30,20.30,4.80,4.59,12082,2025-11-30 15:13:38.194,2025-11-30 12:13:38.194,14,0,0,45.774,-22.959719,-67.786902,-4.80,0.10,0.00,-17.60,3.30,178.70,0,1,0,97,88,-51871,13861,45774,2931.50,51,WP,1,0,0,0,0,0,0,1764515618194,3742,3744,3751,3750,3738,3712,18,,,,,,,0,0,0,176.00,33.00,1787.00,0.00,3.00,-111.00,14,203.00,48.01,45.93,-48.00,1.00,0.00,0,,,100,99,20,2,0,0,1,1,0,,,,,0.0,0.0,0.0,0.0,0.0,0.0,0
-22.959766,-67.786899,20.30,0.00,5.00,5.18,20.30,20.30,5.00,5.18,12185,2025-11-30 15:13:38.298,2025-11-30 12:13:38.298,14,0,0,45.774,-22.959719,-67.786902,-5.00,0.10,0.00,-17.30,3.60,178.60,0,1,0,97,88,-51871,13861,45774,2931.50,51,WP,1,0,0,0,0,0,0,1764515618297,3742,3744,3751,3750,3738,3712,18,,,,,,,0,0,0,173.00,36.00,1786.00,1.00,3.00,-109.00,14,203.00,50.01,51.76,-50.00,1.00,0.00,0,,,100,99,20,2,0,0,1,1,0,,,,,0.0,0.0,0.0,0.0,0.0,0.0,0
-22.959777,-67.786898,20.30,0.00,5.50,6.40,20.30,20.30,5.50,6.40,12385,2025-11-30 15:13:38.497,2025-11-30 12:13:38.497,14,0,0,45.774,-22.959719,-67.786902,-5.50,0.00,0.00,-17.10,4.30,178.60,0,1,0,97,88,-51871,13861,45774,2931.50,51,WP,1,0,0,0,0,0,0,1764515618497,3742,3744,3751,3750,3738,3712,18,,,,,,,0,0,0,171.00,43.00,1786.00,1.00,2.00,-105.00,14,203.00,55.00,63.96,-55.00,0.00,0.00,0,,,100,99,20,2,0,0,1,1,0,,,,,0.0,0.0,0.0,0.0,0.0,0.0,0
-22.959783,-67.786898,20.30,0.00,5.80,7.03,20.30,20.30,5.80,7.03,12490,2025-11-30 15:13:38.602,2025-11-30 12:13:38.602,14,0,0,45.774,-22.959719,-67.786902,-5.80,0.00,0.00,-17.00,4.70,178.60,0,1,0,97,88,-51871,13861,45774,2931.50,51,WP,1,0,0,0,0,0,0,1764515618602,3742,3744,3751,3750,3738,3712,18,,,,,,,0,0,0,170.00,47.00,1786.00,1.00,2.00,-104.00,14,203.00,58.00,70.29,-58.00,0.00,0.00,0,,,100,96,20,2,0,0,1,1,0,,,,,0.0,0.0,0.0,0.0,0.0,0.0,0
-22.959789,-67.786898,20.30,0.00,6.00,7.71,20.30,20.30,6.00,7.71,12585,2025-11-30 15:13:38.698,2025-11-30 12:13:38.698,14,0,0,45.774,-22.959719,-67.786902,-6.00,0.00,0.00,-16.90,4.80,178.70,0,1,0,97,88,-51871,13861,45774,2931.50,51,WP,1,0,0,0,0,0,0,1764515618697,3742,3744,3751,3750,3738,3712,18,,,,,,,0,0,0,169.00,48.00,1787.00,1.00,2.00,-102.00,14,203.00,60.00,77.11,-60.00,0.00,0.00,0,,,100,96,20,2,0,0,1,1,0,,,,,0.0,0.0,0.0,0.0,0.0,0.0,0
-22.959795,-67.786898,20.40,0.00,6.30,8.39,20.40,20.40,6.30,8.39,12687,2025-11-30 15:13:38.800,2025-11-30 12:13:38.800,14,0,0,45.297,-22.959719,-67.786902,-6.30,0.00,0.00,-16.70,4.70,178.70,0,1,0,97,88,-62363,13861,45297,2931.50,51,WP,1,0,0,0,0,0,0,1764515618799,3742,3744,3751,3750,3738,3712,18,,,,,,,0,0,0,167.00,47.00,1787.00,2.00,2.00,-101.00,14,204.00,63.00,83.91,-63.00,0.00,0.00,0,,,100,96,20,2,0,0,1,1,0,,,,,0.0,0.0,0.0,0.0,0.0,0.0,0
-22.959802,-67.786898,20.40,0.00,6.50,9.12,20.40,20.40,6.50,9.12,12796,2025-11-30 15:13:38.909,2025-11-30 12:13:38.909,14,0,0,45.297,-22.959719,-67.786902,-6.50,0.00,0.00,-16.20,4.50,178.80,0,1,0,97,88,-62363,13861,45297,2931.50,51,WP,1,0,0,0,0,0,0,1764515618908,3742,3744,3751,3750,3738,3712,18,,,,,,,0,0,0,162.00,45.00,1788.00,3.00,2.00,-100.00,14,204.00,65.00,91.21,-65.00,0.00,0.00,0,,,100,96,20,2,0,0,1,1,0,,,,,0.0,0.0,0.0,0.0,0.0,0.0,0
-22.959808,-67.786898,20.40,0.00,6.70,9.85,20.40,20.40,6.70,9.85,12893,2025-11-30 15:13:39.005,2025-11-30 12:13:39.005,14,0,0,45.297,-22.959719,-67.786902,-6.70,0.00,0.00,-15.90,4.20,178.80,0,1,0,97,88,-62363,13861,45297,2931.50,51,WP,1,0,0,0,0,0,0,1764515619005,3742,3744,3751,3750,3738,3712,18,,,,,,,0,0,0,159.00,42.00,1788.00,3.00,2.00,-99.00,14,204.00,67.00,98.47,-67.00,0.00,0.00,0,,,100,96,20,2,0,0,1,1,0,,,,,0.0,0.0,0.0,0.0,0.0,0.0,0
-22.959815,-67.786897,20.50,0.00,7.00,10.62,20.50,20.50,7.00,10.62,12997,2025-11-30 15:13:39.110,2025-11-30 12:13:39.110,14,0,0,45.297,-22.959719,-67.786902,-7.00,0.00,0.00,-15.70,4.10,178.80,0,1,0,97,88,-62363,13861,45297,2931.50,51,WP,1,0,0,0,0,0,0,1764515619109,3742,3744,3751,3750,3738,3712,18,,,,,,,0,0,0,157.00,41.00,1788.00,3.00,2.00,-97.00,14,205.00,70.00,106.20,-70.00,0.00,0.00,0,,,100,96,20,2,0,0,1,1,0,,,,,0.0,0.0,0.0,0.0,0.0,0.0,0
-22.959822,-67.786898,20.50,0.00,7.20,11.39,20.50,20.50,7.20,11.39,13089,2025-11-30 15:13:39.201,2025-11-30 12:13:39.201,14,0,0,45.297,-22.959719,-67.786902,-7.20,-0.10,0.00,-15.50,3.80,178.70,0,1,0,97,88,-62363,13861,45297,2931.50,51,WP,1,0,0,0,0,0,0,1764515619201,3742,3744,3751,3750,3738,3712,18,,,,,,,0,0,0,155.00,38.00,1787.00,3.00,2.00,-97.00,14,205.00,72.01,113.86,-72.00,-1.00,0.00,0,,,100,96,20,2,0,0,1,1,0,,,,,0.0,0.0,0.0,0.0,0.0,0.0,0
-22.959830,-67.786897,20.50,0.00,7.40,12.20,20.50,20.50,7.40,12.20,13194,2025-11-30 15:13:39.307,2025-11-30 12:13:39.307,14,0,0,45.297,-22.959719,-67.786902,-7.40,-0.10,0.00,-15.60,3.30,178.70,0,1,0,97,88,-62363,13861,45297,2931.50,51,WP,1,0,0,0,0,0,0,1764515619306,3742,3744,3751,3750,3738,3712,18,,,,,,,0,0,0,156.00,33.00,1787.00,3.00,2.00,-93.00,14,205.00,74.01,121.96,-74.00,-1.00,0.00,0,,,100,96,20,2,0,0,1,1,0,,,,,0.0,0.0,0.0,0.0,0.0,0.0,0
-22.959837,-67.786898,20.50,0.00,7.50,12.99,20.50,20.50,7.50,12.99,13297,2025-11-30 15:13:39.410,2025-11-30 12:13:39.410,14,0,0,45.297,-22.959719,-67.786902,-7.50,-0.10,0.00,-15.80,3.10,178.60,0,1,0,97,88,-62363,13861,45297,2931.50,51,WP,1,0,0,0,0,0,0,1764515619409,3742,3744,3751,3750,3738,3712,18,,,,,,,0,0,0,158.00,31.00,1786.00,3.00,2.00,-90.00,14,205.00,75.01,129.95,-75.00,-1.00,0.00,0,,,100,96,20,2,0,0,1,1,0,,,,,0.0,0.0,0.0,0.0,0.0,0.0,0
-22.959844,-67.786898,20.50,0.00,7.70,13.84,20.50,20.50,7.70,13.84,13390,2025-11-30 15:13:39.502,2025-11-30 12:13:39.502,14,0,0,45.297,-22.959719,-67.786902,-7.70,-0.10,0.00,-16.10,2.80,178.60,0,1,0,97,88,-62363,13861,45297,2931.50,51,WP,1,0,0,0,0,0,0,1764515619502,3742,3744,3751,3750,3738,3712,18,,,,,,,0,0,0,161.00,28.00,1786.00,3.00,2.00,-89.00,14,205.00,77.01,138.40,-77.00,-1.00,0.00,0,,,100,96,20,2,0,0,1,1,0,,,,,0.0,0.0,0.0,0.0,0.0,0.0,0
-22.959852,-67.786898,20.50,0.00,7.90,14.68,20.50,20.50,7.90,14.68,13495,2025-11-30 15:13:39.608,2025-11-30 12:13:39.608,14,0,0,45.297,-22.959719,-67.786902,-7.90,0.00,0.00,-16.30,2.70,178.60,0,1,0,97,88,-62363,13861,45297,2931.50,51,WP,1,0,0,0,0,0,0,1764515619607,3742,3744,3751,3750,3738,3712,18,,,,,,,0,0,0,163.00,27.00,1786.00,3.00,2.00,-87.00,14,205.00,79.00,146.79,-79.00,0.00,0.00,0,,,100,98,20,2,0,0,1,1,0,,,,,0.0,0.0,0.0,0.0,0.0,0.0,0
-22.959868,-67.786898,20.60,0.00,8.30,16.44,20.60,20.60,8.30,16.44,13693,2025-11-30 15:13:39.805,2025-11-30 12:13:39.805,14,0,0,44.472,-22.959719,-67.786902,-8.30,0.00,0.00,-16.10,3.50,178.50,0,1,0,97,88,-63795,13814,44472,2931.50,51,WP,1,0,0,0,0,0,0,1764515619805,3742,3744,3751,3750,3738,3712,18,,,,,,,0,0,0,161.00,35.00,1785.00,4.00,2.00,-82.00,14,206.00,83.00,164.39,-83.00,0.00,0.00,0,,,100,98,20,2,0,0,1,1,0,,,,,0.0,0.0,0.0,0.0,0.0,0.0,0
-22.959876,-67.786897,20.70,0.00,8.50,17.36,20.70,20.70,8.50,17.36,13797,2025-11-30 15:13:39.909,2025-11-30 12:13:39.909,14,0,0,44.472,-22.959719,-67.786902,-8.50,0.00,0.00,-15.90,3.60,178.50,0,1,0,97,88,-63795,13814,44472,2931.50,51,WP,1,0,0,0,0,0,0,1764515619909,3742,3744,3751,3750,3738,3712,18,,,,,,,0,0,0,159.00,36.00,1785.00,3.00,2.00,-80.00,14,207.00,85.00,173.59,-85.00,0.00,0.00,0,,,100,98,20,2,0,0,1,1,0,,,,,0.0,0.0,0.0,0.0,0.0,0.0,0
-22.959893,-67.786897,20.70,0.00,8.90,19.24,20.70,20.70,8.90,19.24,14009,2025-11-30 15:13:40.122,2025-11-30 12:13:40.122,14,0,0,44.472,-22.959719,-67.786902,-8.90,-0.10,0.00,-13.00,4.30,178.40,0,1,0,97,88,-63795,13814,44472,2931.50,51,WP,1,0,0,0,0,0,0,1764515620121,3742,3744,3751,3750,3738,3712,18,,,,,,,0,0,0,130.00,43.00,1784.00,4.00,2.00,-76.00,14,207.00,89.01,192.42,-89.00,-1.00,0.00,0,,,100,97,20,2,0,0,1,1,0,,,,,0.0,0.0,0.0,0.0,0.0,0.0,0
-22.959902,-67.786897,20.80,0.00,9.00,20.20,20.80,20.80,9.00,20.20,14111,2025-11-30 15:13:40.223,2025-11-30 12:13:40.223,14,0,0,44.472,-22.959719,-67.786902,-9.00,-0.10,0.00,-10.70,4.80,178.60,0,1,0,97,88,-63795,13814,44472,2931.50,51,WP,1,0,0,0,0,0,0,1764515620223,3742,3744,3751,3750,3738,3712,18,,,,,,,0,0,0,107.00,48.00,1786.00,4.00,2.00,-76.00,14,208.00,90.01,201.99,-90.00,-1.00,0.00,0,,,100,97,20,2,0,0,1,1,0,,,,,0.0,0.0,0.0,0.0,0.0,0.0,0
-22.959911,-67.786897,20.80,0.00,9.10,21.17,20.80,20.80,9.10,21.17,14196,2025-11-30 15:13:40.308,2025-11-30 12:13:40.308,14,0,0,44.472,-22.959719,-67.786902,-9.10,-0.10,0.00,-8.50,5.30,178.70,0,1,0,97,88,-63795,13814,44472,2931.50,51,WP,1,0,0,0,0,0,0,1764515620308,3742,3744,3751,3750,3738,3712,18,,,,,,,0,0,0,85.00,53.00,1787.00,1.00,2.00,-75.00,14,208.00,91.01,211.69,-91.00,-1.00,0.00,0,,,100,97,20,2,0,0,1,1,0,,,,,0.0,0.0,0.0,0.0,0.0,0.0,0
-22.959919,-67.786897,20.80,0.00,9.10,22.10,20.80,20.80,9.10,22.10,14300,2025-11-30 15:13:40.413,2025-11-30 12:13:40.413,14,0,0,44.472,-22.959719,-67.786902,-9.10,-0.20,0.00,-6.30,5.40,178.90,0,1,0,97,88,-63795,13814,44472,2931.50,51,WP,1,0,0,0,0,0,0,1764515620412,3742,3744,3751,3750,3738,3712,18,,,,,,,0,0,0,63.00,54.00,1789.00,0.00,1.00,-75.00,14,208.00,91.02,221.04,-91.00,-2.00,0.00,0,,,100,97,20,2,0,0,1,1,0,,,,,0.0,0.0,0.0,0.0,0.0,0.0,0
-22.959928,-67.786898,20.90,0.00,9.10,23.06,20.90,20.90,9.10,23.06,14399,2025-11-30 15:13:40.511,2025-11-30 12:13:40.511,14,0,0,44.472,-22.959719,-67.786902,-9.10,-0.30,0.00,-5.00,5.60,179.10,0,1,0,97,88,-63795,13814,44472,2931.50,51,WP,1,0,0,0,0,0,0,1764515620511,3742,3744,3751,3750,3738,3712,18,,,,,,,0,0,0,50.00,56.00,1791.00,1.00,1.00,-75.00,14,209.00,91.05,230.57,-91.00,-3.00,0.00,0,,,100,97,20,2,0,0,1,1,0,,,,,0.0,0.0,0.0,0.0,0.0,0.0,0
-22.959936,-67.786898,20.90,0.00,9.10,24.00,20.90,20.90,9.10,24.00,14502,2025-11-30 15:13:40.614,2025-11-30 12:13:40.614,14,0,0,44.472,-22.959719,-67.786902,-9.10,-0.30,0.00,-4.30,5.90,179.10,0,1,0,97,88,-63795,13814,44472,2931.50,51,WP,1,0,0,0,0,0,0,1764515620614,3742,3744,3751,3750,3738,3712,18,,,,,,,0,0,0,43.00,59.00,1791.00,1.00,1.00,-75.00,14,209.00,91.05,239.95,-91.00,-3.00,0.00,0,,,100,97,20,2,0,0,1,1,0,,,,,0.0,0.0,0.0,0.0,0.0,0.0,0
-22.959945,-67.786898,20.90,0.00,9.11,24.94,20.90,20.90,9.11,24.94,14601,2025-11-30 15:13:40.714,2025-11-30 12:13:40.714,14,0,0,44.472,-22.959719,-67.786902,-9.10,-0.40,0.00,-3.60,5.50,179.10,0,1,0,97,88,-63795,13814,44472,2931.50,51,WP,1,0,0,0,0,0,0,1764515620713,3742,3744,3751,3750,3738,3712,18,,,,,,,0,0,0,36.00,55.00,1791.00,1.00,1.00,-74.00,14,209.00,91.09,249.43,-91.00,-4.00,0.00,0,,,100,97,20,2,0,0,1,1,0,,,,,0.0,0.0,0.0,0.0,0.0,0.0,0
-22.959953,-67.786898,20.90,0.00,9.11,25.87,20.90,20.90,9.11,25.87,14708,2025-11-30 15:13:40.821,2025-11-30 12:13:40.821,14,0,0,44.472,-22.959719,-67.786902,-9.10,-0.40,0.00,-2.80,4.30,179.00,0,1,0,97,88,-63795,13814,44472,2931.50,51,WP,1,0,0,0,0,0,0,1764515620820,3742,3744,3751,3750,3738,3712,18,,,,,,,0,0,0,28.00,43.00,1790.00,1.00,1.00,-73.00,14,209.00,91.09,258.71,-91.00,-4.00,0.00,0,,,100,97,20,2,0,0,1,1,0,,,,,0.0,0.0,0.0,0.0,0.0,0.0,0
-22.959961,-67.786899,21.00,0.00,9.01,26.80,21.00,21.00,9.11,26.80,14813,2025-11-30 15:13:40.925,2025-11-30 12:13:40.925,14,0,0,44.472,-22.959719,-67.786902,-9.00,-0.50,0.00,-1.80,3.10,178.90,0,1,0,97,88,-63795,13814,44472,2931.50,51,WP,1,0,0,0,0,0,0,1764515620925,3742,3744,3751,3750,3738,3712,18,,,,,,,0,0,0,18.00,31.00,1789.00,1.00,1.00,-71.00,14,210.00,90.14,268.04,-90.00,-5.00,0.00,0,,,100,97,20,2,0,0,1,1,0,,,,,0.0,0.0,0.0,0.0,0.0,0.0,0
-22.959970,-67.786899,21.00,0.00,9.01,27.72,21.00,21.00,9.11,27.72,14904,2025-11-30 15:13:41.017,2025-11-30 12:13:41.017,14,0,0,44.472,-22.959719,-67.786902,-9.00,-0.50,0.00,-1.20,2.00,178.80,0,1,0,97,88,-63795,13814,44472,2931.50,51,WP,1,0,0,0,0,0,0,1764515621016,3742,3744,3751,3750,3738,3712,18,,,,,,,0,0,0,12.00,20.00,1788.00,1.00,2.00,-68.00,14,210.00,90.14,277.16,-90.00,-5.00,0.00,0,,,100,97,20,2,0,0,1,1,0,,,,,0.0,0.0,0.0,0.0,0.0,0.0,0
-22.959978,-67.786900,21.10,0.00,8.91,28.63,21.10,21.10,9.11,28.63,15013,2025-11-30 15:13:41.125,2025-11-30 12:13:41.125,14,0,0,44.472,-22.959719,-67.786902,-8.90,-0.50,0.00,-0.80,1.00,178.80,0,1,0,97,88,-63795,13814,44472,2931.50,51,WP,1,0,0,0,0,0,0,1764515621125,3649,3642,3656,3649,3630,3606,18,,,,,,,0,0,0,8.00,10.00,1788.00,1.00,2.00,-66.00,14,211.00,89.14,286.28,-89.00,-5.00,0.00,0,,,100,95,20,2,0,0,1,1,0,,,,,0.0,0.0,0.0,0.0,0.0,0.0,0
