latitude,longitude,altitude(m),ultrasonicHeight(m),speed(mps),distance(m),max_altitude(m),max_ascent(m),max_speed(mps),max_distance(m),time(millisecond),datetime(utc),datetime(local),satellites,pressure(Pa),temperature(F),voltage(v),home_latitude,home_longitude,velocityX(mps),velocityY(mps),velocityZ(mps),pitch(deg),roll(deg),yaw(deg),powerlevel,isflying,istakingphoto,remainPowerPercent,remainLifePercent,currentCurrent,currentElectricity,currentVoltage,batteryTemperature,dischargeCount,flightmode,isMotorsOn,isTakingVideo,Rc_elevator,Rc_aileron,Rc_throttle,Rc_rudder,Rc_gyro,timestamp,Battery_Cell1,Battery_Cell2,Battery_Cell3,Battery_Cell4,Battery_Cell5,Battery_Cell6,Dronetype,AppVersion,Planename,FlyControllerSerialNumber,RemoteSerialNumber,BatterySerialNumber,CENTER_BATTERY.productDate,CENTER_BATTERY.serialNo,CENTER_BATTERY.fullCapacity,CENTER_BATTERY.productDateRaw,pitchRaw,rollRaw,yawRaw,gimbalPitchRaw,gimbalRollRaw,gimbalYawRaw,flyState,altitudeRaw,speedRaw,distanceRaw,velocityXRaw,velocityYRaw,velocityZRaw,data_reuse,App_Tip,App_Warning,downlinkSignalQuality,uplinkSignalQuality,transmissionChannel,rcModeSwitch,rcHome,rcPause,rcTransform,rcJoystickMode,appMode,FlyControllerSerialNumber_legacy,RemoteSerialNumber_legacy,BatterySerialNumber_legacy,Battery2SerialNumber,frontAvoidDist,backAvoidDist,rightAvoidDist,leftAvoidDist,upAvoidDist,downAvoidDist,isBrakingToAvoid
-22.959732,-67.786917,0.60,0.00,0.70,0.39,0.60,0.60,0.70,0.39,4,2025-11-28 18:03:04.711,2025-11-28 15:03:04.711,13,0,0,51.884,-22.959729,-67.786920,0.00,0.00,-0.70,0.50,-4.10,120.70,0,1,0,100,88,-1221,14307,51884,2931.50,49,TakeOff,1,0,0,0,0,0,0,1764352984710,4326,4327,4323,4325,4329,4317,18,Litchi_iOS_2.15.7,EIK Matrice 1,0670131556,03LLCA05XT,,,0,14307,0,-5.00,-41.00,1207.00,0.00,0.00,23.00,11,6.00,7.00,3.93,0.00,0.00,-7.00,0,,,100,99,13,2,0,0,1,1,0,(null),(null),,,0.0,0.0,0.0,0.0,0.0,0.0,0
-22.959732,-67.786917,0.70,0.00,0.51,0.42,0.70,0.70,0.70,0.42,212,2025-11-28 18:03:04.919,2025-11-28 15:03:04.919,12,0,0,51.884,-22.959729,-67.786920,0.00,0.10,-0.50,-0.80,-2.50,120.50,0,1,0,100,88,-1221,14307,51884,2931.50,49,TakeOff,1,0,0,0,0,0,0,1764352984918,4326,4327,4323,4325,4329,4317,18,,,,,,,0,0,0,8.00,-25.00,1205.00,0.00,0.00,26.00,11,7.00,5.10,4.16,0.00,1.00,-5.00,0,,,100,99,13,2,0,0,1,1,0,,,,,0.0,0.0,0.0,0.0,0.0,0.0,0
-22.959732,-67.786917,0.70,0.00,0.42,0.42,0.70,0.70,0.70,0.42,300,2025-11-28 18:03:05.006,2025-11-28 15:03:05.006,13,0,0,51.884,-22.959729,-67.786920,0.10,0.10,-0.40,-1.00,-1.20,120.40,0,1,0,100,88,-1221,14307,51884,2931.50,49,TakeOff,1,0,0,0,0,0,0,1764352985006,4326,4327,4323,4325,4329,4317,18,,,,,,,0,0,0,10.00,-12.00,1204.00,0.00,0.00,27.00,11,7.00,4.24,4.18,1.00,1.00,-4.00,0,,,100,99,13,2,0,0,1,1,0,,,,,0.0,0.0,0.0,0.0,0.0,0.0,0
-22.959731,-67.786917,0.70,0.00,0.33,0.42,0.70,0.70,0.70,0.42,403,2025-11-28 18:03:05.110,2025-11-28 15:03:05.110,13,0,0,51.884,-22.959729,-67.786920,0.10,0.10,-0.30,-0.70,0.00,120.30,0,1,0,100,88,-1221,14307,51884,2931.50,49,TakeOff,1,0,0,0,0,0,0,1764352985109,4326,4327,4323,4325,4329,4317,18,,,,,,,0,0,0,7.00,0.00,1203.00,0.00,0.00,28.00,11,7.00,3.32,4.21,1.00,1.00,-3.00,0,,,100,99,13,2,0,0,1,1,0,,,,,0.0,0.0,0.0,0.0,0.0,0.0,0
-22.959731,-67.786916,0.80,0.00,0.33,0.43,0.80,0.80,0.70,0.43,504,2025-11-28 18:03:05.211,2025-11-28 15:03:05.211,13,0,0,51.718,-22.959729,-67.786920,0.10,0.10,-0.30,-0.20,1.10,120.10,0,1,0,100,88,-18370,14307,51718,2931.50,49,TakeOff,1,0,0,0,0,0,0,1764352985210,4326,4327,4323,4325,4329,4317,18,,,,,,,0,0,0,2.00,11.00,1201.00,0.00,0.00,29.00,11,8.00,3.32,4.26,1.00,1.00,-3.00,0,,,100,99,13,2,0,0,1,1,0,,,,,0.0,0.0,0.0,0.0,0.0,0.0,0
-22.959731,-67.786916,0.80,0.00,0.33,0.44,0.80,0.80,0.70,0.44,603,2025-11-28 18:03:05.310,2025-11-28 15:03:05.310,13,0,0,51.718,-22.959729,-67.786920,0.10,0.10,-0.30,0.40,2.20,120.00,0,1,0,100,88,-18370,14307,51718,2931.50,49,TakeOff,1,0,0,0,0,0,0,1764352985309,4326,4327,4323,4325,4329,4317,18,,,,,,,0,0,0,-4.00,22.00,1200.00,0.00,0.00,31.00,11,8.00,3.32,4.36,1.00,1.00,-3.00,0,,,100,99,13,2,0,0,1,1,0,,,,,0.0,0.0,0.0,0.0,0.0,0.0,0
-22.959731,-67.786916,0.80,0.00,0.33,0.44,0.80,0.80,0.70,0.44,806,2025-11-28 18:03:05.513,2025-11-28 15:03:05.513,13,0,0,51.718,-22.959729,-67.786920,0.10,0.10,-0.30,1.30,2.20,119.90,0,1,0,100,88,-18370,14307,51718,2931.50,49,TakeOff,1,0,0,0,0,0,0,1764352985512,4326,4327,4323,4325,4329,4317,18,,,,,,,0,0,0,-13.00,22.00,1199.00,0.00,0.00,32.00,11,8.00,3.32,4.38,1.00,1.00,-3.00,0,,,100,99,13,2,0,0,1,1,0,,,,,0.0,0.0,0.0,0.0,0.0,0.0,0
-22.959731,-67.786916,0.90,0.00,0.30,0.45,0.90,0.90,0.70,0.45,916,2025-11-28 18:03:05.623,2025-11-28 15:03:05.623,13,0,0,51.718,-22.959729,-67.786920,0.00,0.00,-0.30,1.60,1.60,119.80,0,1,0,100,88,-18370,14307,51718,2931.50,49,TakeOff,1,0,0,0,0,0,0,1764352985622,4326,4327,4323,4325,4329,4317,18,,,,,,,0,0,0,-16.00,16.00,1198.00,0.00,0.00,33.00,11,9.00,3.00,4.46,0.00,0.00,-3.00,0,,,100,99,13,2,0,0,1,1,0,,,,,0.0,0.0,0.0,0.0,0.0,0.0,0
-22.959731,-67.786916,0.90,0.00,0.30,0.45,0.90,0.90,0.70,0.45,1010,2025-11-28 18:03:05.716,2025-11-28 15:03:05.716,13,0,0,51.718,-22.959729,-67.786920,0.00,0.00,-0.30,2.20,1.20,119.80,0,1,0,100,88,-18370,14307,51718,2931.50,49,TakeOff,1,0,0,0,0,0,0,1764352985716,4326,4327,4323,4325,4329,4317,18,,,,,,,0,0,0,-22.00,12.00,1198.00,0.00,0.00,34.00,11,9.00,3.00,4.53,0.00,0.00,-3.00,0,,,100,99,13,2,0,0,1,1,0,,,,,0.0,0.0,0.0,0.0,0.0,0.0,0
-22.959731,-67.786916,0.90,0.00,0.40,0.03,0.90,0.90,0.70,0.45,1115,2025-11-28 18:03:05.822,2025-11-28 15:03:05.822,13,0,0,51.718,-22.959730,-67.786916,0.00,0.00,-0.40,2.20,0.70,119.80,0,1,0,100,88,-18370,14307,51718,2931.50,49,TakeOff,1,0,0,0,0,0,0,1764352985821,4326,4327,4323,4325,4329,4317,18,,,,,,,0,0,0,-22.00,7.00,1198.00,0.00,0.00,34.00,11,9.00,4.00,0.31,0.00,0.00,-4.00,0,,,100,99,13,2,0,0,1,1,0,,,,,0.0,0.0,0.0,0.0,0.0,0.0,0
-22.959731,-67.786916,1.00,0.00,0.40,0.03,1.00,1.00,0.70,0.45,1215,2025-11-28 18:03:05.922,2025-11-28 15:03:05.922,13,0,0,51.718,-22.959730,-67.786916,0.00,0.00,-0.40,1.80,0.70,119.70,0,1,0,100,88,-18370,14307,51718,2931.50,49,TakeOff,1,0,0,0,0,0,0,1764352985921,4326,4327,4323,4325,4329,4317,18,,,,,,,0,0,0,-18.00,7.00,1197.00,0.00,0.00,34.00,11,10.00,4.00,0.27,0.00,0.00,-4.00,0,,,100,99,13,2,0,0,1,1,0,,,,,0.0,0.0,0.0,0.0,0.0,0.0,0
-22.959731,-67.786916,1.00,0.00,0.50,0.03,1.00,1.00,0.70,0.45,1308,2025-11-28 18:03:06.014,2025-11-28 15:03:06.014,13,0,0,51.718,-22.959730,-67.786916,0.00,0.00,-0.50,1.00,1.20,119.50,0,1,0,100,88,-18370,14307,51718,2931.50,49,TakeOff,1,0,0,0,0,0,0,1764352986014,4326,4327,4323,4325,4329,4317,18,,,,,,,0,0,0,-10.00,12.00,1195.00,0.00,0.00,35.00,11,10.00,5.00,0.26,0.00,0.00,-5.00,0,,,100,99,13,2,0,0,1,1,0,,,,,0.0,0.0,0.0,0.0,0.0,0.0,0
-22.959730,-67.786916,1.10,0.00,0.50,0.02,1.10,1.10,0.70,0.45,1409,2025-11-28 18:03:06.116,2025-11-28 15:03:06.116,13,0,0,51.718,-22.959730,-67.786916,0.00,0.00,-0.50,0.10,1.90,119.40,0,1,0,100,88,-18370,14307,51718,2931.50,49,WP,1,0,0,0,0,0,0,1764352986115,4326,4327,4323,4325,4329,4317,18,,,,,,,0,0,0,-1.00,19.00,1194.00,0.00,0.00,35.00,14,11.00,5.00,0.23,0.00,0.00,-5.00,0,,,100,99,13,2,0,0,1,1,0,,,,,0.0,0.0,0.0,0.0,0.0,0.0,0
-22.959731,-67.786916,1.10,0.00,0.40,0.02,1.10,1.10,0.70,0.45,1513,2025-11-28 18:03:06.219,2025-11-28 15:03:06.219,13,0,0,51.718,-22.959730,-67.786916,0.00,0.00,-0.40,-0.40,2.60,119.30,0,1,0,100,88,-18370,14307,51718,2931.50,49,WP,1,0,0,0,0,0,0,1764352986219,4326,4327,4323,4325,4329,4317,18,,,,,,,0,0,0,4.00,26.00,1193.00,0.00,0.00,38.00,14,11.00,4.00,0.25,0.00,0.00,-4.00,0,,,100,99,13,2,0,0,1,1,0,,,,,0.0,0.0,0.0,0.0,0.0,0.0,0
-22.959731,-67.786916,1.20,0.00,0.40,0.03,1.20,1.20,0.70,0.45,1612,2025-11-28 18:03:06.319,2025-11-28 15:03:06.319,13,0,0,51.718,-22.959730,-67.786916,0.00,0.00,-0.40,-0.50,2.40,119.10,0,1,0,100,88,-18370,14307,51718,2931.50,49,WP,1,0,0,0,0,0,0,1764352986318,4326,4327,4323,4325,4329,4317,18,,,,,,,0,0,0,5.00,24.00,1191.00,0.00,0.00,39.00,14,12.00,4.00,0.28,0.00,0.00,-4.00,0,,,100,99,13,2,0,0,1,1,0,,,,,0.0,0.0,0.0,0.0,0.0,0.0,0
-22.959731,-67.786916,1.20,0.00,0.30,0.04,1.20,1.20,0.70,0.45,1715,2025-11-28 18:03:06.422,2025-11-28 15:03:06.422,13,0,0,51.718,-22.959730,-67.786916,0.00,0.00,-0.30,-0.30,1.60,119.00,0,1,0,100,88,-18370,14307,51718,2931.50,49,WP,1,0,0,0,0,0,0,1764352986421,4326,4327,4323,4325,4329,4317,18,,,,,,,0,0,0,3.00,16.00,1190.00,0.00,0.00,40.00,14,12.00,3.00,0.42,0.00,0.00,-3.00,0,,,100,99,13,2,0,0,1,1,0,,,,,0.0,0.0,0.0,0.0,0.0,0.0,0
-22.959731,-67.786916,1.20,0.00,0.30,0.06,1.20,1.20,0.70,0.45,1814,2025-11-28 18:03:06.521,2025-11-28 15:03:06.521,13,0,0,51.718,-22.959730,-67.786916,0.00,0.00,-0.30,0.00,0.80,119.00,0,1,0,100,88,-18370,14307,51718,2931.50,49,WP,1,0,0,0,0,0,0,1764352986520,4326,4327,4323,4325,4329,4317,18,,,,,,,0,0,0,-0.00,8.00,1190.00,0.00,0.00,41.00,14,12.00,3.00,0.55,0.00,0.00,-3.00,0,,,100,99,13,2,0,0,1,1,0,,,,,0.0,0.0,0.0,0.0,0.0,0.0,0
-22.959731,-67.786915,1.30,0.00,0.40,0.07,1.30,1.30,0.70,0.45,1912,2025-11-28 18:03:06.619,2025-11-28 15:03:06.619,13,0,0,51.718,-22.959730,-67.786916,0.00,0.00,-0.40,0.30,0.00,118.90,0,1,0,100,88,-18370,14307,51718,2931.50,49,WP,1,0,0,0,0,0,0,1764352986618,4326,4327,4323,4325,4329,4317,18,,,,,,,0,0,0,-3.00,0.00,1189.00,0.00,0.00,42.00,14,13.00,4.00,0.68,0.00,0.00,-4.00,0,,,100,99,13,2,0,0,1,1,0,,,,,0.0,0.0,0.0,0.0,0.0,0.0,0
-22.959731,-67.786915,1.30,0.00,0.50,0.08,1.30,1.30,0.70,0.45,2015,2025-11-28 18:03:06.722,2025-11-28 15:03:06.722,13,0,0,51.718,-22.959730,-67.786916,0.00,0.00,-0.50,0.70,-0.20,118.80,0,1,0,100,88,-18370,14307,51718,2931.50,49,WP,1,0,0,0,0,0,0,1764352986721,4326,4327,4323,4325,4329,4317,18,,,,,,,0,0,0,-7.00,-2.00,1188.00,0.00,0.00,43.00,14,13.00,5.00,0.77,0.00,0.00,-5.00,0,,,100,99,13,2,0,0,1,1,0,,,,,0.0,0.0,0.0,0.0,0.0,0.0,0
-22.959731,-67.786915,1.30,0.00,0.60,0.09,1.30,1.30,0.70,0.45,2118,2025-11-28 18:03:06.824,2025-11-28 15:03:06.824,13,0,0,51.718,-22.959730,-67.786916,0.00,0.00,-0.60,1.20,0.00,118.90,0,1,0,100,88,-18370,14307,51718,2931.50,49,WP,1,0,0,0,0,0,0,1764352986824,4326,4327,4323,4325,4329,4317,18,,,,,,,0,0,0,-12.00,0.00,1189.00,0.00,0.00,43.00,14,13.00,6.00,0.93,0.00,0.00,-6.00,0,,,100,99,13,2,0,0,1,1,0,,,,,0.0,0.0,0.0,0.0,0.0,0.0,0
-22.959731,-67.786915,1.40,0.00,0.80,0.11,1.40,1.40,0.80,0.45,2217,2025-11-28 18:03:06.923,2025-11-28 15:03:06.923,13,0,0,51.718,-22.959730,-67.786916,0.00,0.00,-0.80,1.80,0.60,118.90,0,1,0,100,88,-18370,14307,51718,2931.50,49,WP,1,0,0,0,0,0,0,1764352986923,4326,4327,4323,4325,4329,4317,18,,,,,,,0,0,0,-18.00,6.00,1189.00,0.00,0.00,43.00,14,14.00,8.00,1.07,0.00,0.00,-8.00,0,,,100,100,13,2,0,0,1,1,0,,,,,0.0,0.0,0.0,0.0,0.0,0.0,0
-22.959731,-67.786915,1.50,0.00,1.00,0.12,1.50,1.50,1.00,0.45,2315,2025-11-28 18:03:07.022,2025-11-28 15:03:07.022,13,0,0,51.718,-22.959730,-67.786916,0.00,0.00,-1.00,1.70,1.10,119.10,0,1,0,100,88,-18370,14307,51718,2931.50,49,WP,1,0,0,0,0,0,0,1764352987021,4326,4327,4323,4325,4329,4317,18,,,,,,,0,0,0,-17.00,11.00,1191.00,0.00,0.00,43.00,14,15.00,10.00,1.20,0.00,0.00,-10.00,0,,,100,100,13,2,0,0,1,1,0,,,,,0.0,0.0,0.0,0.0,0.0,0.0,0
-22.959731,-67.786915,1.60,0.00,1.30,0.13,1.60,1.60,1.30,0.45,2416,2025-11-28 18:03:07.123,2025-11-28 15:03:07.123,13,0,0,51.718,-22.959730,-67.786916,0.00,0.00,-1.30,1.00,1.30,119.40,0,1,0,100,88,-18370,14307,51718,2931.50,49,WP,1,0,0,0,0,0,0,1764352987122,4326,4327,4323,4325,4329,4317,18,,,,,,,0,0,0,-10.00,13.00,1194.00,0.00,0.00,40.00,14,16.00,13.00,1.29,0.00,0.00,-13.00,0,,,100,100,13,2,0,0,1,1,0,,,,,0.0,0.0,0.0,0.0,0.0,0.0,0
-22.959731,-67.786915,1.70,0.00,1.60,0.13,1.70,1.70,1.60,0.45,2520,2025-11-28 18:03:07.226,2025-11-28 15:03:07.226,13,0,0,47.264,-22.959730,-67.786916,0.00,0.00,-1.60,0.20,1.10,119.70,0,1,0,100,88,-51748,14307,47264,2931.50,49,WP,1,0,0,0,0,0,0,1764352987226,4326,4327,4323,4325,4329,4317,18,,,,,,,0,0,0,-2.00,11.00,1197.00,0.00,0.00,38.00,14,17.00,16.00,1.33,0.00,0.00,-16.00,0,,,100,100,13,2,0,0,1,1,0,,,,,0.0,0.0,0.0,0.0,0.0,0.0,0
-22.959731,-67.786915,1.90,0.00,1.90,0.14,1.90,1.90,1.90,0.45,2616,2025-11-28 18:03:07.323,2025-11-28 15:03:07.323,13,0,0,47.264,-22.959730,-67.786916,0.00,0.00,-1.90,0.00,0.20,119.80,0,1,0,100,88,-51748,14307,47264,2931.50,49,WP,1,0,0,0,0,0,0,1764352987322,4326,4327,4323,4325,4329,4317,18,,,,,,,0,0,0,-0.00,2.00,1198.00,0.00,0.00,35.00,14,19.00,19.00,1.38,0.00,0.00,-19.00,0,,,100,100,13,2,0,0,1,1,0,,,,,0.0,0.0,0.0,0.0,0.0,0.0,0
-22.959731,-67.786915,2.10,0.00,2.20,0.15,2.10,2.10,2.20,0.45,2728,2025-11-28 18:03:07.434,2025-11-28 15:03:07.434,13,0,0,47.264,-22.959730,-67.786916,0.00,0.00,-2.20,-0.30,-0.70,119.90,0,1,0,100,88,-51748,14307,47264,2931.50,49,WP,1,0,0,0,0,0,0,1764352987434,4326,4327,4323,4325,4329,4317,18,,,,,,,0,0,0,3.00,-7.00,1199.00,0.00,0.00,34.00,14,21.00,22.00,1.50,0.00,0.00,-22.00,0,,,100,100,13,2,0,0,1,1,0,,,,,0.0,0.0,0.0,0.0,0.0,0.0,0
-22.959731,-67.786915,2.40,0.00,2.50,0.17,2.40,2.40,2.50,0.45,2830,2025-11-28 18:03:07.536,2025-11-28 15:03:07.536,13,0,0,47.264,-22.959730,-67.786916,0.00,0.10,-2.50,-0.80,-1.60,119.90,0,1,0,100,88,-51748,14307,47264,2931.50,49,WP,1,0,0,0,0,0,0,1764352987536,4326,4327,4323,4325,4329,4317,18,,,,,,,0,0,0,8.00,-16.00,1199.00,0.00,0.00,33.00,14,24.00,25.02,1.66,0.00,1.00,-25.00,0,,,100,100,13,2,0,0,1,1,0,,,,,0.0,0.0,0.0,0.0,0.0,0.0,0
-22.959731,-67.786914,2.60,0.00,2.71,0.19,2.60,2.60,2.71,0.45,2923,2025-11-28 18:03:07.629,2025-11-28 15:03:07.630,13,0,0,47.264,-22.959730,-67.786916,0.00,0.20,-2.70,-1.30,-1.70,119.80,0,1,0,100,88,-51748,14307,47264,2931.50,49,WP,1,0,0,0,0,0,0,1764352987629,4326,4327,4323,4325,4329,4317,18,,,,,,,0,0,0,13.00,-17.00,1198.00,0.00,0.00,33.00,14,26.00,27.07,1.90,0.00,2.00,-27.00,0,,,100,100,13,2,0,0,1,1,0,,,,,0.0,0.0,0.0,0.0,0.0,0.0,0
-22.959731,-67.786914,2.90,0.00,3.01,0.22,2.90,2.90,3.01,0.45,3024,2025-11-28 18:03:07.730,2025-11-28 15:03:07.730,13,0,0,47.264,-22.959730,-67.786916,0.00,0.20,-3.00,-1.30,-1.20,119.60,0,1,0,100,88,-51748,14307,47264,2931.50,49,WP,1,0,0,0,0,0,0,1764352987730,4326,4327,4323,4325,4329,4317,18,,,,,,,0,0,0,13.00,-12.00,1196.00,0.00,0.00,34.00,14,29.00,30.07,2.20,0.00,2.00,-30.00,0,,,100,100,13,2,0,0,1,1,0,,,,,0.0,0.0,0.0,0.0,0.0,0.0,0
-22.959731,-67.786913,3.20,0.00,3.31,0.27,3.20,3.20,3.31,0.45,3130,2025-11-28 18:03:07.836,2025-11-28 15:03:07.836,13,0,0,47.264,-22.959730,-67.786916,0.00,0.30,-3.30,-0.50,-0.10,119.60,0,1,0,100,88,-51748,14307,47264,2931.50,49,WP,1,0,0,0,0,0,0,1764352987836,4326,4327,4323,4325,4329,4317,18,,,,,,,0,0,0,5.00,-1.00,1196.00,0.00,0.00,36.00,14,32.00,33.14,2.69,0.00,3.00,-33.00,0,,,100,100,13,2,0,0,1,1,0,,,,,0.0,0.0,0.0,0.0,0.0,0.0,0
-22.959731,-67.786913,3.50,0.00,3.51,0.32,3.50,3.50,3.51,0.45,3232,2025-11-28 18:03:07.939,2025-11-28 15:03:07.939,13,0,0,47.264,-22.959730,-67.786916,0.10,0.30,-3.50,0.80,1.20,119.70,0,1,0,100,88,-51748,14307,47264,2931.50,49,WP,1,0,0,0,0,0,0,1764352987938,4326,4327,4323,4325,4329,4317,18,,,,,,,0,0,0,-8.00,12.00,1197.00,0.00,0.00,36.00,14,35.00,35.14,3.19,1.00,3.00,-35.00,0,,,100,100,13,2,0,0,1,1,0,,,,,0.0,0.0,0.0,0.0,0.0,0.0,0
-22.959731,-67.786912,3.80,0.00,3.61,0.38,3.80,3.80,3.61,0.45,3325,2025-11-28 18:03:08.032,2025-11-28 15:03:08.032,13,0,0,47.264,-22.959730,-67.786916,0.10,0.30,-3.60,2.00,2.70,119.70,0,1,0,100,88,-51748,14307,47264,2931.50,49,WP,1,0,0,0,0,0,0,1764352988031,4326,4327,4323,4325,4329,4317,18,,,,,,,0,0,0,-20.00,27.00,1197.00,0.00,0.00,35.00,14,38.00,36.14,3.77,1.00,3.00,-36.00,0,,,100,100,13,2,0,0,1,1,0,,,,,0.0,0.0,0.0,0.0,0.0,0.0,0
-22.959731,-67.786912,4.20,0.00,3.61,0.43,4.20,4.20,3.61,0.45,3426,2025-11-28 18:03:08.133,2025-11-28 15:03:08.133,13,0,0,47.264,-22.959730,-67.786916,0.10,0.30,-3.60,2.70,3.40,119.70,0,1,0,100,88,-51748,14307,47264,2931.50,49,WP,1,0,0,0,0,0,0,1764352988132,4326,4327,4323,4325,4329,4317,18,,,,,,,0,0,0,-27.00,34.00,1197.00,0.00,0.00,35.00,14,42.00,36.14,4.26,1.00,3.00,-36.00,0,,,100,100,13,2,0,0,1,1,0,,,,,0.0,0.0,0.0,0.0,0.0,0.0,0
-22.959731,-67.786911,4.50,0.00,3.71,0.47,4.50,4.50,3.71,0.47,3532,2025-11-28 18:03:08.239,2025-11-28 15:03:08.239,13,0,0,47.264,-22.959730,-67.786916,0.00,0.20,-3.70,3.00,3.70,119.60,0,1,0,100,88,-51748,14307,47264,2931.50,49,WP,1,0,0,0,0,0,0,1764352988238,4326,4327,4323,4325,4329,4317,18,,,,,,,0,0,0,-30.00,37.00,1196.00,0.00,0.00,35.00,14,45.00,37.05,4.71,0.00,2.00,-37.00,0,,,100,100,13,2,0,0,1,1,0,,,,,0.0,0.0,0.0,0.0,0.0,0.0,0
-22.959731,-67.786911,4.90,0.00,3.71,0.51,4.90,4.90,3.71,0.51,3625,2025-11-28 18:03:08.332,2025-11-28 15:03:08.332,13,0,0,47.264,-22.959730,-67.786916,0.00,0.20,-3.70,2.80,3.60,119.40,0,1,0,100,88,-51748,14307,47264,2931.50,49,WP,1,0,0,0,0,0,0,1764352988331,4326,4327,4323,4325,4329,4317,18,,,,,,,0,0,0,-28.00,36.00,1194.00,0.00,0.00,36.00,14,49.00,37.05,5.08,0.00,2.00,-37.00,0,,,100,100,13,2,0,0,1,1,0,,,,,0.0,0.0,0.0,0.0,0.0,0.0,0
-22.959731,-67.786911,5.20,0.00,3.51,0.54,5.20,5.20,3.71,0.54,3728,2025-11-28 18:03:08.435,2025-11-28 15:03:08.435,13,0,0,47.264,-22.959730,-67.786916,0.00,0.20,-3.50,2.70,3.20,119.40,0,1,0,100,88,-51748,14307,47264,2931.50,49,WP,1,0,0,0,0,0,0,1764352988434,4326,4327,4323,4325,4329,4317,18,,,,,,,0,0,0,-27.00,32.00,1194.00,0.00,0.00,37.00,14,52.00,35.06,5.41,0.00,2.00,-35.00,0,,,100,100,13,2,0,0,1,1,0,,,,,0.0,0.0,0.0,0.0,0.0,0.0,0
-22.959731,-67.786910,5.50,0.00,3.40,0.57,5.50,5.50,3.71,0.57,3832,2025-11-28 18:03:08.539,2025-11-28 15:03:08.539,13,0,0,47.264,-22.959730,-67.786916,0.00,0.10,-3.40,2.70,2.70,119.40,0,1,0,100,88,-51748,14307,47264,2931.50,49,WP,1,0,0,0,0,0,0,1764352988538,4326,4327,4323,4325,4329,4317,18,,,,,,,0,0,0,-27.00,27.00,1194.00,0.00,0.00,38.00,14,55.00,34.01,5.69,0.00,1.00,-34.00,0,,,100,100,13,2,0,0,1,1,0,,,,,0.0,0.0,0.0,0.0,0.0,0.0,0
-22.959731,-67.786910,5.80,0.00,3.30,0.59,5.80,5.80,3.71,0.59,3928,2025-11-28 18:03:08.634,2025-11-28 15:03:08.634,13,0,0,47.264,-22.959730,-67.786916,0.00,0.10,-3.30,2.70,2.20,119.30,0,1,0,100,88,-51748,14307,47264,2931.50,49,WP,1,0,0,0,0,0,0,1764352988634,4326,4327,4323,4325,4329,4317,18,,,,,,,0,0,0,-27.00,22.00,1193.00,0.00,0.00,38.00,14,58.00,33.02,5.92,0.00,1.00,-33.00,0,,,100,100,13,2,0,0,1,1,0,,,,,0.0,0.0,0.0,0.0,0.0,0.0,0
-22.959731,-67.786910,6.10,0.00,3.20,0.61,6.10,6.10,3.71,0.61,4029,2025-11-28 18:03:08.736,2025-11-28 15:03:08.736,13,0,0,47.264,-22.959730,-67.786916,0.00,0.10,-3.20,2.90,1.60,119.30,0,1,0,100,88,-51748,14307,47264,2931.50,49,WP,1,0,0,0,0,0,0,1764352988735,4326,4327,4323,4325,4329,4317,18,,,,,,,0,0,0,-29.00,16.00,1193.00,0.00,0.00,39.00,14,61.00,32.02,6.14,0.00,1.00,-32.00,0,,,100,100,13,2,0,0,1,1,0,,,,,0.0,0.0,0.0,0.0,0.0,0.0,0
-22.959731,-67.786910,6.40,0.00,3.10,0.63,6.40,6.40,3.71,0.63,4132,2025-11-28 18:03:08.838,2025-11-28 15:03:08.838,13,0,0,47.264,-22.959730,-67.786916,0.00,0.10,-3.10,2.90,1.10,119.20,0,1,0,100,88,-51748,14307,47264,2931.50,49,WP,1,0,0,0,0,0,0,1764352988838,4326,4327,4323,4325,4329,4317,18,,,,,,,0,0,0,-29.00,11.00,1192.00,0.00,0.00,39.00,14,64.00,31.02,6.31,0.00,1.00,-31.00,0,,,100,100,13,2,0,0,1,1,0,,,,,0.0,0.0,0.0,0.0,0.0,0.0,0
-22.959731,-67.786910,6.70,0.00,3.00,0.65,6.70,6.70,3.71,0.65,4230,2025-11-28 18:03:08.936,2025-11-28 15:03:08.937,13,0,0,47.264,-22.959730,-67.786916,0.00,0.10,-3.00,2.90,0.80,119.20,0,1,0,100,88,-51748,14307,47264,2931.50,49,WP,1,0,0,0,0,0,0,1764352988936,4326,4327,4323,4325,4329,4317,18,,,,,,,0,0,0,-29.00,8.00,1192.00,0.00,0.00,40.00,14,67.00,30.02,6.48,0.00,1.00,-30.00,0,,,100,100,13,2,0,0,1,1,0,,,,,0.0,0.0,0.0,0.0,0.0,0.0,0
-22.959731,-67.786909,7.00,0.00,3.00,0.66,7.00,7.00,3.71,0.66,4334,2025-11-28 18:03:09.040,2025-11-28 15:03:09.040,13,0,0,47.264,-22.959730,-67.786916,0.00,0.10,-3.00,3.10,1.00,119.20,0,1,0,100,88,-51748,14307,47264,2931.50,49,WP,1,0,0,0,0,0,0,1764352989040,4326,4327,4323,4325,4329,4317,18,,,,,,,0,0,0,-31.00,10.00,1192.00,0.00,0.00,40.00,14,70.00,30.02,6.65,0.00,1.00,-30.00,0,,,100,100,13,2,0,0,1,1,0,,,,,0.0,0.0,0.0,0.0,0.0,0.0,0
-22.959731,-67.786909,7.30,0.00,2.90,0.68,7.30,7.30,3.71,0.68,4430,2025-11-28 18:03:09.137,2025-11-28 15:03:09.137,13,0,0,47.264,-22.959730,-67.786916,0.00,0.10,-2.90,3.60,1.10,119.30,0,1,0,100,88,-51748,14307,47264,2931.50,49,WP,1,0,0,0,0,0,0,1764352989136,4326,4327,4323,4325,4329,4317,18,,,,,,,0,0,0,-36.00,11.00,1193.00,0.00,0.00,40.00,14,73.00,29.02,6.82,0.00,1.00,-29.00,0,,,100,100,13,2,0,0,1,1,0,,,,,0.0,0.0,0.0,0.0,0.0,0.0,0
-22.959731,-67.786909,7.60,0.00,2.90,0.70,7.60,7.60,3.71,0.70,4535,2025-11-28 18:03:09.241,2025-11-28 15:03:09.241,13,0,0,46.440,-22.959730,-67.786916,0.00,0.10,-2.90,4.00,1.20,119.40,0,1,0,97,88,-63474,14019,46440,2931.50,49,WP,1,0,0,0,0,0,0,1764352989241,4326,4327,4323,4325,4329,4317,18,,,,,,,0,0,0,-40.00,12.00,1194.00,0.00,0.00,39.00,14,76.00,29.02,6.95,0.00,1.00,-29.00,0,,,100,100,13,2,0,0,1,1,0,,,,,0.0,0.0,0.0,0.0,0.0,0.0,0
-22.959731,-67.786909,8.20,0.00,3.00,0.71,8.20,8.20,3.71,0.71,4734,2025-11-28 18:03:09.441,2025-11-28 15:03:09.441,13,0,0,46.440,-22.959730,-67.786916,0.00,0.00,-3.00,3.20,2.10,119.40,0,1,0,97,88,-63474,14019,46440,2931.50,49,WP,1,0,0,0,0,0,0,1764352989440,4326,4327,4323,4325,4329,4317,18,,,,,,,0,0,0,-32.00,21.00,1194.00,0.00,0.00,37.00,14,82.00,30.00,7.11,0.00,0.00,-30.00,0,,,100,99,13,2,0,0,1,1,0,,,,,0.0,0.0,0.0,0.0,0.0,0.0,0
-22.959731,-67.786909,8.50,0.00,3.10,0.71,8.50,8.50,3.71,0.71,4839,2025-11-28 18:03:09.546,2025-11-28 15:03:09.546,13,0,0,46.440,-22.959730,-67.786916,0.00,0.00,-3.10,2.50,2.70,119.50,0,1,0,97,88,-63474,14019,46440,2931.50,49,WP,1,0,0,0,0,0,0,1764352989545,4326,4327,4323,4325,4329,4317,18,,,,,,,0,0,0,-25.00,27.00,1195.00,0.00,0.00,37.00,14,85.00,31.00,7.14,0.00,0.00,-31.00,0,,,100,99,13,2,0,0,1,1,0,,,,,0.0,0.0,0.0,0.0,0.0,0.0,0
-22.959731,-67.786909,8.80,0.00,3.20,0.71,8.80,8.80,3.71,0.71,4938,2025-11-28 18:03:09.644,2025-11-28 15:03:09.645,13,0,0,46.440,-22.959730,-67.786916,0.00,0.00,-3.20,2.40,3.10,119.60,0,1,0,97,88,-63474,14019,46440,2931.50,49,WP,1,0,0,0,0,0,0,1764352989644,4326,4327,4323,4325,4329,4317,18,,,,,,,0,0,0,-24.00,31.00,1196.00,0.00,0.00,37.00,14,88.00,32.00,7.13,0.00,0.00,-32.00,0,,,100,99,13,2,0,0,1,1,0,,,,,0.0,0.0,0.0,0.0,0.0,0.0,0
-22.959731,-67.786909,9.20,0.00,3.20,0.71,9.20,9.20,3.71,0.71,4957,2025-11-28 18:03:09.664,2025-11-28 15:03:09.664,13,0,0,46.440,-22.959730,-67.786916,0.00,0.00,-3.20,2.90,3.00,119.60,0,1,0,97,88,-63474,14019,46440,2931.50,49,WP,1,0,0,0,0,0,0,1764352989663,4326,4327,4323,4325,4329,4317,18,,,,,,,0,0,0,-29.00,30.00,1196.00,0.00,0.00,36.00,14,92.00,32.00,7.11,0.00,0.00,-32.00,0,,,100,99,13,2,0,0,1,1,0,,,,,0.0,0.0,0.0,0.0,0.0,0.0,0
-22.959731,-67.786909,9.80,0.00,3.30,0.70,9.80,9.80,3.71,0.71,5147,2025-11-28 18:03:09.854,2025-11-28 15:03:09.854,13,0,0,46.440,-22.959730,-67.786916,0.00,-0.10,-3.30,3.70,2.20,119.60,0,1,0,97,88,-63474,14019,46440,2931.50,49,WP,1,0,0,0,0,0,0,1764352989853,4326,4327,4323,4325,4329,4317,18,,,,,,,0,0,0,-37.00,22.00,1196.00,0.00,0.00,36.00,14,98.00,33.02,7.04,0.00,-1.00,-33.00,0,,,100,99,13,2,0,0,1,1,0,,,,,0.0,0.0,0.0,0.0,0.0,0.0,0
-22.959731,-67.786909,10.20,0.00,3.30,0.69,10.20,10.20,3.71,0.71,5344,2025-11-28 18:03:10.050,2025-11-28 15:03:10.051,13,0,0,46.440,-22.959730,-67.786916,0.00,-0.10,-3.30,3.60,1.60,119.70,0,1,0,97,88,-63474,14019,46440,2931.50,49,WP,1,0,0,0,0,0,0,1764352990050,4326,4327,4323,4325,4329,4317,18,,,,,,,0,0,0,-36.00,16.00,1197.00,0.00,0.00,35.00,14,102.00,33.02,6.91,0.00,-1.00,-33.00,0,,,100,99,13,2,0,0,1,1,0,,,,,0.0,0.0,0.0,0.0,0.0,0.0,0
-22.959731,-67.786909,10.50,0.00,3.30,0.68,10.50,10.50,3.71,0.71,5349,2025-11-28 18:03:10.055,2025-11-28 15:03:10.055,13,0,0,46.440,-22.959730,-67.786916,0.00,-0.10,-3.30,3.30,1.40,119.60,0,1,0,97,88,-63474,14019,46440,2931.50,49,WP,1,0,0,0,0,0,0,1764352990055,4326,4327,4323,4325,4329,4317,18,,,,,,,0,0,0,-33.00,14.00,1196.00,0.00,0.00,35.00,14,105.00,33.02,6.75,0.00,-1.00,-33.00,0,,,100,99,13,2,0,0,1,1,0,,,,,0.0,0.0,0.0,0.0,0.0,0.0,0
-22.959731,-67.786909,10.90,0.00,3.20,0.65,10.90,10.90,3.71,0.71,5440,2025-11-28 18:03:10.146,2025-11-28 15:03:10.146,13,0,0,46.440,-22.959730,-67.786916,0.00,-0.10,-3.20,2.70,1.40,119.50,0,1,0,97,88,-63474,14019,46440,2931.50,49,WP,1,0,0,0,0,0,0,1764352990146,4326,4327,4323,4325,4329,4317,18,,,,,,,0,0,0,-27.00,14.00,1195.00,0.00,0.00,36.00,14,109.00,32.02,6.53,0.00,-1.00,-32.00,0,,,100,99,13,2,0,0,1,1,0,,,,,0.0,0.0,0.0,0.0,0.0,0.0,0
-22.959731,-67.786910,11.20,0.00,3.11,0.63,11.20,11.20,3.71,0.71,5546,2025-11-28 18:03:10.253,2025-11-28 15:03:10.253,13,0,0,46.440,-22.959730,-67.786916,0.00,-0.20,-3.10,2.20,1.90,119.50,0,1,0,97,88,-63474,14019,46440,2931.50,49,WP,1,0,0,0,0,0,0,1764352990252,4326,4327,4323,4325,4329,4317,18,,,,,,,0,0,0,-22.00,19.00,1195.00,0.00,0.00,37.00,14,112.00,31.06,6.32,0.00,-2.00,-31.00,0,,,100,99,13,2,0,0,1,1,0,,,,,0.0,0.0,0.0,0.0,0.0,0.0,0
-22.959731,-67.786910,11.50,0.00,3.11,0.61,11.50,11.50,3.71,0.71,5744,2025-11-28 18:03:10.450,2025-11-28 15:03:10.450,13,0,0,46.440,-22.959730,-67.786916,0.10,-0.20,-3.10,1.70,2.40,119.40,0,1,0,97,88,-63474,14019,46440,2931.50,49,WP,1,0,0,0,0,0,0,1764352990450,4326,4327,4323,4325,4329,4317,18,,,,,,,0,0,0,-17.00,24.00,1194.00,0.00,0.00,37.00,14,115.00,31.08,6.07,1.00,-2.00,-31.00,0,,,100,98,13,2,0,0,1,1,0,,,,,0.0,0.0,0.0,0.0,0.0,0.0,0
-22.959731,-67.786910,11.80,0.00,3.01,0.58,11.80,11.80,3.71,0.71,5848,2025-11-28 18:03:10.554,2025-11-28 15:03:10.555,13,0,0,46.440,-22.959730,-67.786916,0.10,-0.20,-3.00,1.00,2.50,119.30,0,1,0,97,88,-63474,14019,46440,2931.50,49,WP,1,0,0,0,0,0,0,1764352990554,4326,4327,4323,4325,4329,4317,18,,,,,,,0,0,0,-10.00,25.00,1193.00,0.00,0.00,38.00,14,118.00,30.08,5.84,1.00,-2.00,-30.00,0,,,100,98,13,2,0,0,1,1,0,,,,,0.0,0.0,0.0,0.0,0.0,0.0,0
-22.959731,-67.786910,12.10,0.00,3.01,0.55,12.10,12.10,3.71,0.71,5942,2025-11-28 18:03:10.648,2025-11-28 15:03:10.649,13,0,0,46.440,-22.959730,-67.786916,0.00,-0.20,-3.00,0.30,2.40,119.20,0,1,0,97,88,-63474,14019,46440,2931.50,49,WP,1,0,0,0,0,0,0,1764352990648,4326,4327,4323,4325,4329,4317,18,,,,,,,0,0,0,-3.00,24.00,1192.00,0.00,0.00,39.00,14,121.00,30.07,5.53,0.00,-2.00,-30.00,0,,,100,98,13,2,0,0,1,1,0,,,,,0.0,0.0,0.0,0.0,0.0,0.0,0
-22.959731,-67.786911,12.40,0.00,3.01,0.53,12.40,12.40,3.71,0.71,6046,2025-11-28 18:03:10.753,2025-11-28 15:03:10.753,13,0,0,46.440,-22.959730,-67.786916,0.00,-0.20,-3.00,-0.30,2.30,119.00,0,1,0,97,88,-63474,14019,46440,2931.50,49,WP,1,0,0,0,0,0,0,1764352990752,4326,4327,4323,4325,4329,4317,18,,,,,,,0,0,0,3.00,23.00,1190.00,0.00,0.00,40.00,14,124.00,30.07,5.26,0.00,-2.00,-30.00,0,,,100,98,13,2,0,0,1,1,0,,,,,0.0,0.0,0.0,0.0,0.0,0.0,0
-22.959731,-67.786911,13.00,0.00,2.90,0.48,13.00,13.00,3.71,0.71,6148,2025-11-28 18:03:10.854,2025-11-28 15:03:10.854,13,0,0,46.440,-22.959730,-67.786916,0.00,-0.10,-2.90,-0.10,2.10,119.30,0,1,0,97,88,-63474,14019,46440,2931.50,49,WP,1,0,0,0,0,0,0,1764352990854,4326,4327,4323,4325,4329,4317,18,,,,,,,0,0,0,1.00,21.00,1193.00,0.00,0.00,40.00,14,130.00,29.02,4.82,0.00,-1.00,-29.00,0,,,100,99,13,2,0,0,1,1,0,,,,,0.0,0.0,0.0,0.0,0.0,0.0,0
-22.959731,-67.786911,13.30,0.00,2.90,0.47,13.30,13.30,3.71,0.71,6348,2025-11-28 18:03:11.055,2025-11-28 15:03:11.055,13,0,0,46.440,-22.959730,-67.786916,0.00,-0.10,-2.90,0.50,1.90,119.40,0,1,0,97,88,-63474,14019,46440,2931.50,49,WP,1,0,0,0,0,0,0,1764352991054,4326,4327,4323,4325,4329,4317,18,,,,,,,0,0,0,-5.00,19.00,1194.00,0.00,0.00,39.00,14,133.00,29.02,4.67,0.00,-1.00,-29.00,0,,,100,99,13,2,0,0,1,1,0,,,,,0.0,0.0,0.0,0.0,0.0,0.0,0
-22.959731,-67.786911,13.60,0.00,2.90,0.46,13.60,13.60,3.71,0.71,6446,2025-11-28 18:03:11.152,2025-11-28 15:03:11.153,13,0,0,45.530,-22.959730,-67.786916,0.00,-0.10,-2.90,1.10,1.40,119.40,0,1,0,97,88,-56609,14019,45530,2931.50,49,WP,1,0,0,0,0,0,0,1764352991152,4326,4327,4323,4325,4329,4317,18,,,,,,,0,0,0,-11.00,14.00,1194.00,0.00,0.00,39.00,14,136.00,29.02,4.56,0.00,-1.00,-29.00,0,,,100,99,13,2,0,0,1,1,0,,,,,0.0,0.0,0.0,0.0,0.0,0.0,0
-22.959731,-67.786912,13.90,0.00,3.00,0.44,13.90,13.90,3.71,0.71,6548,2025-11-28 18:03:11.254,2025-11-28 15:03:11.255,13,0,0,45.530,-22.959730,-67.786916,0.00,-0.10,-3.00,1.40,1.30,119.20,0,1,0,97,88,-56609,14019,45530,2931.50,49,WP,1,0,0,0,0,0,0,1764352991254,4326,4327,4323,4325,4329,4317,18,,,,,,,0,0,0,-14.00,13.00,1192.00,0.00,0.00,38.00,14,139.00,30.02,4.41,0.00,-1.00,-30.00,0,,,100,99,13,2,0,0,1,1,0,,,,,0.0,0.0,0.0,0.0,0.0,0.0,0
-22.959731,-67.786912,14.20,0.00,3.00,0.43,14.20,14.20,3.71,0.71,6555,2025-11-28 18:03:11.261,2025-11-28 15:03:11.261,13,0,0,45.530,-22.959730,-67.786916,0.00,-0.10,-3.00,1.00,1.20,119.00,0,1,0,97,88,-56609,14019,45530,2931.50,49,WP,1,0,0,0,0,0,0,1764352991261,4326,4327,4323,4325,4329,4317,18,,,,,,,0,0,0,-10.00,12.00,1190.00,0.00,0.00,40.00,14,142.00,30.02,4.31,0.00,-1.00,-30.00,0,,,100,99,13,2,0,0,1,1,0,,,,,0.0,0.0,0.0,0.0,0.0,0.0,0
-22.959730,-67.786912,14.50,0.00,3.00,0.42,14.50,14.50,3.71,0.71,6651,2025-11-28 18:03:11.358,2025-11-28 15:03:11.358,13,0,0,45.530,-22.959730,-67.786916,0.00,-0.10,-3.00,0.40,1.10,119.10,0,1,0,97,88,-56609,14019,45530,2931.50,49,WP,1,0,0,0,0,0,0,1764352991357,4326,4327,4323,4325,4329,4317,18,,,,,,,0,0,0,-4.00,11.00,1191.00,0.00,0.00,41.00,14,145.00,30.02,4.19,0.00,-1.00,-30.00,0,,,100,99,13,2,0,0,1,1,0,,,,,0.0,0.0,0.0,0.0,0.0,0.0,0
-22.959730,-67.786912,15.10,0.00,3.10,0.41,15.10,15.10,3.71,0.71,6853,2025-11-28 18:03:11.560,2025-11-28 15:03:11.560,13,0,0,45.530,-22.959730,-67.786916,0.00,0.00,-3.10,-0.60,1.60,119.50,0,1,0,97,88,-56609,14019,45530,2931.50,49,WP,1,0,0,0,0,0,0,1764352991559,4326,4327,4323,4325,4329,4317,18,,,,,,,0,0,0,6.00,16.00,1195.00,0.00,0.00,38.00,14,151.00,31.00,4.09,0.00,0.00,-31.00,0,,,100,98,13,2,0,0,1,1,0,,,,,0.0,0.0,0.0,0.0,0.0,0.0,0
-22.959730,-67.786912,15.50,0.00,3.00,0.41,15.50,15.50,3.71,0.71,6953,2025-11-28 18:03:11.660,2025-11-28 15:03:11.660,13,0,0,45.530,-22.959730,-67.786916,0.00,0.00,-3.00,-0.10,2.30,119.40,0,1,0,97,88,-56609,14019,45530,2931.50,49,WP,1,0,0,0,0,0,0,1764352991659,4326,4327,4323,4325,4329,4317,18,,,,,,,0,0,0,1.00,23.00,1194.00,0.00,0.00,37.00,14,155.00,30.00,4.12,0.00,0.00,-30.00,0,,,100,98,13,2,0,0,1,1,0,,,,,0.0,0.0,0.0,0.0,0.0,0.0,0
-22.959730,-67.786912,16.10,0.00,2.80,0.42,16.10,16.10,3.71,0.71,7252,2025-11-28 18:03:11.959,2025-11-28 15:03:11.959,13,0,0,45.530,-22.959730,-67.786916,0.00,0.00,-2.80,1.40,3.80,119.50,0,1,0,97,88,-56609,14019,45530,2931.50,49,WP,1,0,0,0,0,0,0,1764352991958,4326,4327,4323,4325,4329,4317,18,,,,,,,0,0,0,-14.00,38.00,1195.00,0.00,0.00,37.00,14,161.00,28.00,4.21,0.00,0.00,-28.00,0,,,100,98,13,2,0,0,1,1,0,,,,,0.0,0.0,0.0,0.0,0.0,0.0,0
-22.959730,-67.786912,16.40,0.00,2.70,0.42,16.40,16.40,3.71,0.71,7262,2025-11-28 18:03:11.969,2025-11-28 15:03:11.969,13,0,0,45.530,-22.959730,-67.786916,0.00,0.00,-2.70,1.60,3.90,119.40,0,1,0,97,88,-56609,14019,45530,2931.50,49,WP,1,0,0,0,0,0,0,1764352991968,4326,4327,4323,4325,4329,4317,18,,,,,,,0,0,0,-16.00,39.00,1194.00,0.00,0.00,37.00,14,164.00,27.00,4.20,0.00,0.00,-27.00,0,,,100,98,13,2,0,0,1,1,0,,,,,0.0,0.0,0.0,0.0,0.0,0.0,0
-22.959730,-67.786912,16.60,0.00,2.40,0.43,16.60,16.60,3.71,0.71,7367,2025-11-28 18:03:12.073,2025-11-28 15:03:12.073,13,0,0,45.530,-22.959730,-67.786916,0.00,0.00,-2.40,1.70,4.00,119.40,0,1,0,97,88,-56609,14019,45530,2931.50,49,WP,1,0,0,0,0,0,0,1764352992073,4326,4327,4323,4325,4329,4317,18,,,,,,,0,0,0,-17.00,40.00,1194.00,0.00,0.00,38.00,14,166.00,24.00,4.27,0.00,0.00,-24.00,0,,,100,98,13,2,0,0,1,1,0,,,,,0.0,0.0,0.0,0.0,0.0,0.0,0
-22.959730,-67.786912,16.90,0.00,2.20,0.43,16.90,16.90,3.71,0.71,7456,2025-11-28 18:03:12.163,2025-11-28 15:03:12.163,13,0,0,45.530,-22.959730,-67.786916,0.00,0.00,-2.20,1.70,3.90,119.30,0,1,0,97,88,-56609,14019,45530,2931.50,49,WP,1,0,0,0,0,0,0,1764352992162,4326,4327,4323,4325,4329,4317,18,,,,,,,0,0,0,-17.00,39.00,1193.00,0.00,0.00,38.00,14,169.00,22.00,4.26,0.00,0.00,-22.00,0,,,100,98,13,2,0,0,1,1,0,,,,,0.0,0.0,0.0,0.0,0.0,0.0,0
-22.959731,-67.786912,17.10,0.00,2.00,0.43,17.10,17.10,3.71,0.71,7561,2025-11-28 18:03:12.268,2025-11-28 15:03:12.268,13,0,0,45.530,-22.959730,-67.786916,0.00,0.00,-2.00,1.60,3.90,119.40,0,1,0,97,88,-56609,14019,45530,2931.50,49,WP,1,0,0,0,0,0,0,1764352992267,4326,4327,4323,4325,4329,4317,18,,,,,,,0,0,0,-16.00,39.00,1194.00,0.00,0.00,38.00,14,171.00,20.00,4.33,0.00,0.00,-20.00,0,,,100,98,13,2,0,0,1,1,0,,,,,0.0,0.0,0.0,0.0,0.0,0.0,0
-22.959731,-67.786912,17.30,0.00,1.80,0.44,17.30,17.30,3.71,0.71,7666,2025-11-28 18:03:12.372,2025-11-28 15:03:12.372,13,0,0,45.530,-22.959730,-67.786916,0.00,0.00,-1.80,1.50,3.70,119.40,0,1,0,97,88,-56609,14019,45530,2931.50,49,WP,1,0,0,0,0,0,0,1764352992372,3802,3801,3807,3797,3808,3775,18,,,,,,,0,0,0,-15.00,37.00,1194.00,0.00,0.00,38.00,14,173.00,18.00,4.36,0.00,0.00,-18.00,0,,,100,98,13,2,0,0,1,1,0,,,,,0.0,0.0,0.0,0.0,0.0,0.0,0
-22.959731,-67.786912,17.40,0.00,1.70,0.45,17.40,17.40,3.71,0.71,7758,2025-11-28 18:03:12.465,2025-11-28 15:03:12.465,13,0,0,45.530,-22.959730,-67.786916,-0.10,0.00,-1.70,1.70,3.40,119.40,0,1,0,97,88,-56609,14019,45530,2931.50,49,WP,1,0,0,0,0,0,0,1764352992464,3802,3801,3807,3797,3808,3775,18,,,,,,,0,0,0,-17.00,34.00,1194.00,0.00,0.00,38.00,14,174.00,17.03,4.48,-1.00,0.00,-17.00,0,,,100,97,13,2,0,0,1,1,0,,,,,0.0,0.0,0.0,0.0,0.0,0.0,0
-22.959731,-67.786911,17.60,0.00,1.50,0.45,17.60,17.60,3.71,0.71,7864,2025-11-28 18:03:12.571,2025-11-28 15:03:12.571,13,0,0,45.530,-22.959730,-67.786916,-0.10,0.00,-1.50,1.90,3.10,119.40,0,1,0,97,88,-56609,14019,45530,2931.50,49,WP,1,0,0,0,0,0,0,1764352992570,3802,3801,3807,3797,3808,3775,18,,,,,,,0,0,0,-19.00,31.00,1194.00,0.00,0.00,38.00,14,176.00,15.03,4.53,-1.00,0.00,-15.00,0,,,100,97,13,2,0,0,1,1,0,,,,,0.0,0.0,0.0,0.0,0.0,0.0,0
-22.959731,-67.786911,17.90,0.00,1.20,0.47,17.90,17.90,3.71,0.71,8061,2025-11-28 18:03:12.768,2025-11-28 15:03:12.768,13,0,0,45.530,-22.959730,-67.786916,-0.10,0.00,-1.20,2.10,3.30,119.40,0,1,0,97,88,-56609,14019,45530,2931.50,49,WP,1,0,0,0,0,0,0,1764352992767,3802,3801,3807,3797,3808,3775,18,,,,,,,0,0,0,-21.00,33.00,1194.00,0.00,0.00,39.00,14,179.00,12.04,4.71,-1.00,0.00,-12.00,0,,,100,97,13,2,0,0,1,1,0,,,,,0.0,0.0,0.0,0.0,0.0,0.0,0
-22.959731,-67.786911,18.20,0.00,1.11,0.50,18.20,18.20,3.71,0.71,8262,2025-11-28 18:03:12.969,2025-11-28 15:03:12.969,13,0,0,45.530,-22.959730,-67.786916,-0.10,0.10,-1.10,2.60,2.80,119.60,0,1,0,97,88,-56609,14019,45530,2931.50,49,WP,1,0,0,0,0,0,0,1764352992968,3802,3801,3807,3797,3808,3775,18,,,,,,,0,0,0,-26.00,28.00,1196.00,0.00,0.00,38.00,14,182.00,11.09,4.99,-1.00,1.00,-11.00,0,,,100,96,13,2,0,0,1,1,0,,,,,0.0,0.0,0.0,0.0,0.0,0.0,0
-22.959732,-67.786911,18.30,0.00,1.11,0.52,18.30,18.30,3.71,0.71,8366,2025-11-28 18:03:13.073,2025-11-28 15:03:13.073,13,0,0,45.530,-22.959730,-67.786916,-0.10,0.10,-1.10,2.90,2.40,119.60,0,1,0,97,88,-56609,14019,45530,2931.50,49,WP,1,0,0,0,0,0,0,1764352993072,3802,3801,3807,3797,3808,3775,18,,,,,,,0,0,0,-29.00,24.00,1196.00,0.00,0.00,36.00,14,183.00,11.09,5.22,-1.00,1.00,-11.00,0,,,100,96,13,2,0,0,1,1,0,,,,,0.0,0.0,0.0,0.0,0.0,0.0,0
-22.959732,-67.786911,18.40,0.00,1.01,0.55,18.40,18.40,3.71,0.71,8466,2025-11-28 18:03:13.173,2025-11-28 15:03:13.173,13,0,0,45.530,-22.959730,-67.786916,-0.10,0.10,-1.00,3.40,2.00,119.60,0,1,0,97,88,-56609,14019,45530,2931.50,49,WP,1,0,0,0,0,0,0,1764352993172,3802,3801,3807,3797,3808,3775,18,,,,,,,0,0,0,-34.00,20.00,1196.00,0.00,0.00,36.00,14,184.00,10.10,5.46,-1.00,1.00,-10.00,0,,,100,96,13,2,0,0,1,1,0,,,,,0.0,0.0,0.0,0.0,0.0,0.0,0
-22.959732,-67.786910,18.50,0.00,1.01,0.58,18.50,18.50,3.71,0.71,8563,2025-11-28 18:03:13.269,2025-11-28 15:03:13.269,13,0,0,45.610,-22.959730,-67.786916,-0.10,0.10,-1.00,4.00,1.60,119.60,0,1,0,97,88,-55603,14019,45610,2931.50,49,WP,1,0,0,0,0,0,0,1764352993269,3802,3801,3807,3797,3808,3775,18,,,,,,,0,0,0,-40.00,16.00,1196.00,0.00,0.00,36.00,14,185.00,10.10,5.76,-1.00,1.00,-10.00,0,,,100,96,13,2,0,0,1,1,0,,,,,0.0,0.0,0.0,0.0,0.0,0.0,0
-22.959732,-67.786910,18.60,0.00,1.11,0.60,18.60,18.60,3.71,0.71,8679,2025-11-28 18:03:13.385,2025-11-28 15:03:13.385,13,0,0,45.610,-22.959730,-67.786916,-0.10,0.10,-1.10,4.30,1.30,119.60,0,1,0,97,88,-55603,14019,45610,2931.50,49,WP,1,0,0,0,0,0,0,1764352993385,3802,3801,3807,3797,3808,3775,18,,,,,,,0,0,0,-43.00,13.00,1196.00,0.00,0.00,37.00,14,186.00,11.09,5.96,-1.00,1.00,-11.00,0,,,100,96,13,2,0,0,1,1,0,,,,,0.0,0.0,0.0,0.0,0.0,0.0,0
-22.959732,-67.786910,18.80,0.00,1.11,0.62,18.80,18.80,3.71,0.71,8763,2025-11-28 18:03:13.470,2025-11-28 15:03:13.470,13,0,0,45.610,-22.959730,-67.786916,-0.10,0.10,-1.10,4.50,1.30,119.60,0,1,0,97,88,-55603,14019,45610,2931.50,49,WP,1,0,0,0,0,0,0,1764352993469,3802,3801,3807,3797,3808,3775,18,,,,,,,0,0,0,-45.00,13.00,1196.00,0.00,0.00,36.00,14,188.00,11.09,6.18,-1.00,1.00,-11.00,0,,,100,96,13,2,0,0,1,1,0,,,,,0.0,0.0,0.0,0.0,0.0,0.0,0
-22.959732,-67.786910,18.90,0.00,1.10,0.63,18.90,18.90,3.71,0.71,8868,2025-11-28 18:03:13.575,2025-11-28 15:03:13.575,13,0,0,45.610,-22.959730,-67.786916,0.00,0.10,-1.10,4.50,1.70,119.60,0,1,0,97,88,-55603,14019,45610,2931.50,49,WP,1,0,0,0,0,0,0,1764352993574,3802,3801,3807,3797,3808,3775,18,,,,,,,0,0,0,-45.00,17.00,1196.00,0.00,0.00,36.00,14,189.00,11.05,6.33,0.00,1.00,-11.00,0,,,100,97,13,2,0,0,1,1,0,,,,,0.0,0.0,0.0,0.0,0.0,0.0,0
-22.959732,-67.786910,19.00,0.00,1.10,0.65,19.00,19.00,3.71,0.71,9070,2025-11-28 18:03:13.777,2025-11-28 15:03:13.777,13,0,0,45.610,-22.959730,-67.786916,0.00,0.10,-1.10,4.60,2.30,119.60,0,1,0,97,88,-55603,14019,45610,2931.50,49,WP,1,0,0,0,0,0,0,1764352993776,3802,3801,3807,3797,3808,3775,18,,,,,,,0,0,0,-46.00,23.00,1196.00,0.00,0.00,36.00,14,190.00,11.05,6.52,0.00,1.00,-11.00,0,,,100,97,13,2,0,0,1,1,0,,,,,0.0,0.0,0.0,0.0,0.0,0.0,0
-22.959732,-67.786910,19.10,0.00,1.10,0.66,19.10,19.10,3.71,0.71,9077,2025-11-28 18:03:13.783,2025-11-28 15:03:13.783,13,0,0,45.610,-22.959730,-67.786916,0.00,0.10,-1.10,4.30,2.80,119.50,0,1,0,97,88,-55603,14019,45610,2931.50,49,WP,1,0,0,0,0,0,0,1764352993783,3802,3801,3807,3797,3808,3775,18,,,,,,,0,0,0,-43.00,28.00,1195.00,0.00,0.00,36.00,14,191.00,11.05,6.56,0.00,1.00,-11.00,0,,,100,97,13,2,0,0,1,1,0,,,,,0.0,0.0,0.0,0.0,0.0,0.0,0
-22.959732,-67.786910,19.30,0.00,1.10,0.66,19.30,19.30,3.71,0.71,9181,2025-11-28 18:03:13.887,2025-11-28 15:03:13.888,13,0,0,45.610,-22.959730,-67.786916,0.00,0.00,-1.10,4.20,3.40,119.40,0,1,0,97,88,-55603,14019,45610,2931.50,49,WP,1,0,0,0,0,0,0,1764352993887,3802,3801,3807,3797,3808,3775,18,,,,,,,0,0,0,-42.00,34.00,1194.00,0.00,0.00,37.00,14,193.00,11.00,6.63,0.00,0.00,-11.00,0,,,100,97,13,2,0,0,1,1,0,,,,,0.0,0.0,0.0,0.0,0.0,0.0,0
-22.959732,-67.786910,19.40,0.00,1.00,0.66,19.40,19.40,3.71,0.71,9266,2025-11-28 18:03:13.973,2025-11-28 15:03:13.973,13,0,0,45.610,-22.959730,-67.786916,0.00,0.00,-1.00,3.70,3.50,120.90,0,1,0,97,88,-55603,14019,45610,2931.50,49,WP,1,0,0,0,0,0,0,1764352993972,3802,3801,3807,3797,3808,3775,18,,,,,,,0,0,0,-37.00,35.00,1209.00,0.00,0.00,38.00,14,194.00,10.00,6.58,0.00,0.00,-10.00,0,,,100,97,13,2,0,0,1,1,0,,,,,0.0,0.0,0.0,0.0,0.0,0.0,0
-22.959732,-67.786910,19.50,0.00,0.70,0.66,19.50,19.50,3.71,0.71,9381,2025-11-28 18:03:14.087,2025-11-28 15:03:14.087,13,0,0,45.610,-22.959730,-67.786916,0.00,0.00,-0.70,2.20,3.60,125.50,0,1,0,97,88,-55603,14019,45610,2931.50,49,WP,1,0,0,0,0,0,0,1764352994087,3802,3801,3807,3797,3808,3775,18,,,,,,,0,0,0,-22.00,36.00,1255.00,0.00,0.00,17.00,14,195.00,7.00,6.63,0.00,0.00,-7.00,0,,,100,98,13,2,0,0,1,1,0,,,,,0.0,0.0,0.0,0.0,0.0,0.0,0
-22.959732,-67.786910,19.60,0.00,0.50,0.66,19.60,19.60,3.71,0.71,9481,2025-11-28 18:03:14.187,2025-11-28 15:03:14.187,13,0,0,45.610,-22.959730,-67.786916,0.00,0.00,-0.50,0.50,4.00,132.30,0,1,0,97,88,-55603,14019,45610,2931.50,49,WP,1,0,0,0,0,0,0,1764352994187,3802,3801,3807,3797,3808,3775,18,,,,,,,0,0,0,-5.00,40.00,1323.00,0.00,0.00,-21.00,14,196.00,5.00,6.60,0.00,0.00,-5.00,0,,,100,98,13,2,0,0,1,1,0,,,,,0.0,0.0,0.0,0.0,0.0,0.0,0
-22.959732,-67.786910,19.60,0.00,0.30,0.67,19.60,19.60,3.71,0.71,9576,2025-11-28 18:03:14.283,2025-11-28 15:03:14.283,13,0,0,45.610,-22.959730,-67.786916,0.00,0.00,-0.30,-0.70,4.80,141.60,0,1,0,97,88,-55603,14019,45610,2931.50,49,WP,1,0,0,0,0,0,0,1764352994282,3802,3801,3807,3797,3808,3775,18,,,,,,,0,0,0,7.00,48.00,1416.00,0.00,0.00,-106.00,14,196.00,3.00,6.65,0.00,0.00,-3.00,0,,,100,98,13,2,0,0,1,1,0,,,,,0.0,0.0,0.0,0.0,0.0,0.0,0
-22.959732,-67.786910,19.60,0.00,0.00,0.67,19.60,19.60,3.71,0.71,9778,2025-11-28 18:03:14.485,2025-11-28 15:03:14.485,13,0,0,45.610,-22.959730,-67.786916,0.00,0.00,0.00,-0.40,4.10,159.80,0,1,0,97,88,-55603,14019,45610,2931.50,49,WP,1,0,0,0,0,0,0,1764352994484,3802,3801,3807,3797,3808,3775,18,,,,,,,0,0,0,4.00,41.00,1598.00,0.00,-1.00,-172.00,14,196.00,0.00,6.71,0.00,0.00,0.00,0,,,100,98,13,2,0,0,1,1,0,,,,,0.0,0.0,0.0,0.0,0.0,0.0,0
-22.959732,-67.786910,19.60,0.00,0.20,0.66,19.60,19.60,3.71,0.71,9882,2025-11-28 18:03:14.588,2025-11-28 15:03:14.588,13,0,0,45.610,-22.959730,-67.786916,0.00,0.00,0.20,0.50,3.20,167.10,0,1,0,97,88,-55603,14019,45610,2931.50,49,WP,1,0,0,0,0,0,0,1764352994588,3802,3801,3807,3797,3808,3775,18,,,,,,,0,0,0,-5.00,32.00,1671.00,0.00,-1.00,-161.00,14,196.00,2.00,6.59,0.00,0.00,2.00,0,,,100,100,13,2,0,0,1,1,0,,,,,0.0,0.0,0.0,0.0,0.0,0.0,0
-22.959732,-67.786910,19.60,0.00,0.20,0.65,19.60,19.60,3.71,0.71,9977,2025-11-28 18:03:14.683,2025-11-28 15:03:14.683,13,0,0,45.610,-22.959730,-67.786916,0.00,0.00,0.20,2.00,3.00,172.50,0,1,0,97,88,-55603,14019,45610,2931.50,49,WP,1,0,0,0,0,0,0,1764352994683,3802,3801,3807,3797,3808,3775,18,,,,,,,0,0,0,-20.00,30.00,1725.00,0.00,-2.00,-165.00,14,196.00,2.00,6.52,0.00,0.00,2.00,0,,,100,100,13,2,0,0,1,1,0,,,,,0.0,0.0,0.0,0.0,0.0,0.0,0
-22.959732,-67.786910,19.60,0.00,0.30,0.64,19.60,19.60,3.71,0.71,10078,2025-11-28 18:03:14.784,2025-11-28 15:03:14.784,13,0,0,45.610,-22.959730,-67.786916,0.00,0.00,0.30,3.70,2.80,176.20,0,1,0,97,88,-55603,14019,45610,2931.50,49,WP,1,0,0,0,0,0,0,1764352994784,3802,3801,3807,3797,3808,3775,18,,,,,,,0,0,0,-37.00,28.00,1762.00,0.00,-3.00,-131.00,14,196.00,3.00,6.36,0.00,0.00,3.00,0,,,100,100,13,2,0,0,1,1,0,,,,,0.0,0.0,0.0,0.0,0.0,0.0,0
-22.959732,-67.786910,19.60,0.00,0.20,0.63,19.60,19.60,3.71,0.71,10180,2025-11-28 18:03:14.886,2025-11-28 15:03:14.886,13,0,0,45.610,-22.959730,-67.786916,0.00,0.00,0.20,4.50,2.60,178.40,0,1,0,97,88,-55603,14019,45610,2931.50,49,WP,1,0,0,0,0,0,0,1764352994886,3802,3801,3807,3797,3808,3775,18,,,,,,,0,0,0,-45.00,26.00,1784.00,0.00,-2.00,-110.00,14,196.00,2.00,6.26,0.00,0.00,2.00,0,,,100,100,13,2,0,0,1,1,0,,,,,0.0,0.0,0.0,0.0,0.0,0.0,0
-22.959732,-67.786910,19.50,0.00,0.22,0.61,19.60,19.60,3.71,0.71,10282,2025-11-28 18:03:14.988,2025-11-28 15:03:14.989,13,0,0,45.610,-22.959730,-67.786916,0.10,0.00,0.20,3.70,1.90,179.40,0,1,0,97,88,-55603,14019,45610,2931.50,49,WP,1,0,0,0,0,0,0,1764352994988,3802,3801,3807,3797,3808,3775,18,,,,,,,0,0,0,-37.00,19.00,1794.00,0.00,-1.00,-72.00,14,195.00,2.24,6.09,1.00,0.00,2.00,0,,,100,100,13,2,0,0,1,1,0,,,,,0.0,0.0,0.0,0.0,0.0,0.0,0
-22.959732,-67.786910,19.50,0.00,0.14,0.60,19.60,19.60,3.71,0.71,10379,2025-11-28 18:03:15.085,2025-11-28 15:03:15.085,13,0,0,45.610,-22.959730,-67.786916,0.10,0.00,0.10,1.40,1.60,179.90,0,1,0,97,88,-55603,14019,45610,2931.50,49,WP,1,0,0,0,0,0,0,1764352995085,3802,3801,3807,3797,3808,3775,18,,,,,,,0,0,0,-14.00,16.00,1799.00,0.00,0.00,-37.00,14,195.00,1.41,5.98,1.00,0.00,1.00,0,,,100,100,13,2,0,0,1,1,0,,,,,0.0,0.0,0.0,0.0,0.0,0.0,0
-22.959732,-67.786910,19.60,0.00,0.10,0.59,19.60,19.60,3.71,0.71,10482,2025-11-28 18:03:15.189,2025-11-28 15:03:15.189,13,0,0,46.261,-22.959730,-67.786916,0.10,0.00,0.00,-2.20,1.20,-179.80,0,1,0,97,88,-50054,14019,46261,2931.50,49,WP,1,0,0,0,0,0,0,1764352995188,3802,3801,3807,3797,3808,3775,18,,,,,,,0,0,0,22.00,12.00,-1798.00,0.00,0.00,-5.00,14,196.00,1.00,5.85,1.00,0.00,0.00,0,,,100,92,13,2,0,0,1,1,0,,,,,0.0,0.0,0.0,0.0,0.0,0.0,0
-22.959731,-67.786910,19.60,0.00,0.10,0.58,19.60,19.60,3.71,0.71,10581,2025-11-28 18:03:15.287,2025-11-28 15:03:15.287,13,0,0,46.261,-22.959730,-67.786916,0.10,0.00,0.00,-6.90,1.30,-179.60,0,1,0,97,88,-50054,14019,46261,2931.50,49,WP,1,0,0,0,0,0,0,1764352995287,3802,3801,3807,3797,3808,3775,18,,,,,,,0,0,0,69.00,13.00,-1796.00,0.00,0.00,18.00,14,196.00,1.00,5.80,1.00,0.00,0.00,0,,,100,92,13,2,0,0,1,1,0,,,,,0.0,0.0,0.0,0.0,0.0,0.0,0
-22.959731,-67.786910,19.60,0.00,0.00,0.59,19.60,19.60,3.71,0.71,10683,2025-11-28 18:03:15.389,2025-11-28 15:03:15.389,13,0,0,46.261,-22.959730,-67.786916,0.00,0.00,0.00,-11.20,1.50,-179.40,0,1,0,97,88,-50054,14019,46261,2931.50,49,WP,1,0,0,0,0,0,0,1764352995389,3802,3801,3807,3797,3808,3775,18,,,,,,,0,0,0,112.00,15.00,-1794.00,0.00,0.00,38.00,14,196.00,0.00,5.86,0.00,0.00,0.00,0,,,100,92,13,2,0,0,1,1,0,,,,,0.0,0.0,0.0,0.0,0.0,0.0,0
-22.959731,-67.786910,19.60,0.00,0.20,0.60,19.60,19.60,3.71,0.71,10779,2025-11-28 18:03:15.486,2025-11-28 15:03:15.486,13,0,0,46.261,-22.959730,-67.786916,-0.20,0.00,0.00,-14.50,1.90,-179.30,0,1,0,97,88,-50054,14019,46261,2931.50,49,WP,1,0,0,0,0,0,0,1764352995485,3802,3801,3807,3797,3808,3775,18,,,,,,,0,0,0,145.00,19.00,-1793.00,0.00,0.00,53.00,14,196.00,2.00,6.00,-2.00,0.00,0.00,0,,,100,92,13,2,0,0,1,1,0,,,,,0.0,0.0,0.0,0.0,0.0,0.0,0
-22.959732,-67.786910,19.60,0.00,0.41,0.63,19.60,19.60,3.71,0.71,10880,2025-11-28 18:03:15.587,2025-11-28 15:03:15.587,13,0,0,46.261,-22.959730,-67.786916,-0.40,0.10,0.00,-16.20,2.30,-179.50,0,1,0,97,88,-50054,14019,46261,2931.50,49,WP,1,0,0,0,0,0,0,1764352995586,3802,3801,3807,3797,3808,3775,18,,,,,,,0,0,0,162.00,23.00,-1795.00,0.00,0.00,66.00,14,196.00,4.12,6.34,-4.00,1.00,0.00,0,,,100,92,13,2,0,0,1,1,0,,,,,0.0,0.0,0.0,0.0,0.0,0.0,0
-22.959732,-67.786910,19.60,0.00,0.71,0.68,19.60,19.60,3.71,0.71,10984,2025-11-28 18:03:15.690,2025-11-28 15:03:15.691,13,0,0,46.261,-22.959730,-67.786916,-0.70,0.10,0.00,-16.70,2.70,-179.60,0,1,0,97,88,-50054,14019,46261,2931.50,49,WP,1,0,0,0,0,0,0,1764352995690,3802,3801,3807,3797,3808,3775,18,,,,,,,0,0,0,167.00,27.00,-1796.00,0.00,0.00,66.00,14,196.00,7.07,6.79,-7.00,1.00,0.00,0,,,100,92,13,2,0,0,1,1,0,,,,,0.0,0.0,0.0,0.0,0.0,0.0,0
-22.959734,-67.786909,19.60,0.00,1.00,0.76,19.60,19.60,3.71,0.76,11082,2025-11-28 18:03:15.789,2025-11-28 15:03:15.789,13,0,0,46.261,-22.959730,-67.786916,-1.00,0.10,0.00,-16.20,3.00,-179.70,0,1,0,97,88,-50054,14019,46261,2931.50,49,WP,1,0,0,0,0,0,0,1764352995788,3802,3801,3807,3797,3808,3775,18,,,,,,,0,0,0,162.00,30.00,-1797.00,0.00,0.00,91.00,14,196.00,10.05,7.58,-10.00,1.00,0.00,0,,,100,92,13,2,0,0,1,1,0,,,,,0.0,0.0,0.0,0.0,0.0,0.0,0
-22.959735,-67.786909,19.60,0.00,1.32,0.86,19.60,19.60,3.71,0.86,11183,2025-11-28 18:03:15.890,2025-11-28 15:03:15.890,13,0,0,46.261,-22.959730,-67.786916,-1.30,0.20,0.00,-15.60,3.60,-179.80,0,1,0,97,88,-50054,14019,46261,2931.50,49,WP,1,0,0,0,0,0,0,1764352995889,3802,3801,3807,3797,3808,3775,18,,,,,,,0,0,0,156.00,36.00,-1798.00,0.00,0.00,91.00,14,196.00,13.15,8.55,-13.00,2.00,0.00,0,,,100,92,13,2,0,0,1,1,0,,,,,0.0,0.0,0.0,0.0,0.0,0.0,0
-22.959737,-67.786909,19.60,0.00,1.51,1.00,19.60,19.60,3.71,1.00,11288,2025-11-28 18:03:15.994,2025-11-28 15:03:15.994,13,0,0,46.261,-22.959730,-67.786916,-1.50,0.20,0.00,-14.90,4.20,-179.80,0,1,0,97,88,-50054,14019,46261,2931.50,49,WP,1,0,0,0,0,0,0,1764352995994,3802,3801,3807,3797,3808,3775,18,,,,,,,0,0,0,149.00,42.00,-1798.00,0.00,0.00,90.00,14,196.00,15.13,10.02,-15.00,2.00,0.00,0,,,100,92,13,2,0,0,1,1,0,,,,,0.0,0.0,0.0,0.0,0.0,0.0,0
-22.959738,-67.786908,19.70,0.00,1.80,1.17,19.70,19.70,3.71,1.17,11389,2025-11-28 18:03:16.095,2025-11-28 15:03:16.095,13,0,0,46.261,-22.959730,-67.786916,-1.80,0.10,0.00,-14.50,4.50,-179.80,0,1,0,97,88,-50054,14019,46261,2931.50,49,WP,1,0,0,0,0,0,0,1764352996095,3802,3801,3807,3797,3808,3775,18,,,,,,,0,0,0,145.00,45.00,-1798.00,0.00,0.00,89.00,14,197.00,18.03,11.69,-18.00,1.00,0.00,0,,,100,92,13,2,0,0,1,1,0,,,,,0.0,0.0,0.0,0.0,0.0,0.0,0
-22.959741,-67.786908,19.70,0.00,2.00,1.39,19.70,19.70,3.71,1.39,11495,2025-11-28 18:03:16.202,2025-11-28 15:03:16.202,13,0,0,46.261,-22.959730,-67.786916,-2.00,0.10,0.00,-14.40,5.00,-179.80,0,1,0,97,88,-50054,14019,46261,2931.50,49,WP,1,0,0,0,0,0,0,1764352996201,3802,3801,3807,3797,3808,3775,18,,,,,,,0,0,0,144.00,50.00,-1798.00,0.00,0.00,89.00,14,197.00,20.02,13.87,-20.00,1.00,0.00,0,,,100,94,13,2,0,0,1,1,0,,,,,0.0,0.0,0.0,0.0,0.0,0.0,0
-22.959743,-67.786908,19.70,0.00,2.20,1.62,19.70,19.70,3.71,1.62,11585,2025-11-28 18:03:16.291,2025-11-28 15:03:16.291,13,0,0,46.261,-22.959730,-67.786916,-2.20,0.10,0.00,-14.70,4.90,-179.80,0,1,0,97,88,-50054,14019,46261,2931.50,49,WP,1,0,0,0,0,0,0,1764352996291,3802,3801,3807,3797,3808,3775,18,,,,,,,0,0,0,147.00,49.00,-1798.00,0.00,0.00,89.00,14,197.00,22.02,16.16,-22.00,1.00,0.00,0,,,100,94,13,2,0,0,1,1,0,,,,,0.0,0.0,0.0,0.0,0.0,0.0,0
-22.959746,-67.786908,19.70,0.00,2.40,1.90,19.70,19.70,3.71,1.90,11694,2025-11-28 18:03:16.401,2025-11-28 15:03:16.401,13,0,0,46.261,-22.959730,-67.786916,-2.40,0.10,0.00,-15.20,4.90,-179.70,0,1,0,97,88,-50054,14019,46261,2931.50,49,WP,1,0,0,0,0,0,0,1764352996400,3802,3801,3807,3797,3808,3775,18,,,,,,,0,0,0,152.00,49.00,-1797.00,0.00,0.00,89.00,14,197.00,24.02,19.00,-24.00,1.00,0.00,0,,,100,94,13,2,0,0,1,1,0,,,,,0.0,0.0,0.0,0.0,0.0,0.0,0
-22.959749,-67.786908,19.70,0.00,2.70,2.19,19.70,19.70,3.71,2.19,11789,2025-11-28 18:03:16.496,2025-11-28 15:03:16.496,13,0,0,46.261,-22.959730,-67.786916,-2.70,0.00,0.00,-15.70,4.70,-179.60,0,1,0,97,88,-50054,14019,46261,2931.50,49,WP,1,0,0,0,0,0,0,1764352996495,3802,3801,3807,3797,3808,3775,18,,,,,,,0,0,0,157.00,47.00,-1796.00,0.00,0.00,89.00,14,197.00,27.00,21.92,-27.00,0.00,0.00,0,,,100,94,13,2,0,0,1,1,0,,,,,0.0,0.0,0.0,0.0,0.0,0.0,0
-22.959752,-67.786908,19.70,0.00,2.90,2.53,19.70,19.70,3.71,2.53,11898,2025-11-28 18:03:16.604,2025-11-28 15:03:16.604,13,0,0,46.261,-22.959730,-67.786916,-2.90,0.00,0.00,-16.20,4.50,-179.60,0,1,0,97,88,-50054,14019,46261,2931.50,49,WP,1,0,0,0,0,0,0,1764352996604,3802,3801,3807,3797,3808,3775,18,,,,,,,0,0,0,162.00,45.00,-1796.00,0.00,0.00,89.00,14,197.00,29.00,25.28,-29.00,0.00,0.00,0,,,100,94,13,2,0,0,1,1,0,,,,,0.0,0.0,0.0,0.0,0.0,0.0,0
-22.959755,-67.786908,19.70,0.00,3.10,2.87,19.70,19.70,3.71,2.87,11999,2025-11-28 18:03:16.705,2025-11-28 15:03:16.705,13,0,0,46.261,-22.959730,-67.786916,-3.10,0.00,0.00,-16.70,4.40,-179.60,0,1,0,97,88,-50054,14019,46261,2931.50,49,WP,1,0,0,0,0,0,0,1764352996705,3802,3801,3807,3797,3808,3775,18,,,,,,,0,0,0,167.00,44.00,-1796.00,0.00,0.00,89.00,14,197.00,31.00,28.71,-31.00,0.00,0.00,0,,,100,94,13,2,0,0,1,1,0,,,,,0.0,0.0,0.0,0.0,0.0,0.0,0
-22.959759,-67.786908,19.70,0.00,3.40,3.26,19.70,19.70,3.71,3.26,12089,2025-11-28 18:03:16.796,2025-11-28 15:03:16.796,13,0,0,46.261,-22.959730,-67.786916,-3.40,0.00,0.10,-17.20,4.20,-179.60,0,1,0,97,88,-50054,14019,46261,2931.50,49,WP,1,0,0,0,0,0,0,1764352996795,3802,3801,3807,3797,3808,3775,18,,,,,,,0,0,0,172.00,42.00,-1796.00,0.00,0.00,90.00,14,197.00,34.01,32.59,-34.00,0.00,1.00,0,,,100,97,13,2,0,0,1,1,0,,,,,0.0,0.0,0.0,0.0,0.0,0.0,0
-22.959763,-67.786908,19.70,0.00,3.60,3.66,19.70,19.70,3.71,3.66,12194,2025-11-28 18:03:16.900,2025-11-28 15:03:16.900,13,0,0,46.261,-22.959730,-67.786916,-3.60,0.00,0.10,-17.80,4.40,-179.70,0,1,0,97,88,-50054,14019,46261,2931.50,49,WP,1,0,0,0,0,0,0,1764352996900,3802,3801,3807,3797,3808,3775,18,,,,,,,0,0,0,178.00,44.00,-1797.00,0.00,0.00,90.00,14,197.00,36.01,36.58,-36.00,0.00,1.00,0,,,100,97,13,2,0,0,1,1,0,,,,,0.0,0.0,0.0,0.0,0.0,0.0,0
-22.959767,-67.786908,19.70,0.00,3.90,4.11,19.70,19.70,3.90,4.11,12297,2025-11-28 18:03:17.004,2025-11-28 15:03:17.004,13,0,0,46.261,-22.959730,-67.786916,-3.90,0.00,0.10,-17.80,4.40,-179.70,0,1,0,97,88,-50054,14019,46261,2931.50,49,WP,1,0,0,0,0,0,0,1764352997003,3802,3801,3807,3797,3808,3775,18,,,,,,,0,0,0,178.00,44.00,-1797.00,0.00,0.00,90.00,14,197.00,39.01,41.09,-39.00,0.00,1.00,0,,,100,97,13,2,0,0,1,1,0,,,,,0.0,0.0,0.0,0.0,0.0,0.0,0
-22.959771,-67.786908,19.70,0.00,4.20,4.57,19.70,19.70,4.20,4.57,12391,2025-11-28 18:03:17.098,2025-11-28 15:03:17.098,13,0,0,46.261,-22.959730,-67.786916,-4.20,0.00,0.00,-17.60,4.30,-179.70,0,1,0,97,88,-50054,14019,46261,2931.50,49,WP,1,0,0,0,0,0,0,1764352997097,3802,3801,3807,3797,3808,3775,18,,,,,,,0,0,0,176.00,43.00,-1797.00,0.00,0.00,90.00,14,197.00,42.00,45.71,-42.00,0.00,0.00,0,,,100,97,13,2,0,0,1,1,0,,,,,0.0,0.0,0.0,0.0,0.0,0.0,0
-22.959776,-67.786908,19.70,0.00,4.40,5.08,19.70,19.70,4.40,5.08,12495,2025-11-28 18:03:17.201,2025-11-28 15:03:17.201,13,0,0,45.841,-22.959730,-67.786916,-4.40,0.00,0.00,-17.20,4.20,-179.60,0,1,0,97,88,-51367,14019,45841,2941.50,49,WP,1,0,0,0,0,0,0,1764352997201,3802,3801,3807,3797,3808,3775,18,,,,,,,0,0,0,172.00,42.00,-1796.00,0.00,0.00,90.00,14,197.00,44.00,50.83,-44.00,0.00,0.00,0,,,100,97,13,2,0,0,1,1,0,,,,,0.0,0.0,0.0,0.0,0.0,0.0,0
-22.959780,-67.786908,19.70,0.00,4.70,5.60,19.70,19.70,4.70,5.60,12597,2025-11-28 18:03:17.304,2025-11-28 15:03:17.304,13,0,0,45.841,-22.959730,-67.786916,-4.70,0.00,0.00,-17.00,4.10,-179.50,0,1,0,97,88,-51367,14019,45841,2941.50,49,WP,1,0,0,0,0,0,0,1764352997303,3802,3801,3807,3797,3808,3775,18,,,,,,,0,0,0,170.00,41.00,-1795.00,0.00,0.00,89.00,14,197.00,47.00,56.02,-47.00,0.00,0.00,0,,,100,97,13,2,0,0,1,1,0,,,,,0.0,0.0,0.0,0.0,0.0,0.0,0
-22.959786,-67.786908,19.70,0.00,5.00,6.18,19.70,19.70,5.00,6.18,12697,2025-11-28 18:03:17.404,2025-11-28 15:03:17.404,13,0,0,45.841,-22.959730,-67.786916,-5.00,0.00,0.00,-16.70,4.00,-179.50,0,1,0,97,88,-51367,14019,45841,2941.50,49,WP,1,0,0,0,0,0,0,1764352997403,3802,3801,3807,3797,3808,3775,18,,,,,,,0,0,0,167.00,40.00,-1795.00,0.00,0.00,89.00,14,197.00,50.00,61.76,-50.00,0.00,0.00,0,,,100,97,13,2,0,0,1,1,0,,,,,0.0,0.0,0.0,0.0,0.0,0.0,0
-22.959791,-67.786908,19.70,0.00,5.30,6.75,19.70,19.70,5.30,6.75,12794,2025-11-28 18:03:17.500,2025-11-28 15:03:17.500,13,0,0,45.841,-22.959730,-67.786916,-5.30,0.00,0.00,-16.40,3.90,-179.50,0,1,0,97,88,-51367,14019,45841,2941.50,49,WP,1,0,0,0,0,0,0,1764352997500,3802,3801,3807,3797,3808,3775,18,,,,,,,0,0,0,164.00,39.00,-1795.00,0.00,0.00,90.00,14,197.00,53.00,67.53,-53.00,0.00,0.00,0,,,100,97,13,2,0,0,1,1,0,,,,,0.0,0.0,0.0,0.0,0.0,0.0,0
-22.959803,-67.786909,19.70,0.00,5.80,8.04,19.70,19.70,5.80,8.04,12997,2025-11-28 18:03:17.703,2025-11-28 15:03:17.703,13,0,0,45.841,-22.959730,-67.786916,-5.80,0.00,0.00,-15.80,3.60,-179.50,0,1,0,97,88,-51367,14019,45841,2941.50,49,WP,1,0,0,0,0,0,0,1764352997703,3802,3801,3807,3797,3808,3775,18,,,,,,,0,0,0,158.00,36.00,-1795.00,0.00,0.00,89.00,14,197.00,58.00,80.40,-58.00,0.00,0.00,0,,,100,97,13,2,0,0,1,1,0,,,,,0.0,0.0,0.0,0.0,0.0,0.0,0
-22.959809,-67.786909,19.70,0.00,6.10,8.74,19.70,19.70,6.10,8.74,13102,2025-11-28 18:03:17.809,2025-11-28 15:03:17.809,13,0,0,45.841,-22.959730,-67.786916,-6.10,0.00,0.00,-15.50,3.60,-179.50,0,1,0,97,88,-51367,14019,45841,2941.50,49,WP,1,0,0,0,0,0,0,1764352997808,3802,3801,3807,3797,3808,3775,18,,,,,,,0,0,0,155.00,36.00,-1795.00,0.00,0.00,89.00,14,197.00,61.00,87.43,-61.00,0.00,0.00,0,,,100,94,13,2,0,0,1,1,0,,,,,0.0,0.0,0.0,0.0,0.0,0.0,0
-22.959815,-67.786909,19.70,0.00,6.30,9.43,19.70,19.70,6.30,9.43,13199,2025-11-28 18:03:17.905,2025-11-28 15:03:17.905,13,0,0,45.841,-22.959730,-67.786916,-6.30,-0.10,0.00,-15.00,3.80,-179.50,0,1,0,97,88,-51367,14019,45841,2941.50,49,WP,1,0,0,0,0,0,0,1764352997905,3802,3801,3807,3797,3808,3775,18,,,,,,,0,0,0,150.00,38.00,-1795.00,0.00,0.00,90.00,14,197.00,63.01,94.34,-63.00,-1.00,0.00,0,,,100,94,13,2,0,0,1,1,0,,,,,0.0,0.0,0.0,0.0,0.0,0.0,0
-22.959822,-67.786909,19.70,0.00,6.60,10.18,19.70,19.70,6.60,10.18,13300,2025-11-28 18:03:18.006,2025-11-28 15:03:18.006,13,0,0,45.841,-22.959730,-67.786916,-6.60,-0.10,0.00,-14.70,3.80,-179.50,0,1,0,97,88,-51367,14019,45841,2941.50,49,WP,1,0,0,0,0,0,0,1764352998006,3802,3801,3807,3797,3808,3775,18,,,,,,,0,0,0,147.00,38.00,-1795.00,0.00,0.00,89.00,14,197.00,66.01,101.78,-66.00,-1.00,0.00,0,,,100,94,13,2,0,0,1,1,0,,,,,0.0,0.0,0.0,0.0,0.0,0.0,0
-22.959829,-67.786909,19.70,0.00,6.80,10.91,19.70,19.70,6.80,10.91,13398,2025-11-28 18:03:18.105,2025-11-28 15:03:18.105,13,0,0,45.841,-22.959730,-67.786916,-6.80,-0.10,0.00,-14.40,3.80,-179.50,0,1,0,97,88,-51367,14019,45841,2941.50,49,WP,1,0,0,0,0,0,0,1764352998104,3802,3801,3807,3797,3808,3775,18,,,,,,,0,0,0,144.00,38.00,-1795.00,0.00,0.00,89.00,14,197.00,68.01,109.10,-68.00,-1.00,0.00,0,,,100,94,13,2,0,0,1,1,0,,,,,0.0,0.0,0.0,0.0,0.0,0.0,0
-22.959836,-67.786909,19.70,0.00,7.00,11.69,19.70,19.70,7.00,11.69,13502,2025-11-28 18:03:18.209,2025-11-28 15:03:18.209,13,0,0,45.841,-22.959730,-67.786916,-7.00,-0.10,0.00,-14.30,4.00,-179.40,0,1,0,97,88,-51367,14019,45841,2941.50,49,WP,1,0,0,0,0,0,0,1764352998208,3802,3801,3807,3797,3808,3775,18,,,,,,,0,0,0,143.00,40.00,-1794.00,0.00,0.00,90.00,14,197.00,70.01,116.91,-70.00,-1.00,0.00,0,,,100,94,13,2,0,0,1,1,0,,,,,0.0,0.0,0.0,0.0,0.0,0.0,0
-22.959843,-67.786909,19.70,0.00,7.20,12.46,19.70,19.70,7.20,12.46,13602,2025-11-28 18:03:18.308,2025-11-28 15:03:18.308,13,0,0,45.841,-22.959730,-67.786916,-7.20,-0.10,0.00,-13.90,4.10,-179.30,0,1,0,97,88,-51367,14019,45841,2941.50,49,WP,1,0,0,0,0,0,0,1764352998308,3802,3801,3807,3797,3808,3775,18,,,,,,,0,0,0,139.00,41.00,-1793.00,0.00,0.00,89.00,14,197.00,72.01,124.62,-72.00,-1.00,0.00,0,,,100,94,13,2,0,0,1,1,0,,,,,0.0,0.0,0.0,0.0,0.0,0.0,0
-22.959850,-67.786910,19.70,0.00,7.40,13.29,19.70,19.70,7.40,13.29,13704,2025-11-28 18:03:18.410,2025-11-28 15:03:18.410,13,0,0,45.841,-22.959730,-67.786916,-7.40,-0.10,0.00,-13.60,4.40,-179.40,0,1,0,97,88,-51367,14019,45841,2941.50,49,WP,1,0,0,0,0,0,0,1764352998410,3802,3801,3807,3797,3808,3775,18,,,,,,,0,0,0,136.00,44.00,-1794.00,0.00,0.00,89.00,14,197.00,74.01,132.87,-74.00,-1.00,0.00,0,,,100,95,13,2,0,0,1,1,0,,,,,0.0,0.0,0.0,0.0,0.0,0.0,0
-22.959857,-67.786910,19.70,0.00,7.60,14.10,19.70,19.70,7.60,14.10,13805,2025-11-28 18:03:18.511,2025-11-28 15:03:18.512,13,0,0,45.841,-22.959730,-67.786916,-7.60,-0.10,0.00,-13.40,4.40,-179.30,0,1,0,97,88,-51367,14019,45841,2941.50,49,WP,1,0,0,0,0,0,0,1764352998511,3802,3801,3807,3797,3808,3775,18,,,,,,,0,0,0,134.00,44.00,-1793.00,0.00,0.00,89.00,14,197.00,76.01,140.97,-76.00,-1.00,0.00,0,,,100,95,13,2,0,0,1,1,0,,,,,0.0,0.0,0.0,0.0,0.0,0.0,0
-22.959865,-67.786910,19.70,0.00,7.70,14.93,19.70,19.70,7.70,14.93,13913,2025-11-28 18:03:18.619,2025-11-28 15:03:18.619,13,0,0,45.841,-22.959730,-67.786916,-7.70,-0.10,0.00,-13.40,4.40,-179.30,0,1,0,97,88,-51367,14019,45841,2941.50,49,WP,1,0,0,0,0,0,0,1764352998619,3802,3801,3807,3797,3808,3775,18,,,,,,,0,0,0,134.00,44.00,-1793.00,0.00,0.00,89.00,14,197.00,77.01,149.30,-77.00,-1.00,0.00,0,,,100,95,13,2,0,0,1,1,0,,,,,0.0,0.0,0.0,0.0,0.0,0.0,0
-22.959888,-67.786910,19.70,0.00,8.10,17.45,19.70,19.70,8.10,17.45,14211,2025-11-28 18:03:18.917,2025-11-28 15:03:18.917,13,0,0,45.841,-22.959730,-67.786916,-8.10,-0.10,0.00,-15.10,3.40,-179.30,0,1,0,97,88,-51367,14019,45841,2941.50,49,WP,1,0,0,0,0,0,0,1764352998917,3802,3801,3807,3797,3808,3775,18,,,,,,,0,0,0,151.00,34.00,-1793.00,0.00,0.00,89.00,14,197.00,81.01,174.51,-81.00,-1.00,0.00,0,,,100,93,13,2,0,0,1,1,0,,,,,0.0,0.0,0.0,0.0,0.0,0.0,0
-22.959896,-67.786911,19.70,0.00,8.30,18.33,19.70,19.70,8.30,18.33,14314,2025-11-28 18:03:19.020,2025-11-28 15:03:19.020,13,0,0,45.841,-22.959730,-67.786916,-8.30,-0.10,0.00,-15.20,3.30,-179.30,0,1,0,97,88,-51367,14019,45841,2941.50,49,WP,1,0,0,0,0,0,0,1764352999020,3802,3801,3807,3797,3808,3775,18,,,,,,,0,0,0,152.00,33.00,-1793.00,0.00,0.00,90.00,14,197.00,83.01,183.33,-83.00,-1.00,0.00,0,,,100,93,13,2,0,0,1,1,0,,,,,0.0,0.0,0.0,0.0,0.0,0.0,0
-22.959904,-67.786911,19.70,0.00,8.50,19.21,19.70,19.70,8.50,19.21,14406,2025-11-28 18:03:19.112,2025-11-28 15:03:19.112,13,0,0,45.841,-22.959730,-67.786916,-8.50,-0.20,0.00,-14.40,3.00,-179.30,0,1,0,97,88,-51367,14019,45841,2941.50,49,WP,1,0,0,0,0,0,0,1764352999112,3802,3801,3807,3797,3808,3775,18,,,,,,,0,0,0,144.00,30.00,-1793.00,0.00,0.00,90.00,14,197.00,85.02,192.14,-85.00,-2.00,0.00,0,,,100,93,13,2,0,0,1,1,0,,,,,0.0,0.0,0.0,0.0,0.0,0.0,0
-22.959912,-67.786911,19.70,0.00,8.70,20.13,19.70,19.70,8.70,20.13,14511,2025-11-28 18:03:19.218,2025-11-28 15:03:19.218,13,0,0,44.915,-22.959730,-67.786916,-8.70,-0.20,0.00,-12.50,2.80,-179.30,0,1,0,96,88,-62998,13875,44915,2941.50,49,WP,1,0,0,0,0,0,0,1764352999217,3802,3801,3807,3797,3808,3775,18,,,,,,,0,0,0,125.00,28.00,-1793.00,0.00,0.00,89.00,14,197.00,87.02,201.29,-87.00,-2.00,0.00,0,,,100,93,13,2,0,0,1,1,0,,,,,0.0,0.0,0.0,0.0,0.0,0.0,0
