latitude,longitude,altitude(m),ultrasonicHeight(m),speed(mps),distance(m),max_altitude(m),max_ascent(m),max_speed(mps),max_distance(m),time(millisecond),datetime(utc),datetime(local),satellites,pressure(Pa),temperature(F),voltage(v),home_latitude,home_longitude,velocityX(mps),velocityY(mps),velocityZ(mps),pitch(deg),roll(deg),yaw(deg),powerlevel,isflying,istakingphoto,remainPowerPercent,remainLifePercent,currentCurrent,currentElectricity,currentVoltage,batteryTemperature,dischargeCount,flightmode,isMotorsOn,isTakingVideo,Rc_elevator,Rc_aileron,Rc_throttle,Rc_rudder,Rc_gyro,timestamp,Battery_Cell1,Battery_Cell2,Battery_Cell3,Battery_Cell4,Battery_Cell5,Battery_Cell6,Dronetype,AppVersion,Planename,FlyControllerSerialNumber,RemoteSerialNumber,BatterySerialNumber,CENTER_BATTERY.productDate,CENTER_BATTERY.serialNo,CENTER_BATTERY.fullCapacity,CENTER_BATTERY.productDateRaw,pitchRaw,rollRaw,yawRaw,gimbalPitchRaw,gimbalRollRaw,gimbalYawRaw,flyState,altitudeRaw,speedRaw,distanceRaw,velocityXRaw,velocityYRaw,velocityZRaw,data_reuse,App_Tip,App_Warning,downlinkSignalQuality,uplinkSignalQuality,transmissionChannel,rcModeSwitch,rcHome,rcPause,rcTransform,rcJoystickMode,appMode,FlyControllerSerialNumber_legacy,RemoteSerialNumber_legacy,BatterySerialNumber_legacy,Battery2SerialNumber,frontAvoidDist,backAvoidDist,rightAvoidDist,leftAvoidDist,upAvoidDist,downAvoidDist,isBrakingToAvoid
-22.959763,-67.786915,1.60,0.00,3.91,0.27,1.60,1.60,3.91,0.27,4,2025-11-27 16:56:17.943,2025-11-27 17:56:17.944,16,0,0,51.745,-22.959762,-67.786917,-0.10,0.20,-3.90,0.60,1.10,121.20,0,1,0,97,97,-5523,15918,51745,3001.50,15,GPS,1,0,0,0,660,0,0,1764262577943,4332,4319,4309,4314,4322,4323,18,Litchi_iOS_2.15.7,EIK Matrice 1,0670131556,03LLCA05XT,,,0,16245,0,-6.00,11.00,1212.00,0.00,0.00,0.00,6,16.00,39.06,2.67,-1.00,2.00,-39.00,0,,,100,100,15,2,0,0,1,0,0,(null),(null),(null),(null),0.0,0.0,0.0,0.0,0.0,0.0,0
-22.959763,-67.786914,2.00,0.00,4.41,0.30,2.00,2.00,4.41,0.30,117,2025-11-27 16:56:18.056,2025-11-27 17:56:18.057,16,0,0,51.745,-22.959762,-67.786917,-0.10,0.20,-4.40,0.60,1.80,121.20,0,1,0,97,97,-5523,15918,51745,3001.50,15,GPS,1,0,0,0,660,0,0,1764262578056,4332,4319,4309,4314,4322,4323,18,,,,,,,0,0,0,-6.00,18.00,1212.00,0.00,0.00,0.00,6,20.00,44.06,3.05,-1.00,2.00,-44.00,0,,,100,100,15,2,0,0,1,0,0,,,,,0.0,0.0,0.0,0.0,0.0,0.0,0
-22.959763,-67.786914,2.50,0.00,4.91,0.34,2.50,2.50,4.91,0.34,194,2025-11-27 16:56:18.133,2025-11-27 17:56:18.133,16,0,0,51.745,-22.959762,-67.786917,-0.20,0.20,-4.90,0.70,1.80,121.10,0,1,0,97,97,-5523,15918,51745,3001.50,15,GPS,1,0,0,0,660,0,0,1764262578133,4332,4319,4309,4314,4322,4323,18,,,,,,,0,0,0,-7.00,18.00,1211.00,0.00,0.00,0.00,6,25.00,49.08,3.43,-2.00,2.00,-49.00,0,,,100,100,15,2,0,0,1,0,0,,,,,0.0,0.0,0.0,0.0,0.0,0.0,0
-22.959764,-67.786913,3.50,0.00,5.51,0.41,3.50,3.50,5.51,0.41,397,2025-11-27 16:56:18.337,2025-11-27 17:56:18.337,16,0,0,51.745,-22.959762,-67.786917,-0.20,0.20,-5.50,2.70,0.00,121.10,0,1,0,97,97,-5523,15918,51745,3001.50,15,GPS,1,0,0,0,660,0,0,1764262578336,4332,4319,4309,4314,4322,4323,18,,,,,,,0,0,0,-27.00,0.00,1211.00,0.00,0.00,0.00,6,35.00,55.07,4.14,-2.00,2.00,-55.00,0,,,100,100,15,2,0,0,1,0,0,,,,,0.0,0.0,0.0,0.0,0.0,0.0,0
-22.959764,-67.786913,4.00,0.00,5.61,0.43,4.00,4.00,5.61,0.43,499,2025-11-27 16:56:18.439,2025-11-27 17:56:18.439,16,0,0,51.745,-22.959762,-67.786917,-0.20,0.20,-5.60,3.70,-0.80,121.10,0,1,0,97,97,-5523,15918,51745,3001.50,15,GPS,1,0,0,0,660,0,0,1764262578438,4332,4319,4309,4314,4322,4323,18,,,,,,,0,0,0,-37.00,-8.00,1211.00,0.00,0.00,0.00,6,40.00,56.07,4.31,-2.00,2.00,-56.00,0,,,100,100,15,2,0,0,1,0,0,,,,,0.0,0.0,0.0,0.0,0.0,0.0,0
-22.959764,-67.786913,4.60,0.00,5.60,0.45,4.60,4.60,5.61,0.45,600,2025-11-27 16:56:18.539,2025-11-27 17:56:18.539,17,0,0,51.745,-22.959762,-67.786917,-0.10,0.10,-5.60,4.50,-0.90,121.00,0,1,0,97,97,-5523,15918,51745,3001.50,15,GPS,1,0,0,0,660,0,0,1764262578539,4332,4319,4309,4314,4322,4323,18,,,,,,,0,0,0,-45.00,-9.00,1210.00,0.00,0.00,0.00,6,46.00,56.02,4.46,-1.00,1.00,-56.00,0,,,100,100,15,2,0,0,1,0,0,,,,,0.0,0.0,0.0,0.0,0.0,0.0,0
-22.959764,-67.786913,5.10,0.00,5.50,0.46,5.10,5.10,5.61,0.46,699,2025-11-27 16:56:18.639,2025-11-27 17:56:18.639,17,0,0,51.745,-22.959762,-67.786917,-0.10,0.10,-5.50,4.80,-0.60,120.90,0,1,0,97,97,-5523,15918,51745,3001.50,15,GPS,1,0,0,0,660,0,0,1764262578638,4332,4319,4309,4314,4322,4323,18,,,,,,,0,0,0,-48.00,-6.00,1209.00,0.00,0.00,0.00,6,51.00,55.02,4.59,-1.00,1.00,-55.00,0,,,100,100,15,2,0,0,1,0,0,,,,,0.0,0.0,0.0,0.0,0.0,0.0,0
-22.959764,-67.786913,5.60,0.00,5.40,0.46,5.60,5.60,5.61,0.46,801,2025-11-27 16:56:18.740,2025-11-27 17:56:18.740,17,0,0,51.745,-22.959762,-67.786917,-0.10,0.00,-5.40,4.50,-0.50,121.00,0,1,0,97,97,-5523,15918,51745,3001.50,15,GPS,1,0,0,0,660,0,0,1764262578740,4332,4319,4309,4314,4322,4323,18,,,,,,,0,0,0,-45.00,-5.00,1210.00,0.00,0.00,0.00,6,56.00,54.01,4.62,-1.00,0.00,-54.00,0,,,100,100,15,2,0,0,1,0,0,,,,,0.0,0.0,0.0,0.0,0.0,0.0,0
-22.959765,-67.786913,6.10,0.00,5.20,0.46,6.10,6.10,5.61,0.46,900,2025-11-27 16:56:18.839,2025-11-27 17:56:18.839,17,0,0,51.745,-22.959762,-67.786917,-0.10,0.00,-5.20,4.40,-0.60,121.10,0,1,0,97,97,-5523,15918,51745,3001.50,15,GPS,1,0,0,0,660,0,0,1764262578839,4332,4319,4309,4314,4322,4323,18,,,,,,,0,0,0,-44.00,-6.00,1211.00,0.00,0.00,0.00,6,61.00,52.01,4.65,-1.00,0.00,-52.00,0,,,100,100,15,2,0,0,1,0,0,,,,,0.0,0.0,0.0,0.0,0.0,0.0,0
-22.959765,-67.786914,6.50,0.00,5.00,0.46,6.50,6.50,5.61,0.46,1003,2025-11-27 16:56:18.943,2025-11-27 17:56:18.943,17,0,0,51.745,-22.959762,-67.786917,0.00,0.00,-5.00,4.00,-0.90,121.20,0,1,0,97,97,-5523,15918,51745,3001.50,15,GPS,1,0,0,0,660,0,0,1764262578942,4332,4319,4309,4314,4322,4323,18,,,,,,,0,0,0,-40.00,-9.00,1212.00,0.00,0.00,0.00,6,65.00,50.00,4.61,0.00,0.00,-50.00,0,,,100,100,15,2,0,0,1,0,0,,,,,0.0,0.0,0.0,0.0,0.0,0.0,0
-22.959765,-67.786914,7.00,0.00,4.90,0.46,7.00,7.00,5.61,0.46,1117,2025-11-27 16:56:19.056,2025-11-27 17:56:19.057,17,0,0,51.745,-22.959762,-67.786917,0.00,0.00,-4.90,3.80,-1.10,121.20,0,1,0,97,97,-5523,15918,51745,3001.50,15,GPS,1,0,0,0,637,0,0,1764262579056,4332,4319,4309,4314,4322,4323,18,,,,,,,0,0,0,-38.00,-11.00,1212.00,0.00,0.00,0.00,6,70.00,49.00,4.60,0.00,0.00,-49.00,0,,,100,100,15,2,0,0,1,0,0,,,,,0.0,0.0,0.0,0.0,0.0,0.0,0
-22.959765,-67.786914,7.50,0.00,4.70,0.45,7.50,7.50,5.61,0.46,1202,2025-11-27 16:56:19.141,2025-11-27 17:56:19.141,17,0,0,51.745,-22.959762,-67.786917,0.00,0.00,-4.70,3.20,-1.20,121.20,0,1,0,97,97,-5523,15918,51745,3001.50,15,GPS,1,0,0,0,643,0,0,1764262579141,4332,4319,4309,4314,4322,4323,18,,,,,,,0,0,0,-32.00,-12.00,1212.00,0.00,0.00,0.00,6,75.00,47.00,4.54,0.00,0.00,-47.00,0,,,100,100,15,2,0,0,1,0,0,,,,,0.0,0.0,0.0,0.0,0.0,0.0,0
-22.959765,-67.786914,7.90,0.00,4.60,0.45,7.90,7.90,5.61,0.46,1301,2025-11-27 16:56:19.241,2025-11-27 17:56:19.241,17,0,0,51.745,-22.959762,-67.786917,0.00,0.00,-4.60,2.90,-1.00,121.20,0,1,0,97,97,-5523,15918,51745,3001.50,15,GPS,1,0,0,0,588,0,0,1764262579240,4332,4319,4309,4314,4322,4323,18,,,,,,,0,0,0,-29.00,-10.00,1212.00,0.00,0.00,0.00,6,79.00,46.00,4.52,0.00,0.00,-46.00,0,,,100,100,15,2,0,0,1,0,0,,,,,0.0,0.0,0.0,0.0,0.0,0.0,0
-22.959765,-67.786914,8.40,0.00,4.50,0.45,8.40,8.40,5.61,0.46,1412,2025-11-27 16:56:19.352,2025-11-27 17:56:19.352,17,0,0,51.745,-22.959762,-67.786917,0.00,0.00,-4.50,2.90,-1.00,121.30,0,1,0,97,97,-5523,15918,51745,3001.50,15,GPS,1,0,0,0,477,0,0,1764262579351,4332,4319,4309,4314,4322,4323,18,,,,,,,0,0,0,-29.00,-10.00,1213.00,0.00,0.00,0.00,6,84.00,45.00,4.47,0.00,0.00,-45.00,0,,,100,100,15,2,0,0,1,0,0,,,,,0.0,0.0,0.0,0.0,0.0,0.0,0
-22.959765,-67.786914,8.80,0.00,4.10,0.45,8.80,8.80,5.61,0.46,1516,2025-11-27 16:56:19.456,2025-11-27 17:56:19.456,17,0,0,51.745,-22.959762,-67.786917,0.00,0.00,-4.10,3.30,-0.90,121.20,0,1,0,97,97,-5523,15918,51745,3001.50,15,GPS,1,0,0,0,355,0,0,1764262579455,4332,4319,4309,4314,4322,4323,18,,,,,,,0,0,0,-33.00,-9.00,1212.00,0.00,0.00,0.00,6,88.00,41.00,4.46,0.00,0.00,-41.00,0,,,100,100,15,2,0,0,1,0,0,,,,,0.0,0.0,0.0,0.0,0.0,0.0,0
-22.959765,-67.786914,9.10,0.00,3.60,0.44,9.10,9.10,5.61,0.46,1604,2025-11-27 16:56:19.543,2025-11-27 17:56:19.543,17,0,0,51.745,-22.959762,-67.786917,0.00,0.00,-3.60,4.10,-0.70,121.20,0,1,0,97,97,-5523,15918,51745,3001.50,15,GPS,1,0,0,0,172,0,0,1764262579543,4332,4319,4309,4314,4322,4323,18,,,,,,,0,0,0,-41.00,-7.00,1212.00,0.00,0.00,0.00,6,91.00,36.00,4.43,0.00,0.00,-36.00,0,,,100,100,15,2,0,0,1,0,0,,,,,0.0,0.0,0.0,0.0,0.0,0.0,0
-22.959765,-67.786914,9.40,0.00,2.90,0.44,9.40,9.40,5.61,0.46,1706,2025-11-27 16:56:19.645,2025-11-27 17:56:19.645,17,0,0,51.745,-22.959762,-67.786917,0.00,0.00,-2.90,5.30,-0.60,121.30,0,1,0,97,97,-5523,15918,51745,3001.50,15,GPS,1,0,0,0,51,0,0,1764262579645,4332,4319,4309,4314,4322,4323,18,,,,,,,0,0,0,-53.00,-6.00,1213.00,0.00,0.00,0.00,6,94.00,29.00,4.44,0.00,0.00,-29.00,0,,,100,100,15,2,0,0,1,0,0,,,,,0.0,0.0,0.0,0.0,0.0,0.0,0
-22.959765,-67.786914,9.70,0.00,2.20,0.44,9.70,9.70,5.61,0.46,1805,2025-11-27 16:56:19.744,2025-11-27 17:56:19.744,17,0,0,51.745,-22.959762,-67.786917,0.00,0.00,-2.20,6.20,-0.50,121.20,0,1,0,97,97,-5523,15918,51745,3001.50,15,GPS,1,0,0,0,0,0,0,1764262579744,4332,4319,4309,4314,4322,4323,18,,,,,,,0,0,0,-62.00,-5.00,1212.00,0.00,0.00,0.00,6,97.00,22.00,4.44,0.00,0.00,-22.00,0,,,100,100,15,2,0,0,1,0,0,,,,,0.0,0.0,0.0,0.0,0.0,0.0,0
-22.959765,-67.786914,9.90,0.00,1.40,0.45,9.90,9.90,5.61,0.46,1913,2025-11-27 16:56:19.853,2025-11-27 17:56:19.853,17,0,0,51.745,-22.959762,-67.786917,0.00,0.00,-1.40,6.40,-0.50,121.20,0,1,0,97,97,-5523,15918,51745,3001.50,15,GPS,1,0,0,0,0,0,0,1764262579852,4332,4319,4309,4314,4322,4323,18,,,,,,,0,0,0,-64.00,-5.00,1212.00,0.00,0.00,0.00,6,99.00,14.00,4.47,0.00,0.00,-14.00,0,,,100,100,15,2,0,0,1,0,0,,,,,0.0,0.0,0.0,0.0,0.0,0.0,0
-22.959765,-67.786914,10.00,0.00,0.80,0.45,10.00,10.00,5.61,0.46,2016,2025-11-27 16:56:19.956,2025-11-27 17:56:19.956,17,0,0,51.745,-22.959762,-67.786917,0.00,0.00,-0.80,6.30,-0.50,121.20,0,1,0,97,97,-5523,15918,51745,3001.50,15,GPS,1,0,0,0,0,0,0,1764262579955,4332,4319,4309,4314,4322,4323,18,,,,,,,0,0,0,-63.00,-5.00,1212.00,0.00,0.00,0.00,6,100.00,8.00,4.49,0.00,0.00,-8.00,0,,,100,100,15,2,0,0,1,0,0,,,,,0.0,0.0,0.0,0.0,0.0,0.0,0
-22.959765,-67.786914,10.00,0.00,0.30,0.45,10.00,10.00,5.61,0.46,2108,2025-11-27 16:56:20.047,2025-11-27 17:56:20.047,17,0,0,51.745,-22.959762,-67.786917,0.00,0.00,-0.30,5.90,-0.50,121.20,0,1,0,97,97,-5523,15918,51745,3001.50,15,GPS,1,0,0,0,0,0,0,1764262580047,4332,4319,4309,4314,4322,4323,18,,,,,,,0,0,0,-59.00,-5.00,1212.00,0.00,0.00,0.00,6,100.00,3.00,4.53,0.00,0.00,-3.00,0,,,100,100,15,2,0,0,1,0,0,,,,,0.0,0.0,0.0,0.0,0.0,0.0,0
-22.959765,-67.786914,10.10,0.00,0.00,0.46,10.10,10.10,5.61,0.46,2213,2025-11-27 16:56:20.153,2025-11-27 17:56:20.153,17,0,0,51.745,-22.959762,-67.786917,0.00,0.00,0.00,5.30,-0.50,121.20,0,1,0,97,97,-5523,15918,51745,3001.50,15,GPS,1,0,0,0,0,0,0,1764262580152,4332,4319,4309,4314,4322,4323,18,,,,,,,0,0,0,-53.00,-5.00,1212.00,0.00,0.00,0.00,6,101.00,0.00,4.57,0.00,0.00,0.00,0,,,100,100,15,2,0,0,1,0,0,,,,,0.0,0.0,0.0,0.0,0.0,0.0,0
-22.959765,-67.786914,10.00,0.00,0.30,0.46,10.10,10.10,5.61,0.46,2413,2025-11-27 16:56:20.353,2025-11-27 17:56:20.353,17,0,0,51.745,-22.959762,-67.786917,0.00,0.00,0.30,3.70,-0.20,121.30,0,1,0,97,97,-5523,15918,51745,3001.50,15,GPS,1,0,0,0,0,0,0,1764262580352,4332,4319,4309,4314,4322,4323,18,,,,,,,0,0,0,-37.00,-2.00,1213.00,0.00,0.00,0.00,6,100.00,3.00,4.59,0.00,0.00,3.00,0,,,100,100,15,2,0,0,1,0,0,,,,,0.0,0.0,0.0,0.0,0.0,0.0,0
-22.959764,-67.786913,10.00,0.00,0.30,0.46,10.10,10.10,5.61,0.46,2517,2025-11-27 16:56:20.457,2025-11-27 17:56:20.457,17,0,0,51.745,-22.959762,-67.786917,0.00,0.00,0.30,3.10,-0.50,121.30,0,1,0,97,97,-5523,15918,51745,3001.50,15,GPS,1,0,0,0,0,0,0,1764262580456,4332,4319,4309,4314,4322,4323,18,,,,,,,0,0,0,-31.00,-5.00,1213.00,0.00,0.00,0.00,6,100.00,3.00,4.57,0.00,0.00,3.00,0,,,100,100,15,2,0,0,1,0,0,,,,,0.0,0.0,0.0,0.0,0.0,0.0,0
-22.959764,-67.786913,10.00,0.00,0.20,0.45,10.10,10.10,5.61,0.46,2617,2025-11-27 16:56:20.556,2025-11-27 17:56:20.556,17,0,0,51.745,-22.959762,-67.786917,0.00,0.00,0.20,2.60,-0.50,121.30,0,1,0,97,97,-5523,15918,51745,3001.50,15,GPS,1,0,0,0,0,0,0,1764262580556,4332,4319,4309,4314,4322,4323,18,,,,,,,0,0,0,-26.00,-5.00,1213.00,0.00,0.00,0.00,6,100.00,2.00,4.52,0.00,0.00,2.00,0,,,100,100,15,2,0,0,1,0,0,,,,,0.0,0.0,0.0,0.0,0.0,0.0,0
-22.959764,-67.786914,10.10,0.00,0.10,0.45,10.10,10.10,5.61,0.46,2718,2025-11-27 16:56:20.658,2025-11-27 17:56:20.658,17,0,0,51.745,-22.959762,-67.786917,0.00,0.00,0.10,2.40,-0.10,121.30,0,1,0,97,97,-5523,15918,51745,3001.50,15,GPS,1,0,0,0,0,0,0,1764262580657,4332,4319,4309,4314,4322,4323,18,,,,,,,0,0,0,-24.00,-1.00,1213.00,0.00,0.00,0.00,6,101.00,1.00,4.48,0.00,0.00,1.00,0,,,100,100,15,2,0,0,1,0,0,,,,,0.0,0.0,0.0,0.0,0.0,0.0,0
-22.959764,-67.786914,10.10,0.00,0.00,0.44,10.10,10.10,5.61,0.46,2812,2025-11-27 16:56:20.752,2025-11-27 17:56:20.752,17,0,0,51.745,-22.959762,-67.786917,0.00,0.00,0.00,2.70,0.30,121.20,0,1,0,97,97,-5523,15918,51745,3001.50,15,GPS,1,0,0,0,0,0,0,1764262580751,4332,4319,4309,4314,4322,4323,18,,,,,,,0,0,0,-27.00,3.00,1212.00,0.00,0.00,0.00,6,101.00,0.00,4.44,0.00,0.00,0.00,0,,,100,100,15,2,0,0,1,0,0,,,,,0.0,0.0,0.0,0.0,0.0,0.0,0
-22.959764,-67.786913,10.20,0.00,0.00,0.45,10.20,10.20,5.61,0.46,2914,2025-11-27 16:56:20.854,2025-11-27 17:56:20.854,17,0,0,51.745,-22.959762,-67.786917,0.00,0.00,0.00,3.20,0.30,121.20,0,1,0,97,97,-5523,15918,51745,3001.50,15,GPS,1,0,0,0,0,0,0,1764262580853,4332,4319,4309,4314,4322,4323,18,,,,,,,0,0,0,-32.00,3.00,1212.00,0.00,0.00,0.00,6,102.00,0.00,4.46,0.00,0.00,0.00,0,,,100,100,15,2,0,0,1,0,0,,,,,0.0,0.0,0.0,0.0,0.0,0.0,0
-22.959764,-67.786913,10.20,0.00,0.10,0.45,10.20,10.20,5.61,0.46,3017,2025-11-27 16:56:20.957,2025-11-27 17:56:20.957,17,0,0,51.745,-22.959762,-67.786917,0.00,0.00,-0.10,3.40,0.50,121.30,0,1,0,97,97,-5523,15918,51745,3001.50,15,GPS,1,0,0,0,0,0,0,1764262580956,4332,4319,4309,4314,4322,4323,18,,,,,,,0,0,0,-34.00,5.00,1213.00,0.00,0.00,0.00,6,102.00,1.00,4.50,0.00,0.00,-1.00,0,,,100,100,15,2,0,0,1,0,0,,,,,0.0,0.0,0.0,0.0,0.0,0.0,0
-22.959764,-67.786913,10.30,0.00,0.10,0.46,10.30,10.30,5.61,0.46,3115,2025-11-27 16:56:21.054,2025-11-27 17:56:21.054,17,0,0,51.745,-22.959762,-67.786917,0.00,0.00,-0.10,4.00,0.60,121.30,0,1,0,97,97,-5523,15918,51745,3001.50,15,GPS,1,0,36,0,0,0,0,1764262581054,4332,4319,4309,4314,4322,4323,18,,,,,,,0,0,0,-40.00,6.00,1213.00,0.00,0.00,0.00,6,103.00,1.00,4.58,0.00,0.00,-1.00,0,,,100,100,15,2,0,0,1,0,0,,,,,0.0,0.0,0.0,0.0,0.0,0.0,0
-22.959764,-67.786913,10.30,0.00,0.10,0.47,10.30,10.30,5.61,0.47,3218,2025-11-27 16:56:21.157,2025-11-27 17:56:21.157,17,0,0,51.745,-22.959762,-67.786917,0.00,0.00,-0.10,4.10,0.30,121.20,0,1,0,97,97,-5523,15918,51745,3001.50,15,GPS,1,0,100,0,0,0,0,1764262581157,4332,4319,4309,4314,4322,4323,18,,,,,,,0,0,0,-41.00,3.00,1212.00,0.00,0.00,0.00,6,103.00,1.00,4.66,0.00,0.00,-1.00,0,,,100,100,15,2,0,0,1,0,0,,,,,0.0,0.0,0.0,0.0,0.0,0.0,0
-22.959764,-67.786913,10.40,0.00,0.10,0.48,10.40,10.40,5.61,0.48,3418,2025-11-27 16:56:21.357,2025-11-27 17:56:21.357,17,0,0,49.529,-22.959762,-67.786917,0.00,0.10,0.00,0.20,0.10,121.20,0,1,0,97,97,-46211,15918,49529,3001.50,15,GPS,1,0,134,0,0,0,0,1764262581357,4332,4319,4309,4314,4322,4323,18,,,,,,,0,0,0,-2.00,1.00,1212.00,0.00,0.00,0.00,6,104.00,1.00,4.79,0.00,1.00,0.00,0,,,100,100,15,2,0,0,1,0,0,,,,,0.0,0.0,0.0,0.0,0.0,0.0,0
-22.959764,-67.786913,10.40,0.00,0.10,0.49,10.40,10.40,5.61,0.49,3521,2025-11-27 16:56:21.461,2025-11-27 17:56:21.461,17,0,0,49.529,-22.959762,-67.786917,0.00,0.10,0.00,-1.00,0.00,121.20,0,1,0,97,97,-46211,15918,49529,3001.50,15,GPS,1,0,127,0,0,0,0,1764262581460,4332,4319,4309,4314,4322,4323,18,,,,,,,0,0,0,10.00,0.00,1212.00,0.00,0.00,0.00,6,104.00,1.00,4.90,0.00,1.00,0.00,0,,,100,100,15,2,0,0,1,0,0,,,,,0.0,0.0,0.0,0.0,0.0,0.0,0
-22.959764,-67.786913,10.40,0.00,0.20,0.51,10.40,10.40,5.61,0.51,3620,2025-11-27 16:56:21.559,2025-11-27 17:56:21.559,17,0,0,49.529,-22.959762,-67.786917,0.00,0.20,0.00,-1.60,0.00,121.30,0,1,0,97,97,-46211,15918,49529,3001.50,15,GPS,1,0,111,0,0,0,0,1764262581559,4332,4319,4309,4314,4322,4323,18,,,,,,,0,0,0,16.00,0.00,1213.00,0.00,0.00,0.00,6,104.00,2.00,5.09,0.00,2.00,0.00,0,,,100,100,15,2,0,0,1,0,0,,,,,0.0,0.0,0.0,0.0,0.0,0.0,0
-22.959764,-67.786913,10.40,0.00,0.32,0.54,10.40,10.40,5.61,0.54,3723,2025-11-27 16:56:21.662,2025-11-27 17:56:21.662,17,0,0,49.529,-22.959762,-67.786917,-0.10,0.30,0.00,-1.60,0.10,121.20,0,1,0,97,97,-46211,15918,49529,3001.50,15,GPS,1,0,103,0,0,0,0,1764262581662,4332,4319,4309,4314,4322,4323,18,,,,,,,0,0,0,16.00,1.00,1212.00,0.00,0.00,0.00,6,104.00,3.16,5.36,-1.00,3.00,0.00,0,,,100,100,15,2,0,0,1,0,0,,,,,0.0,0.0,0.0,0.0,0.0,0.0,0
-22.959765,-67.786912,10.40,0.00,0.42,0.58,10.40,10.40,5.61,0.58,3821,2025-11-27 16:56:21.760,2025-11-27 17:56:21.760,17,0,0,49.529,-22.959762,-67.786917,-0.10,0.40,0.10,-1.00,0.00,121.20,0,1,0,97,97,-46211,15918,49529,3001.50,15,GPS,1,0,100,0,0,0,0,1764262581760,4332,4319,4309,4314,4322,4323,18,,,,,,,0,0,0,10.00,0.00,1212.00,0.00,0.00,0.00,6,104.00,4.24,5.76,-1.00,4.00,1.00,0,,,100,100,15,2,0,0,1,0,0,,,,,0.0,0.0,0.0,0.0,0.0,0.0,0
-22.959765,-67.786912,10.40,0.00,0.42,0.63,10.40,10.40,5.61,0.63,3924,2025-11-27 16:56:21.863,2025-11-27 17:56:21.863,17,0,0,49.529,-22.959762,-67.786917,-0.10,0.40,0.10,-0.50,0.20,121.20,0,1,0,97,97,-46211,15918,49529,3001.50,15,GPS,1,0,90,0,0,0,0,1764262581863,4332,4319,4309,4314,4322,4323,18,,,,,,,0,0,0,5.00,2.00,1212.00,0.00,0.00,0.00,6,104.00,4.24,6.26,-1.00,4.00,1.00,0,,,100,100,15,2,0,0,1,0,0,,,,,0.0,0.0,0.0,0.0,0.0,0.0,0
-22.959765,-67.786911,10.40,0.00,0.55,0.69,10.40,10.40,5.61,0.69,4024,2025-11-27 16:56:21.964,2025-11-27 17:56:21.964,17,0,0,49.529,-22.959762,-67.786917,-0.20,0.50,0.10,0.00,0.20,121.20,0,1,0,97,97,-46211,15918,49529,3001.50,15,GPS,1,0,84,0,0,0,0,1764262581963,4332,4319,4309,4314,4322,4323,18,,,,,,,0,0,0,-0.00,2.00,1212.00,0.00,0.00,0.00,6,104.00,5.48,6.90,-2.00,5.00,1.00,0,,,100,100,15,2,0,0,1,0,0,,,,,0.0,0.0,0.0,0.0,0.0,0.0,0
-22.959765,-67.786911,10.30,0.00,0.55,0.75,10.40,10.40,5.61,0.75,4133,2025-11-27 16:56:22.072,2025-11-27 17:56:22.073,17,0,0,49.529,-22.959762,-67.786917,-0.20,0.50,0.10,0.40,0.30,121.20,0,1,0,97,97,-46211,15918,49529,3001.50,15,GPS,1,0,85,0,0,14,0,1764262582072,4332,4319,4309,4314,4322,4323,18,,,,,,,0,0,0,-4.00,3.00,1212.00,0.00,0.00,0.00,6,103.00,5.48,7.53,-2.00,5.00,1.00,0,,,100,100,15,2,0,0,1,0,0,,,,,0.0,0.0,0.0,0.0,0.0,0.0,0
-22.959766,-67.786910,10.30,0.00,0.59,0.83,10.40,10.40,5.61,0.83,4225,2025-11-27 16:56:22.164,2025-11-27 17:56:22.164,17,0,0,49.529,-22.959762,-67.786917,-0.30,0.50,0.10,0.70,0.50,121.20,0,1,0,97,97,-46211,15918,49529,3001.50,15,GPS,1,0,82,0,0,81,0,1764262582164,4332,4319,4309,4314,4322,4323,18,,,,,,,0,0,0,-7.00,5.00,1212.00,0.00,0.00,0.00,6,103.00,5.92,8.28,-3.00,5.00,1.00,0,,,100,100,15,2,0,0,1,0,0,,,,,0.0,0.0,0.0,0.0,0.0,0.0,0
-22.959766,-67.786909,10.30,0.00,0.67,0.99,10.40,10.40,5.61,0.99,4429,2025-11-27 16:56:22.369,2025-11-27 17:56:22.369,17,0,0,49.529,-22.959762,-67.786917,-0.30,0.60,0.00,1.00,0.50,122.10,0,1,0,97,97,-46211,15918,49529,3001.50,15,GPS,1,0,80,0,0,88,0,1764262582368,4332,4319,4309,4314,4322,4323,18,,,,,,,0,0,0,-10.00,5.00,1221.00,0.00,0.00,0.00,6,103.00,6.71,9.86,-3.00,6.00,0.00,0,,,100,100,15,2,0,0,1,0,0,,,,,0.0,0.0,0.0,0.0,0.0,0.0,0
-22.959767,-67.786908,10.30,0.00,0.68,1.07,10.40,10.40,5.61,1.07,4534,2025-11-27 16:56:22.473,2025-11-27 17:56:22.474,17,0,0,49.529,-22.959762,-67.786917,-0.30,0.60,0.10,1.30,0.70,123.00,0,1,0,97,97,-46211,15918,49529,3001.50,15,GPS,1,0,76,0,0,86,0,1764262582473,4332,4319,4309,4314,4322,4323,18,,,,,,,0,0,0,-13.00,7.00,1230.00,0.00,0.00,0.00,6,103.00,6.78,10.67,-3.00,6.00,1.00,0,,,100,100,15,2,0,0,1,0,0,,,,,0.0,0.0,0.0,0.0,0.0,0.0,0
-22.959767,-67.786907,10.30,0.00,0.73,1.16,10.40,10.40,5.61,1.16,4626,2025-11-27 16:56:22.566,2025-11-27 17:56:22.566,17,0,0,49.529,-22.959762,-67.786917,-0.40,0.60,0.10,1.50,0.70,123.80,0,1,0,97,97,-46211,15918,49529,3001.50,15,GPS,1,0,72,0,0,73,0,1764262582565,4332,4319,4309,4314,4322,4323,18,,,,,,,0,0,0,-15.00,7.00,1238.00,0.00,0.00,0.00,6,103.00,7.28,11.58,-4.00,6.00,1.00,0,,,100,100,15,2,0,0,1,0,0,,,,,0.0,0.0,0.0,0.0,0.0,0.0,0
-22.959768,-67.786907,10.30,0.00,0.72,1.24,10.40,10.40,5.61,1.24,4729,2025-11-27 16:56:22.669,2025-11-27 17:56:22.669,17,0,0,49.529,-22.959762,-67.786917,-0.40,0.60,0.00,1.80,0.30,124.70,0,1,0,97,97,-46211,15918,49529,3001.50,15,GPS,1,0,75,0,0,64,0,1764262582668,4332,4319,4309,4314,4322,4323,18,,,,,,,0,0,0,-18.00,3.00,1247.00,0.00,0.00,0.00,6,103.00,7.21,12.43,-4.00,6.00,0.00,0,,,100,100,15,2,0,0,1,0,0,,,,,0.0,0.0,0.0,0.0,0.0,0.0,0
-22.959768,-67.786906,10.30,0.00,0.73,1.34,10.40,10.40,5.61,1.34,4828,2025-11-27 16:56:22.767,2025-11-27 17:56:22.767,17,0,0,49.529,-22.959762,-67.786917,-0.40,0.60,0.10,2.30,0.20,125.30,0,1,0,97,97,-46211,15918,49529,3001.50,15,GPS,1,0,74,0,0,65,0,1764262582767,4332,4319,4309,4314,4322,4323,18,,,,,,,0,0,0,-23.00,2.00,1253.00,0.00,0.00,0.00,6,103.00,7.28,13.43,-4.00,6.00,1.00,0,,,100,100,15,2,0,0,1,0,0,,,,,0.0,0.0,0.0,0.0,0.0,0.0,0
-22.959769,-67.786905,10.30,0.00,0.73,1.43,10.40,10.40,5.61,1.43,4931,2025-11-27 16:56:22.870,2025-11-27 17:56:22.870,17,0,0,49.529,-22.959762,-67.786917,-0.40,0.60,0.10,2.50,0.20,126.00,0,1,0,97,97,-46211,15918,49529,3001.50,15,GPS,1,0,76,0,0,64,0,1764262582870,4332,4319,4309,4314,4322,4323,18,,,,,,,0,0,0,-25.00,2.00,1260.00,0.00,0.00,0.00,6,103.00,7.28,14.33,-4.00,6.00,1.00,0,,,100,100,15,2,0,0,1,0,0,,,,,0.0,0.0,0.0,0.0,0.0,0.0,0
-22.959769,-67.786904,10.30,0.00,0.87,1.54,10.40,10.40,5.61,1.54,5034,2025-11-27 16:56:22.973,2025-11-27 17:56:22.973,17,0,0,49.529,-22.959762,-67.786917,-0.50,0.70,0.10,2.60,0.20,126.50,0,1,0,97,97,-46211,15918,49529,3001.50,15,GPS,1,0,73,0,0,76,0,1764262582973,4332,4319,4309,4314,4322,4323,18,,,,,,,0,0,0,-26.00,2.00,1265.00,0.00,0.00,0.00,6,103.00,8.66,15.37,-5.00,7.00,1.00,0,,,100,100,15,2,0,0,1,0,0,,,,,0.0,0.0,0.0,0.0,0.0,0.0,0
-22.959770,-67.786904,10.30,0.00,0.87,1.63,10.40,10.40,5.61,1.63,5133,2025-11-27 16:56:23.073,2025-11-27 17:56:23.073,17,0,0,49.529,-22.959762,-67.786917,-0.50,0.70,0.10,2.60,0.10,127.20,0,1,0,97,97,-46211,15918,49529,3001.50,15,GPS,1,0,76,0,0,91,0,1764262583072,4332,4319,4309,4314,4322,4323,18,,,,,,,0,0,0,-26.00,1.00,1272.00,0.00,0.00,0.00,6,103.00,8.66,16.30,-5.00,7.00,1.00,0,,,100,100,15,2,0,0,1,0,0,,,,,0.0,0.0,0.0,0.0,0.0,0.0,0
-22.959770,-67.786903,10.30,0.00,0.87,1.74,10.40,10.40,5.61,1.74,5231,2025-11-27 16:56:23.170,2025-11-27 17:56:23.171,17,0,0,50.429,-22.959762,-67.786917,-0.50,0.70,0.10,2.70,0.00,127.90,0,1,0,97,97,-19182,15918,50429,3001.50,15,GPS,1,0,74,0,0,91,0,1764262583170,4332,4319,4309,4314,4322,4323,18,,,,,,,0,0,0,-27.00,0.00,1279.00,0.00,0.00,0.00,6,103.00,8.66,17.40,-5.00,7.00,1.00,0,,,100,100,15,2,0,0,1,0,0,,,,,0.0,0.0,0.0,0.0,0.0,0.0,0
-22.959771,-67.786902,10.30,0.00,0.87,1.84,10.40,10.40,5.61,1.84,5335,2025-11-27 16:56:23.274,2025-11-27 17:56:23.275,17,0,0,50.429,-22.959762,-67.786917,-0.50,0.70,0.10,2.90,0.00,128.80,0,1,0,97,97,-19182,15918,50429,3001.50,15,GPS,1,0,72,0,0,92,0,1764262583274,4332,4319,4309,4314,4322,4323,18,,,,,,,0,0,0,-29.00,0.00,1288.00,0.00,0.00,0.00,6,103.00,8.66,18.39,-5.00,7.00,1.00,0,,,100,100,15,2,0,0,1,0,0,,,,,0.0,0.0,0.0,0.0,0.0,0.0,0
-22.959772,-67.786901,10.20,0.00,0.87,1.95,10.40,10.40,5.61,1.95,5435,2025-11-27 16:56:23.375,2025-11-27 17:56:23.375,17,0,0,50.429,-22.959762,-67.786917,-0.50,0.70,0.10,3.00,0.00,129.70,0,1,0,97,97,-19182,15918,50429,3001.50,15,GPS,1,0,72,0,0,92,0,1764262583374,4332,4319,4309,4314,4322,4323,18,,,,,,,0,0,0,-30.00,0.00,1297.00,0.00,0.00,0.00,6,102.00,8.66,19.55,-5.00,7.00,1.00,0,,,100,100,15,2,0,0,1,0,0,,,,,0.0,0.0,0.0,0.0,0.0,0.0,0
-22.959772,-67.786900,10.20,0.00,0.95,2.06,10.40,10.40,5.61,2.06,5533,2025-11-27 16:56:23.473,2025-11-27 17:56:23.473,17,0,0,50.429,-22.959762,-67.786917,-0.50,0.80,0.10,3.10,0.00,130.60,0,1,0,97,97,-19182,15918,50429,3001.50,15,GPS,1,0,69,0,0,92,0,1764262583472,4332,4319,4309,4314,4322,4323,18,,,,,,,0,0,0,-31.00,0.00,1306.00,0.00,0.00,0.00,6,102.00,9.49,20.57,-5.00,8.00,1.00,0,,,100,100,15,2,0,0,1,0,0,,,,,0.0,0.0,0.0,0.0,0.0,0.0,0
-22.959773,-67.786899,10.20,0.00,0.95,2.18,10.40,10.40,5.61,2.18,5636,2025-11-27 16:56:23.575,2025-11-27 17:56:23.575,17,0,0,50.429,-22.959762,-67.786917,-0.50,0.80,0.10,3.30,0.00,131.60,0,1,0,97,97,-19182,15918,50429,3001.50,15,GPS,1,0,69,0,0,93,0,1764262583575,4332,4319,4309,4314,4322,4323,18,,,,,,,0,0,0,-33.00,0.00,1316.00,0.00,0.00,0.00,6,102.00,9.49,21.77,-5.00,8.00,1.00,0,,,100,100,15,2,0,0,1,0,0,,,,,0.0,0.0,0.0,0.0,0.0,0.0,0
-22.959773,-67.786898,10.20,0.00,1.00,2.30,10.40,10.40,5.61,2.30,5642,2025-11-27 16:56:23.582,2025-11-27 17:56:23.582,17,0,0,50.429,-22.959762,-67.786917,-0.60,0.80,0.10,3.60,-0.40,132.60,0,1,0,97,97,-19182,15918,50429,3001.50,15,GPS,1,0,68,0,0,92,0,1764262583581,4332,4319,4309,4314,4322,4323,18,,,,,,,0,0,0,-36.00,-4.00,1326.00,0.00,0.00,0.00,6,102.00,10.05,22.95,-6.00,8.00,1.00,0,,,100,100,15,2,0,0,1,0,0,,,,,0.0,0.0,0.0,0.0,0.0,0.0,0
-22.959774,-67.786897,10.20,0.00,1.09,2.43,10.40,10.40,5.61,2.43,5837,2025-11-27 16:56:23.777,2025-11-27 17:56:23.777,17,0,0,50.429,-22.959762,-67.786917,-0.60,0.90,0.10,3.80,-0.40,133.60,0,1,0,97,97,-19182,15918,50429,3001.50,15,GPS,1,0,68,0,0,87,0,1764262583776,4332,4319,4309,4314,4322,4323,18,,,,,,,0,0,0,-38.00,-4.00,1336.00,0.00,0.00,0.00,6,102.00,10.86,24.28,-6.00,9.00,1.00,0,,,100,100,15,2,0,0,1,0,0,,,,,0.0,0.0,0.0,0.0,0.0,0.0,0
-22.959775,-67.786896,10.10,0.00,1.09,2.54,10.40,10.40,5.61,2.54,5940,2025-11-27 16:56:23.879,2025-11-27 17:56:23.879,17,0,0,50.429,-22.959762,-67.786917,-0.60,0.90,0.10,3.80,-0.30,134.60,0,1,0,97,97,-19182,15918,50429,3001.50,15,GPS,1,0,65,0,0,87,0,1764262583879,4332,4319,4309,4314,4322,4323,18,,,,,,,0,0,0,-38.00,-3.00,1346.00,0.00,0.00,0.00,6,101.00,10.86,25.44,-6.00,9.00,1.00,0,,,100,100,15,2,0,0,1,0,0,,,,,0.0,0.0,0.0,0.0,0.0,0.0,0
-22.959775,-67.786895,10.10,0.00,1.03,2.68,10.40,10.40,5.61,2.68,6048,2025-11-27 16:56:23.987,2025-11-27 17:56:23.988,17,0,0,50.429,-22.959762,-67.786917,-0.50,0.90,0.00,3.90,-0.10,135.60,0,1,0,97,97,-19182,15918,50429,3001.50,15,GPS,1,0,62,0,0,92,0,1764262583987,4332,4319,4309,4314,4322,4323,18,,,,,,,0,0,0,-39.00,-1.00,1356.00,0.00,0.00,0.00,6,101.00,10.30,26.84,-5.00,9.00,0.00,0,,,100,100,15,2,0,0,1,0,0,,,,,0.0,0.0,0.0,0.0,0.0,0.0,0
-22.959776,-67.786894,10.10,0.00,1.17,2.80,10.40,10.40,5.61,2.80,6149,2025-11-27 16:56:24.088,2025-11-27 17:56:24.088,17,0,0,50.429,-22.959762,-67.786917,-0.60,1.00,0.00,4.00,0.00,136.50,0,1,0,97,97,-19182,15918,50429,3001.50,15,GPS,1,0,60,0,0,93,0,1764262584088,4142,4159,4155,4160,4163,4165,18,,,,,,,0,0,0,-40.00,0.00,1365.00,0.00,0.00,0.00,6,101.00,11.66,28.05,-6.00,10.00,0.00,0,,,100,100,15,2,0,0,1,0,0,,,,,0.0,0.0,0.0,0.0,0.0,0.0,0
-22.959777,-67.786893,10.10,0.00,1.17,2.95,10.40,10.40,5.61,2.95,6248,2025-11-27 16:56:24.187,2025-11-27 17:56:24.187,17,0,0,50.429,-22.959762,-67.786917,-0.60,1.00,0.00,3.90,0.30,137.50,0,1,0,97,97,-19182,15918,50429,3001.50,15,GPS,1,0,61,0,0,94,0,1764262584187,4142,4159,4155,4160,4163,4165,18,,,,,,,0,0,0,-39.00,3.00,1375.00,0.00,0.00,0.00,6,101.00,11.66,29.46,-6.00,10.00,0.00,0,,,100,100,15,2,0,0,1,0,0,,,,,0.0,0.0,0.0,0.0,0.0,0.0,0
-22.959778,-67.786891,10.10,0.00,1.17,3.21,10.40,10.40,5.61,3.21,6446,2025-11-27 16:56:24.386,2025-11-27 17:56:24.386,17,0,0,49.903,-22.959762,-67.786917,-0.60,1.00,0.00,4.20,0.70,139.60,0,1,0,97,97,-32493,15864,49903,3001.50,15,GPS,1,0,62,0,0,102,0,1764262584385,4142,4159,4155,4160,4163,4165,18,,,,,,,0,0,0,-42.00,7.00,1396.00,0.00,0.00,0.00,6,101.00,11.66,32.07,-6.00,10.00,0.00,0,,,100,100,15,2,0,0,1,0,0,,,,,0.0,0.0,0.0,0.0,0.0,0.0,0
-22.959778,-67.786890,10.10,0.00,1.25,3.34,10.40,10.40,5.61,3.34,6550,2025-11-27 16:56:24.490,2025-11-27 17:56:24.490,17,0,0,49.903,-22.959762,-67.786917,-0.60,1.10,0.00,4.30,1.00,140.60,0,1,0,97,97,-32493,15864,49903,3001.50,15,GPS,1,0,62,0,0,107,0,1764262584489,4142,4159,4155,4160,4163,4165,18,,,,,,,0,0,0,-43.00,10.00,1406.00,0.00,0.00,0.00,6,101.00,12.53,33.36,-6.00,11.00,0.00,0,,,100,100,15,2,0,0,1,0,0,,,,,0.0,0.0,0.0,0.0,0.0,0.0,0
-22.959779,-67.786888,10.10,0.00,1.25,3.48,10.40,10.40,5.61,3.48,6642,2025-11-27 16:56:24.581,2025-11-27 17:56:24.581,17,0,0,49.903,-22.959762,-67.786917,-0.60,1.10,0.00,4.00,1.40,141.80,0,1,0,97,97,-32493,15864,49903,3001.50,15,GPS,1,0,61,0,0,119,0,1764262584581,4142,4159,4155,4160,4163,4165,18,,,,,,,0,0,0,-40.00,14.00,1418.00,0.00,0.00,0.00,6,101.00,12.53,34.77,-6.00,11.00,0.00,0,,,100,100,15,2,0,0,1,0,0,,,,,0.0,0.0,0.0,0.0,0.0,0.0,0
-22.959779,-67.786887,10.10,0.00,1.25,3.61,10.40,10.40,5.61,3.61,6746,2025-11-27 16:56:24.686,2025-11-27 17:56:24.686,17,0,0,49.903,-22.959762,-67.786917,-0.60,1.10,0.00,4.00,1.40,142.90,0,1,0,97,97,-32493,15864,49903,3001.50,15,GPS,1,0,61,0,0,128,0,1764262584685,4142,4159,4155,4160,4163,4165,18,,,,,,,0,0,0,-40.00,14.00,1429.00,0.00,0.00,0.00,6,101.00,12.53,36.14,-6.00,11.00,0.00,0,,,100,100,15,2,0,0,1,0,0,,,,,0.0,0.0,0.0,0.0,0.0,0.0,0
-22.959780,-67.786886,10.00,0.00,1.17,3.77,10.40,10.40,5.61,3.77,6844,2025-11-27 16:56:24.783,2025-11-27 17:56:24.784,17,0,0,49.903,-22.959762,-67.786917,-0.60,1.00,0.00,4.00,1.60,144.20,0,1,0,97,97,-32493,15864,49903,3001.50,15,GPS,1,0,60,0,0,142,0,1764262584783,4142,4159,4155,4160,4163,4165,18,,,,,,,0,0,0,-40.00,16.00,1442.00,0.00,0.00,0.00,6,100.00,11.66,37.67,-6.00,10.00,0.00,0,,,100,100,15,2,0,0,1,0,0,,,,,0.0,0.0,0.0,0.0,0.0,0.0,0
-22.959781,-67.786885,10.00,0.00,1.17,3.91,10.40,10.40,5.61,3.91,6946,2025-11-27 16:56:24.885,2025-11-27 17:56:24.885,17,0,0,49.903,-22.959762,-67.786917,-0.60,1.00,0.00,4.20,1.70,145.70,0,1,0,97,97,-32493,15864,49903,3001.50,15,GPS,1,0,57,0,0,146,0,1764262584885,4142,4159,4155,4160,4163,4165,18,,,,,,,0,0,0,-42.00,17.00,1457.00,0.00,0.00,0.00,6,100.00,11.66,39.06,-6.00,10.00,0.00,0,,,100,100,15,2,0,0,1,0,0,,,,,0.0,0.0,0.0,0.0,0.0,0.0,0
-22.959781,-67.786883,10.00,0.00,1.17,4.06,10.40,10.40,5.61,4.06,7050,2025-11-27 16:56:24.990,2025-11-27 17:56:24.990,17,0,0,49.903,-22.959762,-67.786917,-0.60,1.00,0.00,4.20,2.00,147.30,0,1,0,97,97,-32493,15864,49903,3001.50,15,GPS,1,0,58,0,0,121,0,1764262584989,4142,4159,4155,4160,4163,4165,18,,,,,,,0,0,0,-42.00,20.00,1473.00,0.00,0.00,0.00,6,100.00,11.66,40.56,-6.00,10.00,0.00,0,,,100,100,15,2,0,0,1,0,0,,,,,0.0,0.0,0.0,0.0,0.0,0.0,0
-22.959782,-67.786882,10.00,0.00,1.17,4.19,10.40,10.40,5.61,4.19,7146,2025-11-27 16:56:25.085,2025-11-27 17:56:25.085,17,0,0,49.903,-22.959762,-67.786917,-0.60,1.00,0.00,4.30,2.10,149.00,0,1,0,97,97,-32493,15864,49903,3001.50,15,GPS,1,0,63,0,0,101,0,1764262585085,4142,4159,4155,4160,4163,4165,18,,,,,,,0,0,0,-43.00,21.00,1490.00,0.00,0.00,0.00,6,100.00,11.66,41.93,-6.00,10.00,0.00,0,,,100,100,15,2,0,0,1,0,0,,,,,0.0,0.0,0.0,0.0,0.0,0.0,0
-22.959783,-67.786881,10.00,0.00,1.17,4.34,10.40,10.40,5.61,4.34,7250,2025-11-27 16:56:25.189,2025-11-27 17:56:25.189,17,0,0,49.817,-22.959762,-67.786917,-0.60,1.00,0.00,4.00,2.40,150.40,0,1,0,97,97,-34333,15864,49817,3001.50,15,GPS,1,0,64,0,0,40,0,1764262585189,4142,4159,4155,4160,4163,4165,18,,,,,,,0,0,0,-40.00,24.00,1504.00,0.00,0.00,0.00,6,100.00,11.66,43.42,-6.00,10.00,0.00,0,,,100,100,15,2,0,0,1,0,0,,,,,0.0,0.0,0.0,0.0,0.0,0.0,0
-22.959784,-67.786879,10.00,0.00,1.17,4.63,10.40,10.40,5.61,4.63,7448,2025-11-27 16:56:25.387,2025-11-27 17:56:25.387,17,0,0,49.817,-22.959762,-67.786917,-0.60,1.00,0.00,4.20,2.30,151.90,0,1,0,97,97,-34333,15864,49817,3001.50,15,GPS,1,0,67,0,0,0,0,1764262585387,4142,4159,4155,4160,4163,4165,18,,,,,,,0,0,0,-42.00,23.00,1519.00,0.00,0.00,0.00,6,100.00,11.66,46.26,-6.00,10.00,0.00,0,,,100,100,15,2,0,0,1,0,0,,,,,0.0,0.0,0.0,0.0,0.0,0.0,0
-22.959785,-67.786878,10.00,0.00,1.17,4.76,10.40,10.40,5.61,4.76,7549,2025-11-27 16:56:25.489,2025-11-27 17:56:25.489,17,0,0,49.817,-22.959762,-67.786917,-0.60,1.00,0.00,4.00,2.30,152.10,0,1,0,97,97,-34333,15864,49817,3001.50,15,GPS,1,0,66,0,0,0,0,1764262585488,4142,4159,4155,4160,4163,4165,18,,,,,,,0,0,0,-40.00,23.00,1521.00,0.00,0.00,0.00,6,100.00,11.66,47.61,-6.00,10.00,0.00,0,,,100,100,15,2,0,0,1,0,0,,,,,0.0,0.0,0.0,0.0,0.0,0.0,0
-22.959785,-67.786876,10.00,0.00,1.17,4.91,10.40,10.40,5.61,4.91,7652,2025-11-27 16:56:25.592,2025-11-27 17:56:25.592,17,0,0,49.817,-22.959762,-67.786917,-0.60,1.00,0.00,4.00,2.40,152.10,0,1,0,97,97,-34333,15864,49817,3001.50,15,GPS,1,0,62,0,0,0,0,1764262585591,4142,4159,4155,4160,4163,4165,18,,,,,,,0,0,0,-40.00,24.00,1521.00,0.00,0.00,0.00,6,100.00,11.66,49.06,-6.00,10.00,0.00,0,,,100,100,15,2,0,0,1,0,0,,,,,0.0,0.0,0.0,0.0,0.0,0.0,0
-22.959786,-67.786875,10.00,0.00,1.17,5.04,10.40,10.40,5.61,5.04,7748,2025-11-27 16:56:25.688,2025-11-27 17:56:25.688,17,0,0,49.817,-22.959762,-67.786917,-0.60,1.00,0.00,4.20,2.20,152.10,0,1,0,97,97,-34333,15864,49817,3001.50,15,GPS,1,0,60,0,0,0,0,1764262585687,4142,4159,4155,4160,4163,4165,18,,,,,,,0,0,0,-42.00,22.00,1521.00,0.00,0.00,0.00,6,100.00,11.66,50.40,-6.00,10.00,0.00,0,,,100,100,15,2,0,0,1,0,0,,,,,0.0,0.0,0.0,0.0,0.0,0.0,0
-22.959786,-67.786874,10.00,0.00,1.17,5.18,10.40,10.40,5.61,5.18,7752,2025-11-27 16:56:25.691,2025-11-27 17:56:25.691,17,0,0,49.817,-22.959762,-67.786917,-0.60,1.00,0.00,4.40,2.10,152.10,0,1,0,97,97,-34333,15864,49817,3001.50,15,GPS,1,0,60,0,0,0,0,1764262585691,4142,4159,4155,4160,4163,4165,18,,,,,,,0,0,0,-44.00,21.00,1521.00,0.00,0.00,0.00,6,100.00,11.66,51.84,-6.00,10.00,0.00,0,,,100,100,15,2,0,0,1,0,0,,,,,0.0,0.0,0.0,0.0,0.0,0.0,0
-22.959787,-67.786873,10.00,0.00,1.17,5.32,10.40,10.40,5.61,5.32,7952,2025-11-27 16:56:25.892,2025-11-27 17:56:25.892,17,0,0,49.817,-22.959762,-67.786917,-0.60,1.00,0.00,4.60,2.20,152.10,0,1,0,97,97,-34333,15864,49817,3001.50,15,GPS,1,0,63,0,0,0,0,1764262585891,4142,4159,4155,4160,4163,4165,18,,,,,,,0,0,0,-46.00,22.00,1521.00,0.00,0.00,0.00,6,100.00,11.66,53.18,-6.00,10.00,0.00,0,,,100,100,15,2,0,0,1,0,0,,,,,0.0,0.0,0.0,0.0,0.0,0.0,0
-22.959788,-67.786872,10.00,0.00,1.17,5.46,10.40,10.40,5.61,5.46,7962,2025-11-27 16:56:25.902,2025-11-27 17:56:25.902,17,0,0,49.817,-22.959762,-67.786917,-0.60,1.00,0.00,4.60,2.30,152.20,0,1,0,97,97,-34333,15864,49817,3001.50,15,GPS,1,0,63,0,0,0,0,1764262585901,4142,4159,4155,4160,4163,4165,18,,,,,,,0,0,0,-46.00,23.00,1522.00,0.00,0.00,0.00,6,100.00,11.66,54.64,-6.00,10.00,0.00,0,,,100,100,15,2,0,0,1,0,0,,,,,0.0,0.0,0.0,0.0,0.0,0.0,0
-22.959788,-67.786870,10.00,0.00,1.17,5.60,10.40,10.40,5.61,5.60,8053,2025-11-27 16:56:25.992,2025-11-27 17:56:25.993,17,0,0,49.817,-22.959762,-67.786917,-0.60,1.00,0.00,4.50,2.50,152.10,0,1,0,97,97,-34333,15864,49817,3001.50,15,GPS,1,0,62,0,0,0,0,1764262585992,4142,4159,4155,4160,4163,4165,18,,,,,,,0,0,0,-45.00,25.00,1521.00,0.00,0.00,0.00,6,100.00,11.66,55.97,-6.00,10.00,0.00,0,,,100,100,15,2,0,0,1,0,0,,,,,0.0,0.0,0.0,0.0,0.0,0.0,0
-22.959789,-67.786869,10.00,0.00,1.17,5.74,10.40,10.40,5.61,5.74,8255,2025-11-27 16:56:26.195,2025-11-27 17:56:26.195,17,0,0,49.817,-22.959762,-67.786917,-0.60,1.00,0.00,4.40,2.80,152.10,0,1,0,97,97,-34333,15864,49817,3001.50,15,GPS,1,0,60,0,0,0,0,1764262586194,4142,4159,4155,4160,4163,4165,18,,,,,,,0,0,0,-44.00,28.00,1521.00,0.00,0.00,0.00,6,100.00,11.66,57.45,-6.00,10.00,0.00,0,,,100,100,15,2,0,0,1,0,0,,,,,0.0,0.0,0.0,0.0,0.0,0.0,0
-22.959790,-67.786867,10.00,0.00,1.17,6.02,10.40,10.40,5.61,6.02,8462,2025-11-27 16:56:26.402,2025-11-27 17:56:26.402,17,0,0,49.817,-22.959762,-67.786917,-0.60,1.00,0.00,4.30,3.20,152.10,0,1,0,97,97,-34333,15864,49817,3001.50,15,GPS,1,0,63,0,0,179,0,1764262586401,4142,4159,4155,4160,4163,4165,18,,,,,,,0,0,0,-43.00,32.00,1521.00,0.00,0.00,0.00,6,100.00,11.66,60.21,-6.00,10.00,0.00,0,,,100,100,15,2,0,0,1,0,0,,,,,0.0,0.0,0.0,0.0,0.0,0.0,0
-22.959791,-67.786866,10.00,0.00,1.17,6.14,10.40,10.40,5.61,6.14,8467,2025-11-27 16:56:26.407,2025-11-27 17:56:26.407,17,0,0,49.817,-22.959762,-67.786917,-0.60,1.00,0.00,4.20,3.30,152.40,0,1,0,97,97,-34333,15864,49817,3001.50,15,GPS,1,0,63,0,0,179,0,1764262586406,4142,4159,4155,4160,4163,4165,18,,,,,,,0,0,0,-42.00,33.00,1524.00,0.00,0.00,0.00,6,100.00,11.66,61.38,-6.00,10.00,0.00,0,,,100,100,15,2,0,0,1,0,0,,,,,0.0,0.0,0.0,0.0,0.0,0.0,0
-22.959791,-67.786865,10.00,0.00,1.17,6.27,10.40,10.40,5.61,6.27,8555,2025-11-27 16:56:26.495,2025-11-27 17:56:26.495,17,0,0,49.817,-22.959762,-67.786917,-0.60,1.00,0.00,4.10,3.40,154.10,0,1,0,97,97,-34333,15864,49817,3001.50,15,GPS,1,0,64,0,0,225,0,1764262586494,4142,4159,4155,4160,4163,4165,18,,,,,,,0,0,0,-41.00,34.00,1541.00,0.00,0.00,0.00,6,100.00,11.66,62.74,-6.00,10.00,0.00,0,,,100,100,15,2,0,0,1,0,0,,,,,0.0,0.0,0.0,0.0,0.0,0.0,0
-22.959792,-67.786864,10.00,0.00,1.17,6.40,10.40,10.40,5.61,6.40,8663,2025-11-27 16:56:26.602,2025-11-27 17:56:26.602,17,0,0,49.817,-22.959762,-67.786917,-0.60,1.00,0.00,4.20,3.60,157.10,0,1,0,97,97,-34333,15864,49817,3001.50,15,GPS,1,0,64,0,0,279,0,1764262586602,4142,4159,4155,4160,4163,4165,18,,,,,,,0,0,0,-42.00,36.00,1571.00,0.00,0.00,0.00,6,100.00,11.66,64.00,-6.00,10.00,0.00,0,,,100,100,15,2,0,0,1,0,0,,,,,0.0,0.0,0.0,0.0,0.0,0.0,0
-22.959792,-67.786862,10.00,0.00,1.08,6.53,10.40,10.40,5.61,6.53,8767,2025-11-27 16:56:26.706,2025-11-27 17:56:26.706,17,0,0,49.817,-22.959762,-67.786917,-0.60,0.90,0.00,4.10,3.90,161.20,0,1,0,97,97,-34333,15864,49817,3001.50,15,GPS,1,0,64,0,0,271,0,1764262586706,4142,4159,4155,4160,4163,4165,18,,,,,,,0,0,0,-41.00,39.00,1612.00,0.00,0.00,0.00,6,100.00,10.82,65.31,-6.00,9.00,0.00,0,,,100,100,15,2,0,0,1,0,0,,,,,0.0,0.0,0.0,0.0,0.0,0.0,0
-22.959793,-67.786861,10.10,0.00,1.08,6.65,10.40,10.40,5.61,6.65,8858,2025-11-27 16:56:26.797,2025-11-27 17:56:26.797,17,0,0,49.817,-22.959762,-67.786917,-0.60,0.90,0.00,4.00,3.90,165.50,0,1,0,97,97,-34333,15864,49817,3001.50,15,GPS,1,0,62,0,0,233,0,1764262586797,4142,4159,4155,4160,4163,4165,18,,,,,,,0,0,0,-40.00,39.00,1655.00,0.00,0.00,0.00,6,101.00,10.82,66.48,-6.00,9.00,0.00,0,,,100,100,15,2,0,0,1,0,0,,,,,0.0,0.0,0.0,0.0,0.0,0.0,0
-22.959793,-67.786860,10.10,0.00,1.08,6.77,10.40,10.40,5.61,6.77,8961,2025-11-27 16:56:26.901,2025-11-27 17:56:26.901,17,0,0,49.817,-22.959762,-67.786917,-0.60,0.90,0.00,3.80,3.90,169.10,0,1,0,97,97,-34333,15864,49817,3001.50,15,GPS,1,0,62,0,0,209,0,1764262586900,4142,4159,4155,4160,4163,4165,18,,,,,,,0,0,0,-38.00,39.00,1691.00,0.00,0.00,0.00,6,101.00,10.82,67.74,-6.00,9.00,0.00,0,,,100,100,15,2,0,0,1,0,0,,,,,0.0,0.0,0.0,0.0,0.0,0.0,0
-22.959794,-67.786860,10.10,0.00,1.08,6.88,10.40,10.40,5.61,6.88,9064,2025-11-27 16:56:27.003,2025-11-27 17:56:27.003,17,0,0,49.817,-22.959762,-67.786917,-0.60,0.90,0.00,3.60,3.90,172.40,0,1,0,97,97,-34333,15864,49817,3001.50,15,GPS,1,0,64,0,0,187,0,1764262587003,4142,4159,4155,4160,4163,4165,18,,,,,,,0,0,0,-36.00,39.00,1724.00,0.00,0.00,0.00,6,101.00,10.82,68.79,-6.00,9.00,0.00,0,,,100,100,15,2,0,0,1,0,0,,,,,0.0,0.0,0.0,0.0,0.0,0.0,0
-22.959795,-67.786859,10.10,0.00,1.03,7.00,10.40,10.40,5.61,7.00,9159,2025-11-27 16:56:27.099,2025-11-27 17:56:27.099,17,0,0,49.817,-22.959762,-67.786917,-0.50,0.90,0.00,3.40,4.10,175.00,0,1,0,97,97,-34333,15864,49817,3001.50,15,GPS,1,0,67,0,0,70,0,1764262587098,4142,4159,4155,4160,4163,4165,18,,,,,,,0,0,0,-34.00,41.00,1750.00,0.00,0.00,0.00,6,101.00,10.30,69.98,-5.00,9.00,0.00,0,,,100,100,15,2,0,0,1,0,0,,,,,0.0,0.0,0.0,0.0,0.0,0.0,0
-22.959795,-67.786858,10.10,0.00,1.03,7.10,10.40,10.40,5.61,7.10,9264,2025-11-27 16:56:27.204,2025-11-27 17:56:27.204,17,0,0,49.596,-22.959762,-67.786917,-0.50,0.90,0.00,3.10,4.40,176.20,0,1,0,97,97,-35749,15864,49596,3001.50,15,GPS,1,0,80,0,0,0,0,1764262587203,4142,4159,4155,4160,4163,4165,18,,,,,,,0,0,0,-31.00,44.00,1762.00,0.00,0.00,0.00,6,101.00,10.30,70.97,-5.00,9.00,0.00,0,,,100,100,15,2,0,0,1,0,0,,,,,0.0,0.0,0.0,0.0,0.0,0.0,0
-22.959796,-67.786857,10.10,0.00,0.94,7.21,10.40,10.40,5.61,7.21,9463,2025-11-27 16:56:27.403,2025-11-27 17:56:27.403,17,0,0,49.596,-22.959762,-67.786917,-0.50,0.80,0.00,2.90,4.60,176.40,0,1,0,97,97,-35749,15864,49596,3001.50,15,GPS,1,0,85,0,0,0,0,1764262587402,4142,4159,4155,4160,4163,4165,18,,,,,,,0,0,0,-29.00,46.00,1764.00,0.00,0.00,0.00,6,101.00,9.43,72.10,-5.00,8.00,0.00,0,,,100,100,15,2,0,0,1,0,0,,,,,0.0,0.0,0.0,0.0,0.0,0.0,0
-22.959796,-67.786856,10.10,0.00,0.94,7.31,10.40,10.40,5.61,7.31,9469,2025-11-27 16:56:27.409,2025-11-27 17:56:27.409,17,0,0,49.596,-22.959762,-67.786917,-0.50,0.80,0.00,2.40,4.70,176.40,0,1,0,97,97,-35749,15864,49596,3001.50,15,GPS,1,0,85,0,0,0,0,1764262587408,4142,4159,4155,4160,4163,4165,18,,,,,,,0,0,0,-24.00,47.00,1764.00,0.00,0.00,0.00,6,101.00,9.43,73.14,-5.00,8.00,0.00,0,,,100,100,15,2,0,0,1,0,0,,,,,0.0,0.0,0.0,0.0,0.0,0.0,0
-22.959796,-67.786855,10.10,0.00,0.94,7.43,10.40,10.40,5.61,7.43,9566,2025-11-27 16:56:27.505,2025-11-27 17:56:27.505,17,0,0,49.596,-22.959762,-67.786917,-0.50,0.80,0.00,2.00,4.90,176.40,0,1,0,97,97,-35749,15864,49596,3001.50,15,GPS,1,0,90,0,0,0,0,1764262587505,4142,4159,4155,4160,4163,4165,18,,,,,,,0,0,0,-20.00,49.00,1764.00,0.00,0.00,0.00,6,101.00,9.43,74.25,-5.00,8.00,0.00,0,,,100,100,15,2,0,0,1,0,0,,,,,0.0,0.0,0.0,0.0,0.0,0.0,0
-22.959797,-67.786854,10.10,0.00,0.94,7.53,10.40,10.40,5.61,7.53,9662,2025-11-27 16:56:27.601,2025-11-27 17:56:27.601,17,0,0,49.596,-22.959762,-67.786917,-0.50,0.80,0.00,1.70,5.00,176.40,0,1,0,97,97,-35749,15864,49596,3001.50,15,GPS,1,0,93,0,0,0,0,1764262587601,4142,4159,4155,4160,4163,4165,18,,,,,,,0,0,0,-17.00,50.00,1764.00,0.00,0.00,0.00,6,101.00,9.43,75.27,-5.00,8.00,0.00,0,,,100,100,15,2,0,0,1,0,0,,,,,0.0,0.0,0.0,0.0,0.0,0.0,0
-22.959797,-67.786853,10.10,0.00,0.94,7.64,10.40,10.40,5.61,7.64,9766,2025-11-27 16:56:27.705,2025-11-27 17:56:27.705,17,0,0,49.596,-22.959762,-67.786917,-0.50,0.80,0.00,1.40,5.10,176.30,0,1,0,97,97,-35749,15864,49596,3001.50,15,GPS,1,0,94,0,0,0,0,1764262587705,4142,4159,4155,4160,4163,4165,18,,,,,,,0,0,0,-14.00,51.00,1763.00,0.00,0.00,0.00,6,101.00,9.43,76.35,-5.00,8.00,0.00,0,,,100,100,15,2,0,0,1,0,0,,,,,0.0,0.0,0.0,0.0,0.0,0.0,0
-22.959798,-67.786852,10.10,0.00,0.86,7.73,10.40,10.40,5.61,7.73,9865,2025-11-27 16:56:27.805,2025-11-27 17:56:27.805,17,0,0,49.596,-22.959762,-67.786917,-0.50,0.70,0.00,1.20,5.00,176.30,0,1,0,97,97,-35749,15864,49596,3001.50,15,GPS,1,0,97,0,0,0,0,1764262587804,4142,4159,4155,4160,4163,4165,18,,,,,,,0,0,0,-12.00,50.00,1763.00,0.00,0.00,0.00,6,101.00,8.60,77.32,-5.00,7.00,0.00,0,,,100,100,15,2,0,0,1,0,0,,,,,0.0,0.0,0.0,0.0,0.0,0.0,0
-22.959798,-67.786852,10.10,0.00,0.92,7.83,10.40,10.40,5.61,7.83,9966,2025-11-27 16:56:27.905,2025-11-27 17:56:27.905,17,0,0,49.596,-22.959762,-67.786917,-0.60,0.70,0.00,1.10,5.00,176.30,0,1,0,97,97,-35749,15864,49596,3001.50,15,GPS,1,0,99,0,0,0,0,1764262587905,4142,4159,4155,4160,4163,4165,18,,,,,,,0,0,0,-11.00,50.00,1763.00,0.00,0.00,0.00,6,101.00,9.22,78.34,-6.00,7.00,0.00,0,,,100,100,15,2,0,0,1,0,0,,,,,0.0,0.0,0.0,0.0,0.0,0.0,0
-22.959799,-67.786851,10.10,0.00,0.92,7.92,10.40,10.40,5.61,7.92,10070,2025-11-27 16:56:28.010,2025-11-27 17:56:28.010,17,0,0,49.596,-22.959762,-67.786917,-0.60,0.70,0.00,1.10,5.00,176.30,0,1,0,97,97,-35749,15864,49596,3001.50,15,GPS,1,0,116,0,0,0,0,1764262588009,4142,4159,4155,4160,4163,4165,18,,,,,,,0,0,0,-11.00,50.00,1763.00,0.00,0.00,0.00,6,101.00,9.22,79.19,-6.00,7.00,0.00,0,,,100,100,15,2,0,0,1,0,0,,,,,0.0,0.0,0.0,0.0,0.0,0.0,0
-22.959800,-67.786850,10.10,0.00,0.85,8.01,10.40,10.40,5.61,8.01,10173,2025-11-27 16:56:28.112,2025-11-27 17:56:28.113,17,0,0,49.596,-22.959762,-67.786917,-0.60,0.60,0.00,0.70,5.00,176.30,0,1,0,97,97,-35749,15864,49596,3001.50,15,GPS,1,0,136,0,0,0,0,1764262588112,4142,4159,4155,4160,4163,4165,18,,,,,,,0,0,0,-7.00,50.00,1763.00,0.00,0.00,0.00,6,101.00,8.49,80.12,-6.00,6.00,0.00,0,,,100,100,15,2,0,0,1,0,0,,,,,0.0,0.0,0.0,0.0,0.0,0.0,0
-22.959800,-67.786850,10.10,0.00,0.85,8.09,10.40,10.40,5.61,8.09,10282,2025-11-27 16:56:28.222,2025-11-27 17:56:28.222,17,0,0,49.596,-22.959762,-67.786917,-0.60,0.60,0.00,0.40,5.10,176.30,0,1,0,97,97,-35749,15864,49596,3001.50,15,GPS,1,0,145,0,0,0,0,1764262588221,4142,4159,4155,4160,4163,4165,18,,,,,,,0,0,0,-4.00,51.00,1763.00,0.00,0.00,0.00,6,101.00,8.49,80.93,-6.00,6.00,0.00,0,,,100,100,15,2,0,0,1,0,0,,,,,0.0,0.0,0.0,0.0,0.0,0.0,0
-22.959801,-67.786849,10.10,0.00,0.85,8.18,10.40,10.40,5.61,8.18,10370,2025-11-27 16:56:28.309,2025-11-27 17:56:28.309,17,0,0,49.596,-22.959762,-67.786917,-0.60,0.60,0.00,-0.10,5.00,176.30,0,1,0,97,97,-35749,15864,49596,3001.50,15,GPS,1,0,151,0,0,0,0,1764262588309,4142,4159,4155,4160,4163,4165,18,,,,,,,0,0,0,1.00,50.00,1763.00,0.00,0.00,0.00,6,101.00,8.49,81.76,-6.00,6.00,0.00,0,,,100,100,15,2,0,0,1,0,0,,,,,0.0,0.0,0.0,0.0,0.0,0.0,0
-22.959801,-67.786849,10.10,0.00,0.86,8.26,10.40,10.40,5.61,8.26,10480,2025-11-27 16:56:28.419,2025-11-27 17:56:28.419,17,0,0,49.596,-22.959762,-67.786917,-0.70,0.50,0.00,-0.70,4.90,176.30,0,1,0,97,97,-35749,15864,49596,3001.50,15,GPS,1,0,145,0,0,0,0,1764262588419,4142,4159,4155,4160,4163,4165,18,,,,,,,0,0,0,7.00,49.00,1763.00,0.00,0.00,0.00,6,101.00,8.60,82.57,-7.00,5.00,0.00,0,,,100,100,15,2,0,0,1,0,0,,,,,0.0,0.0,0.0,0.0,0.0,0.0,0
-22.959802,-67.786848,10.10,0.00,0.86,8.34,10.40,10.40,5.61,8.34,10582,2025-11-27 16:56:28.521,2025-11-27 17:56:28.521,17,0,0,49.596,-22.959762,-67.786917,-0.70,0.50,0.00,-0.70,4.70,176.30,0,1,0,97,97,-35749,15864,49596,3001.50,15,GPS,1,0,147,0,0,0,0,1764262588521,4142,4159,4155,4160,4163,4165,18,,,,,,,0,0,0,7.00,47.00,1763.00,0.00,0.00,0.00,6,101.00,8.60,83.43,-7.00,5.00,0.00,0,,,100,100,15,2,0,0,1,0,0,,,,,0.0,0.0,0.0,0.0,0.0,0.0,0
-22.959803,-67.786848,10.10,0.00,0.89,8.42,10.40,10.40,5.61,8.42,10683,2025-11-27 16:56:28.622,2025-11-27 17:56:28.622,17,0,0,49.596,-22.959762,-67.786917,-0.80,0.40,0.00,-0.80,4.80,176.20,0,1,0,97,97,-35749,15864,49596,3001.50,15,GPS,1,0,138,0,0,0,0,1764262588622,4142,4159,4155,4160,4163,4165,18,,,,,,,0,0,0,8.00,48.00,1762.00,0.00,0.00,0.00,6,101.00,8.94,84.23,-8.00,4.00,0.00,0,,,100,100,15,2,0,0,1,0,0,,,,,0.0,0.0,0.0,0.0,0.0,0.0,0
-22.959804,-67.786847,10.00,0.00,0.89,8.51,10.40,10.40,5.61,8.51,10782,2025-11-27 16:56:28.721,2025-11-27 17:56:28.721,17,0,0,49.596,-22.959762,-67.786917,-0.80,0.40,0.00,-0.50,4.70,176.30,0,1,0,97,97,-35749,15864,49596,3001.50,15,GPS,1,0,140,0,0,0,0,1764262588721,4142,4159,4155,4160,4163,4165,18,,,,,,,0,0,0,5.00,47.00,1763.00,0.00,0.00,0.00,6,100.00,8.94,85.15,-8.00,4.00,0.00,0,,,100,100,15,2,0,0,1,0,0,,,,,0.0,0.0,0.0,0.0,0.0,0.0,0
-22.959805,-67.786847,10.00,0.00,0.98,8.61,10.40,10.40,5.61,8.61,10877,2025-11-27 16:56:28.817,2025-11-27 17:56:28.817,17,0,0,49.596,-22.959762,-67.786917,-0.90,0.40,0.00,-0.30,4.50,176.30,0,1,0,97,97,-35749,15864,49596,3001.50,15,GPS,1,0,140,0,0,0,0,1764262588816,4142,4159,4155,4160,4163,4165,18,,,,,,,0,0,0,3.00,45.00,1763.00,0.00,0.00,0.00,6,100.00,9.85,86.05,-9.00,4.00,0.00,0,,,100,100,15,2,0,0,1,0,0,,,,,0.0,0.0,0.0,0.0,0.0,0.0,0
-22.959806,-67.786847,10.00,0.00,0.98,8.70,10.40,10.40,5.61,8.70,10977,2025-11-27 16:56:28.916,2025-11-27 17:56:28.916,17,0,0,49.596,-22.959762,-67.786917,-0.90,0.40,0.00,-0.30,4.70,176.30,0,1,0,97,97,-35749,15864,49596,3001.50,15,GPS,1,0,140,0,0,0,0,1764262588916,4142,4159,4155,4160,4163,4165,18,,,,,,,0,0,0,3.00,47.00,1763.00,0.00,0.00,0.00,6,100.00,9.85,86.97,-9.00,4.00,0.00,0,,,100,100,15,2,0,0,1,0,0,,,,,0.0,0.0,0.0,0.0,0.0,0.0,0
-22.959807,-67.786846,10.00,0.00,1.04,8.78,10.40,10.40,5.61,8.78,11078,2025-11-27 16:56:29.017,2025-11-27 17:56:29.017,17,0,0,49.596,-22.959762,-67.786917,-1.00,0.30,0.00,-0.10,4.60,176.30,0,1,0,97,97,-35749,15864,49596,3001.50,15,GPS,1,0,141,0,0,0,0,1764262589017,4142,4159,4155,4160,4163,4165,18,,,,,,,0,0,0,1.00,46.00,1763.00,0.00,0.00,0.00,6,100.00,10.44,87.84,-10.00,3.00,0.00,0,,,100,100,15,2,0,0,1,0,0,,,,,0.0,0.0,0.0,0.0,0.0,0.0,0
-22.959808,-67.786846,10.00,0.00,1.04,8.88,10.40,10.40,5.61,8.88,11181,2025-11-27 16:56:29.120,2025-11-27 17:56:29.120,17,0,0,49.596,-22.959762,-67.786917,-1.00,0.30,0.00,0.00,4.70,176.30,0,1,0,97,97,-35749,15864,49596,3001.50,15,GPS,1,0,142,0,0,0,0,1764262589120,4142,4159,4155,4160,4163,4165,18,,,,,,,0,0,0,-0.00,47.00,1763.00,0.00,0.00,0.00,6,100.00,10.44,88.75,-10.00,3.00,0.00,0,,,100,100,15,2,0,0,1,0,0,,,,,0.0,0.0,0.0,0.0,0.0,0.0,0
-22.959810,-67.786846,10.00,0.00,1.14,9.05,10.40,10.40,5.61,9.05,11395,2025-11-27 16:56:29.334,2025-11-27 17:56:29.334,17,0,0,49.570,-22.959762,-67.786917,-1.10,0.30,0.00,0.10,4.30,176.30,0,1,0,97,97,-34811,15810,49570,3001.50,15,GPS,1,0,144,0,0,0,0,1764262589334,4142,4159,4155,4160,4163,4165,18,,,,,,,0,0,0,-1.00,43.00,1763.00,0.00,0.00,0.00,6,100.00,11.40,90.48,-11.00,3.00,0.00,0,,,100,100,15,2,0,0,1,0,0,,,,,0.0,0.0,0.0,0.0,0.0,0.0,0
-22.959811,-67.786845,10.00,0.00,1.12,9.13,10.40,10.40,5.61,9.13,11478,2025-11-27 16:56:29.417,2025-11-27 17:56:29.417,17,0,0,49.570,-22.959762,-67.786917,-1.10,0.20,0.00,0.10,4.50,176.30,0,1,0,97,97,-34811,15810,49570,3001.50,15,GPS,1,0,142,0,0,0,0,1764262589417,4142,4159,4155,4160,4163,4165,18,,,,,,,0,0,0,-1.00,45.00,1763.00,0.00,0.00,0.00,6,100.00,11.18,91.30,-11.00,2.00,0.00,0,,,100,100,15,2,0,0,1,0,0,,,,,0.0,0.0,0.0,0.0,0.0,0.0,0
-22.959812,-67.786845,10.00,0.00,1.12,9.22,10.40,10.40,5.61,9.22,11579,2025-11-27 16:56:29.518,2025-11-27 17:56:29.519,17,0,0,49.570,-22.959762,-67.786917,-1.10,0.20,0.00,0.20,4.40,176.30,0,1,0,97,97,-34811,15810,49570,3001.50,15,GPS,1,0,144,0,0,0,0,1764262589518,4142,4159,4155,4160,4163,4165,18,,,,,,,0,0,0,-2.00,44.00,1763.00,0.00,0.00,0.00,6,100.00,11.18,92.17,-11.00,2.00,0.00,0,,,100,100,15,2,0,0,1,0,0,,,,,0.0,0.0,0.0,0.0,0.0,0.0,0
-22.959813,-67.786845,10.00,0.00,1.12,9.31,10.40,10.40,5.61,9.31,11683,2025-11-27 16:56:29.623,2025-11-27 17:56:29.623,17,0,0,49.570,-22.959762,-67.786917,-1.10,0.20,0.00,0.20,4.30,176.30,0,1,0,97,97,-34811,15810,49570,3001.50,15,GPS,1,0,144,0,0,0,0,1764262589622,4142,4159,4155,4160,4163,4165,18,,,,,,,0,0,0,-2.00,43.00,1763.00,0.00,0.00,0.00,6,100.00,11.18,93.07,-11.00,2.00,0.00,0,,,100,99,15,2,0,0,1,0,0,,,,,0.0,0.0,0.0,0.0,0.0,0.0,0
-22.959814,-67.786845,10.00,0.00,1.12,9.39,10.40,10.40,5.61,9.39,11782,2025-11-27 16:56:29.722,2025-11-27 17:56:29.722,17,0,0,49.570,-22.959762,-67.786917,-1.10,0.20,0.00,0.20,4.10,176.30,0,1,0,97,97,-34811,15810,49570,3001.50,15,GPS,1,0,145,0,0,0,0,1764262589721,4142,4159,4155,4160,4163,4165,18,,,,,,,0,0,0,-2.00,41.00,1763.00,0.00,0.00,0.00,6,100.00,11.18,93.95,-11.00,2.00,0.00,0,,,100,99,15,2,0,0,1,0,0,,,,,0.0,0.0,0.0,0.0,0.0,0.0,0
-22.959816,-67.786845,10.00,0.00,1.22,9.48,10.40,10.40,5.61,9.48,11883,2025-11-27 16:56:29.823,2025-11-27 17:56:29.823,17,0,0,49.570,-22.959762,-67.786917,-1.20,0.20,0.00,0.00,4.10,176.20,0,1,0,97,97,-34811,15810,49570,3001.50,15,GPS,1,0,147,0,0,0,0,1764262589822,4142,4159,4155,4160,4163,4165,18,,,,,,,0,0,0,-0.00,41.00,1762.00,0.00,0.00,0.00,6,100.00,12.17,94.84,-12.00,2.00,0.00,0,,,100,99,15,2,0,0,1,0,0,,,,,0.0,0.0,0.0,0.0,0.0,0.0,0
-22.959817,-67.786845,10.00,0.00,1.22,9.57,10.40,10.40,5.61,9.57,11984,2025-11-27 16:56:29.924,2025-11-27 17:56:29.924,17,0,0,49.570,-22.959762,-67.786917,-1.20,0.20,0.00,0.00,4.30,176.20,0,1,0,97,97,-34811,15810,49570,3001.50,15,GPS,1,0,145,0,0,0,0,1764262589923,4142,4159,4155,4160,4163,4165,18,,,,,,,0,0,0,-0.00,43.00,1762.00,0.00,0.00,0.00,6,100.00,12.17,95.71,-12.00,2.00,0.00,0,,,100,99,15,2,0,0,1,0,0,,,,,0.0,0.0,0.0,0.0,0.0,0.0,0
-22.959818,-67.786845,10.00,0.00,1.20,9.66,10.40,10.40,5.61,9.66,12085,2025-11-27 16:56:30.025,2025-11-27 17:56:30.025,17,0,0,49.570,-22.959762,-67.786917,-1.20,0.10,0.00,0.30,4.10,176.20,0,1,0,97,97,-34811,15810,49570,3001.50,15,GPS,1,0,147,0,0,0,0,1764262590024,4142,4159,4155,4160,4163,4165,18,,,,,,,0,0,0,-3.00,41.00,1762.00,0.00,0.00,0.00,6,100.00,12.04,96.61,-12.00,1.00,0.00,0,,,100,99,15,2,0,0,1,0,0,,,,,0.0,0.0,0.0,0.0,0.0,0.0,0
-22.959819,-67.786845,10.00,0.00,1.30,9.75,10.40,10.40,5.61,9.75,12182,2025-11-27 16:56:30.121,2025-11-27 17:56:30.121,17,0,0,49.570,-22.959762,-67.786917,-1.30,0.10,0.00,0.60,4.10,176.30,0,1,0,97,97,-34811,15810,49570,3001.50,15,GPS,1,0,147,0,0,0,0,1764262590121,4142,4159,4155,4160,4163,4165,18,,,,,,,0,0,0,-6.00,41.00,1763.00,0.00,0.00,0.00,6,100.00,13.04,97.51,-13.00,1.00,0.00,0,,,100,99,15,2,0,0,1,0,0,,,,,0.0,0.0,0.0,0.0,0.0,0.0,0
-22.959820,-67.786845,10.00,0.00,1.30,9.84,10.40,10.40,5.61,9.84,12285,2025-11-27 16:56:30.225,2025-11-27 17:56:30.225,17,0,0,49.570,-22.959762,-67.786917,-1.30,0.10,0.00,0.60,4.10,176.30,0,1,0,97,97,-34811,15810,49570,3001.50,15,GPS,1,0,147,0,0,0,0,1764262590224,4142,4159,4155,4160,4163,4165,18,,,,,,,0,0,0,-6.00,41.00,1763.00,0.00,0.00,0.00,6,100.00,13.04,98.35,-13.00,1.00,0.00,0,,,100,99,15,2,0,0,1,0,0,,,,,0.0,0.0,0.0,0.0,0.0,0.0,0
-22.959821,-67.786845,10.00,0.00,1.30,9.92,10.40,10.40,5.61,9.92,12384,2025-11-27 16:56:30.323,2025-11-27 17:56:30.323,17,0,0,49.570,-22.959762,-67.786917,-1.30,0.00,0.00,0.40,4.00,176.30,0,1,0,97,97,-34811,15810,49570,3001.50,15,GPS,1,0,147,0,0,0,0,1764262590323,4142,4159,4155,4160,4163,4165,18,,,,,,,0,0,0,-4.00,40.00,1763.00,0.00,0.00,0.00,6,100.00,13.00,99.24,-13.00,0.00,0.00,0,,,100,99,15,2,0,0,1,0,0,,,,,0.0,0.0,0.0,0.0,0.0,0.0,0
-22.959823,-67.786845,10.00,0.00,1.30,10.00,10.40,10.40,5.61,10.00,12487,2025-11-27 16:56:30.426,2025-11-27 17:56:30.426,17,0,0,49.570,-22.959762,-67.786917,-1.30,0.00,0.00,0.20,3.90,176.30,0,1,0,97,97,-34811,15810,49570,3001.50,15,GPS,1,0,145,0,0,0,0,1764262590426,4142,4159,4155,4160,4163,4165,18,,,,,,,0,0,0,-2.00,39.00,1763.00,0.00,0.00,0.00,6,100.00,13.00,99.98,-13.00,0.00,0.00,0,,,100,99,15,2,0,0,1,0,0,,,,,0.0,0.0,0.0,0.0,0.0,0.0,0
-22.959824,-67.786845,10.00,0.00,1.30,10.08,10.40,10.40,5.61,10.08,12589,2025-11-27 16:56:30.528,2025-11-27 17:56:30.528,17,0,0,49.570,-22.959762,-67.786917,-1.30,0.00,0.00,0.40,3.80,176.30,0,1,0,97,97,-34811,15810,49570,3001.50,15,GPS,1,0,142,0,0,0,0,1764262590528,4142,4159,4155,4160,4163,4165,18,,,,,,,0,0,0,-4.00,38.00,1763.00,0.00,0.00,0.00,6,100.00,13.00,100.83,-13.00,0.00,0.00,0,,,100,99,15,2,0,0,1,0,0,,,,,0.0,0.0,0.0,0.0,0.0,0.0,0
-22.959825,-67.786845,10.00,0.00,1.30,10.17,10.40,10.40,5.61,10.17,12698,2025-11-27 16:56:30.637,2025-11-27 17:56:30.637,17,0,0,49.570,-22.959762,-67.786917,-1.30,0.00,0.00,0.40,3.60,176.30,0,1,0,97,97,-34811,15810,49570,3001.50,15,GPS,1,0,143,0,0,0,0,1764262590637,4142,4159,4155,4160,4163,4165,18,,,,,,,0,0,0,-4.00,36.00,1763.00,0.00,0.00,0.00,6,100.00,13.00,101.68,-13.00,0.00,0.00,0,,,100,99,15,2,0,0,1,0,0,,,,,0.0,0.0,0.0,0.0,0.0,0.0,0
-22.959826,-67.786845,10.00,0.00,1.30,10.26,10.40,10.40,5.61,10.26,12799,2025-11-27 16:56:30.738,2025-11-27 17:56:30.738,17,0,0,49.570,-22.959762,-67.786917,-1.30,0.00,0.00,0.50,3.70,176.30,0,1,0,97,97,-34811,15810,49570,3001.50,15,GPS,1,0,141,0,0,0,0,1764262590738,4142,4159,4155,4160,4163,4165,18,,,,,,,0,0,0,-5.00,37.00,1763.00,0.00,0.00,0.00,6,100.00,13.00,102.60,-13.00,0.00,0.00,0,,,100,99,15,2,0,0,1,0,0,,,,,0.0,0.0,0.0,0.0,0.0,0.0,0
-22.959828,-67.786845,10.00,0.00,1.40,10.36,10.40,10.40,5.61,10.36,12890,2025-11-27 16:56:30.830,2025-11-27 17:56:30.830,17,0,0,49.570,-22.959762,-67.786917,-1.40,0.00,0.00,0.60,3.80,176.30,0,1,0,97,97,-34811,15810,49570,3001.50,15,GPS,1,0,143,0,0,0,0,1764262590829,4142,4159,4155,4160,4163,4165,18,,,,,,,0,0,0,-6.00,38.00,1763.00,0.00,0.00,0.00,6,100.00,14.00,103.59,-14.00,0.00,0.00,0,,,100,99,15,2,0,0,1,0,0,,,,,0.0,0.0,0.0,0.0,0.0,0.0,0
-22.959829,-67.786845,10.00,0.00,1.40,10.46,10.40,10.40,5.61,10.46,12997,2025-11-27 16:56:30.937,2025-11-27 17:56:30.937,17,0,0,49.570,-22.959762,-67.786917,-1.40,0.00,0.00,0.80,3.60,176.30,0,1,0,97,97,-34811,15810,49570,3001.50,15,GPS,1,0,143,0,0,0,0,1764262590936,4142,4159,4155,4160,4163,4165,18,,,,,,,0,0,0,-8.00,36.00,1763.00,0.00,0.00,0.00,6,100.00,14.00,104.64,-14.00,0.00,0.00,0,,,100,99,15,2,0,0,1,0,0,,,,,0.0,0.0,0.0,0.0,0.0,0.0,0
-22.959831,-67.786845,10.00,0.00,1.40,10.57,10.40,10.40,5.61,10.57,13099,2025-11-27 16:56:31.039,2025-11-27 17:56:31.039,17,0,0,49.570,-22.959762,-67.786917,-1.40,0.00,0.00,1.00,3.50,176.30,0,1,0,97,97,-34811,15810,49570,3001.50,15,GPS,1,0,144,0,0,0,0,1764262591038,4142,4159,4155,4160,4163,4165,18,,,,,,,0,0,0,-10.00,35.00,1763.00,0.00,0.00,0.00,6,100.00,14.00,105.73,-14.00,0.00,0.00,0,,,100,99,15,2,0,0,1,0,0,,,,,0.0,0.0,0.0,0.0,0.0,0.0,0
-22.959832,-67.786846,10.00,0.00,1.50,10.69,10.40,10.40,5.61,10.69,13189,2025-11-27 16:56:31.128,2025-11-27 17:56:31.129,17,0,0,49.570,-22.959762,-67.786917,-1.50,0.00,0.00,0.80,3.60,176.30,0,1,0,97,97,-34811,15810,49570,3001.50,15,GPS,1,0,146,0,0,0,0,1764262591128,4142,4159,4155,4160,4163,4165,18,,,,,,,0,0,0,-8.00,36.00,1763.00,0.00,0.00,0.00,6,100.00,15.00,106.92,-15.00,0.00,0.00,0,,,100,100,15,2,0,0,1,0,0,,,,,0.0,0.0,0.0,0.0,0.0,0.0,0
-22.959835,-67.786846,10.00,0.00,1.50,10.92,10.40,10.40,5.61,10.92,13395,2025-11-27 16:56:31.335,2025-11-27 17:56:31.335,17,0,0,49.531,-22.959762,-67.786917,-1.50,0.00,0.00,1.10,3.40,176.30,0,1,0,97,97,-34891,15810,49531,3001.50,15,GPS,1,0,151,0,0,0,0,1764262591334,4142,4159,4155,4160,4163,4165,18,,,,,,,0,0,0,-11.00,34.00,1763.00,0.00,0.00,0.00,6,100.00,15.00,109.15,-15.00,0.00,0.00,0,,,100,100,15,2,0,0,1,0,0,,,,,0.0,0.0,0.0,0.0,0.0,0.0,0
-22.959837,-67.786846,10.00,0.00,1.50,11.03,10.40,10.40,5.61,11.03,13499,2025-11-27 16:56:31.439,2025-11-27 17:56:31.439,17,0,0,49.531,-22.959762,-67.786917,-1.50,0.00,0.00,1.00,3.60,176.30,0,1,0,97,97,-34891,15810,49531,3001.50,15,GPS,1,0,151,0,0,0,0,1764262591438,4142,4159,4155,4160,4163,4165,18,,,,,,,0,0,0,-10.00,36.00,1763.00,0.00,0.00,0.00,6,100.00,15.00,110.34,-15.00,0.00,0.00,0,,,100,100,15,2,0,0,1,0,0,,,,,0.0,0.0,0.0,0.0,0.0,0.0,0
-22.959838,-67.786846,10.00,0.00,1.50,11.15,10.40,10.40,5.61,11.15,13599,2025-11-27 16:56:31.539,2025-11-27 17:56:31.539,17,0,0,49.531,-22.959762,-67.786917,-1.50,0.00,0.00,1.00,3.60,176.30,0,1,0,97,97,-34891,15810,49531,3001.50,15,GPS,1,0,149,0,0,0,0,1764262591538,4142,4159,4155,4160,4163,4165,18,,,,,,,0,0,0,-10.00,36.00,1763.00,0.00,0.00,0.00,6,100.00,15.00,111.54,-15.00,0.00,0.00,0,,,100,100,15,2,0,0,1,0,0,,,,,0.0,0.0,0.0,0.0,0.0,0.0,0
-22.959840,-67.786846,10.10,0.00,1.60,11.28,10.40,10.40,5.61,11.28,13700,2025-11-27 16:56:31.639,2025-11-27 17:56:31.639,17,0,0,49.531,-22.959762,-67.786917,-1.60,0.00,0.00,0.80,3.70,176.20,0,1,0,97,97,-34891,15810,49531,3001.50,15,GPS,1,0,149,0,0,0,0,1764262591639,4142,4159,4155,4160,4163,4165,18,,,,,,,0,0,0,-8.00,37.00,1762.00,0.00,0.00,0.00,6,101.00,16.00,112.75,-16.00,0.00,0.00,0,,,100,100,15,2,0,0,1,0,0,,,,,0.0,0.0,0.0,0.0,0.0,0.0,0
-22.959841,-67.786846,10.10,0.00,1.60,11.40,10.40,10.40,5.61,11.40,13795,2025-11-27 16:56:31.735,2025-11-27 17:56:31.735,17,0,0,49.531,-22.959762,-67.786917,-1.60,0.00,0.00,0.90,3.60,176.20,0,1,0,97,97,-34891,15810,49531,3001.50,15,GPS,1,0,151,0,0,0,0,1764262591734,4142,4159,4155,4160,4163,4165,18,,,,,,,0,0,0,-9.00,36.00,1762.00,0.00,0.00,0.00,6,101.00,16.00,113.97,-16.00,0.00,0.00,0,,,100,100,15,2,0,0,1,0,0,,,,,0.0,0.0,0.0,0.0,0.0,0.0,0
-22.959843,-67.786846,10.10,0.00,1.60,11.52,10.40,10.40,5.61,11.52,13898,2025-11-27 16:56:31.838,2025-11-27 17:56:31.838,17,0,0,49.531,-22.959762,-67.786917,-1.60,0.00,0.00,1.00,3.40,176.20,0,1,0,97,97,-34891,15810,49531,3001.50,15,GPS,1,0,151,0,0,0,0,1764262591837,4142,4159,4155,4160,4163,4165,18,,,,,,,0,0,0,-10.00,34.00,1762.00,0.00,0.00,0.00,6,101.00,16.00,115.22,-16.00,0.00,0.00,0,,,100,100,15,2,0,0,1,0,0,,,,,0.0,0.0,0.0,0.0,0.0,0.0,0
-22.959844,-67.786847,10.10,0.00,1.70,11.65,10.40,10.40,5.61,11.65,13998,2025-11-27 16:56:31.937,2025-11-27 17:56:31.937,17,0,0,49.531,-22.959762,-67.786917,-1.70,0.00,0.00,1.20,3.40,176.20,0,1,0,97,97,-34891,15810,49531,3001.50,15,GPS,1,0,149,0,0,0,0,1764262591937,4142,4159,4155,4160,4163,4165,18,,,,,,,0,0,0,-12.00,34.00,1762.00,0.00,0.00,0.00,6,101.00,17.00,116.48,-17.00,0.00,0.00,0,,,100,100,15,2,0,0,1,0,0,,,,,0.0,0.0,0.0,0.0,0.0,0.0,0
-22.959846,-67.786847,10.10,0.00,1.70,11.78,10.40,10.40,5.61,11.78,14099,2025-11-27 16:56:32.039,2025-11-27 17:56:32.039,17,0,0,49.531,-22.959762,-67.786917,-1.70,0.00,0.00,1.20,3.30,176.20,0,1,0,97,97,-34891,15810,49531,3001.50,15,GPS,1,0,149,0,0,0,0,1764262592038,4142,4159,4155,4160,4163,4165,18,,,,,,,0,0,0,-12.00,33.00,1762.00,0.00,0.00,0.00,6,101.00,17.00,117.77,-17.00,0.00,0.00,0,,,100,100,15,2,0,0,1,0,0,,,,,0.0,0.0,0.0,0.0,0.0,0.0,0
