latitude,longitude,altitude(m),ultrasonicHeight(m),speed(mps),distance(m),max_altitude(m),max_ascent(m),max_speed(mps),max_distance(m),time(millisecond),datetime(utc),datetime(local),satellites,pressure(Pa),temperature(F),voltage(v),home_latitude,home_longitude,velocityX(mps),velocityY(mps),velocityZ(mps),pitch(deg),roll(deg),yaw(deg),powerlevel,isflying,istakingphoto,remainPowerPercent,remainLifePercent,currentCurrent,currentElectricity,currentVoltage,batteryTemperature,dischargeCount,flightmode,isMotorsOn,isTakingVideo,Rc_elevator,Rc_aileron,Rc_throttle,Rc_rudder,Rc_gyro,timestamp,Battery_Cell1,Battery_Cell2,Battery_Cell3,Battery_Cell4,Battery_Cell5,Battery_Cell6,Dronetype,AppVersion,Planename,FlyControllerSerialNumber,RemoteSerialNumber,BatterySerialNumber,CENTER_BATTERY.productDate,CENTER_BATTERY.serialNo,CENTER_BATTERY.fullCapacity,CENTER_BATTERY.productDateRaw,pitchRaw,rollRaw,yawRaw,gimbalPitchRaw,gimbalRollRaw,gimbalYawRaw,flyState,altitudeRaw,speedRaw,distanceRaw,velocityXRaw,velocityYRaw,velocityZRaw,data_reuse,App_Tip,App_Warning,downlinkSignalQuality,uplinkSignalQuality,transmissionChannel,rcModeSwitch,rcHome,rcPause,rcTransform,rcJoystickMode,appMode,FlyControllerSerialNumber_legacy,RemoteSerialNumber_legacy,BatterySerialNumber_legacy,Battery2SerialNumber,frontAvoidDist,backAvoidDist,rightAvoidDist,leftAvoidDist,upAvoidDist,downAvoidDist,isBrakingToAvoid
-22.959754,-67.786901,0.60,0.00,0.81,0.13,0.60,0.60,0.81,0.13,3,2025-11-30 16:34:29.654,2025-11-30 13:34:29.654,17,0,0,52.022,-22.959755,-67.786902,0.00,0.10,-0.80,1.40,0.90,94.40,0,1,0,97,96,-972,15807,52022,2971.50,17,TakeOff,1,0,0,0,0,0,0,1764520469653,4330,4335,4332,4339,4340,4336,18,Litchi_iOS_2.15.7,EIK Matrice 1,0670131556,03LLCA05XT,,,0,16131,0,-14.00,9.00,944.00,0.00,1.00,-7.00,11,6.00,8.06,1.31,0.00,1.00,-8.00,0,,,100,100,18,2,0,0,1,1,0,(null),(null),(null),(null),0.0,0.0,0.0,0.0,0.0,0.0,0
-22.959754,-67.786901,0.70,0.00,0.71,0.15,0.70,0.70,0.81,0.15,104,2025-11-30 16:34:29.754,2025-11-30 13:34:29.754,17,0,0,52.022,-22.959755,-67.786902,0.00,0.10,-0.70,1.40,0.90,94.40,0,1,0,97,96,-972,15807,52022,2971.50,17,TakeOff,1,0,0,0,0,0,0,1764520469754,4330,4335,4332,4339,4340,4336,18,,,,,,,0,0,0,-14.00,9.00,944.00,1.00,1.00,-7.00,11,7.00,7.07,1.49,0.00,1.00,-7.00,0,,,100,100,18,2,0,0,1,1,0,,,,,0.0,0.0,0.0,0.0,0.0,0.0,0
-22.959754,-67.786901,0.70,0.00,0.61,0.16,0.70,0.70,0.81,0.16,201,2025-11-30 16:34:29.851,2025-11-30 13:34:29.851,17,0,0,52.022,-22.959755,-67.786902,0.00,0.10,-0.60,1.50,0.70,94.40,0,1,0,97,96,-972,15807,52022,2971.50,17,TakeOff,1,0,0,0,0,0,0,1764520469851,4330,4335,4332,4339,4340,4336,18,,,,,,,0,0,0,-15.00,7.00,944.00,0.00,1.00,-7.00,11,7.00,6.08,1.60,0.00,1.00,-6.00,0,,,100,100,18,2,0,0,1,1,0,,,,,0.0,0.0,0.0,0.0,0.0,0.0,0
-22.959754,-67.786901,0.80,0.00,0.61,0.17,0.80,0.80,0.81,0.17,305,2025-11-30 16:34:29.955,2025-11-30 13:34:29.955,17,0,0,52.022,-22.959755,-67.786902,0.00,0.10,-0.60,1.50,0.60,94.50,0,1,0,97,96,-972,15807,52022,2971.50,17,TakeOff,1,0,0,0,0,0,0,1764520469955,4330,4335,4332,4339,4340,4336,18,,,,,,,0,0,0,-15.00,6.00,945.00,0.00,1.00,-6.00,11,8.00,6.08,1.72,0.00,1.00,-6.00,0,,,100,100,18,2,0,0,1,1,0,,,,,0.0,0.0,0.0,0.0,0.0,0.0,0
-22.959754,-67.786901,0.90,0.00,0.51,0.19,0.90,0.90,0.81,0.19,406,2025-11-30 16:34:30.057,2025-11-30 13:34:30.057,17,0,0,52.022,-22.959755,-67.786902,0.00,0.10,-0.50,1.80,0.50,94.50,0,1,0,97,96,-972,15807,52022,2971.50,17,TakeOff,1,0,0,0,0,0,0,1764520470056,4138,4150,4120,4148,4134,4151,18,,,,,,,0,0,0,-18.00,5.00,945.00,0.00,1.00,-7.00,11,9.00,5.10,1.88,0.00,1.00,-5.00,0,,,100,100,18,2,0,0,1,1,0,,,,,0.0,0.0,0.0,0.0,0.0,0.0,0
-22.959754,-67.786900,0.90,0.00,0.40,0.20,0.90,0.90,0.81,0.20,515,2025-11-30 16:34:30.166,2025-11-30 13:34:30.166,17,0,0,52.022,-22.959755,-67.786902,0.00,0.00,-0.40,2.20,0.30,94.50,0,1,0,97,96,-972,15807,52022,2971.50,17,TakeOff,1,0,0,0,0,0,0,1764520470165,4138,4150,4120,4148,4134,4151,18,,,,,,,0,0,0,-22.00,3.00,945.00,0.00,1.00,-7.00,11,9.00,4.00,2.02,0.00,0.00,-4.00,0,,,100,100,18,2,0,0,1,1,0,,,,,0.0,0.0,0.0,0.0,0.0,0.0,0
-22.959754,-67.786900,0.90,0.00,0.30,0.21,0.90,0.90,0.81,0.21,608,2025-11-30 16:34:30.258,2025-11-30 13:34:30.258,17,0,0,52.022,-22.959755,-67.786902,0.00,0.00,-0.30,2.20,0.20,94.50,0,1,0,97,96,-972,15807,52022,2971.50,17,TakeOff,1,0,0,0,0,0,0,1764520470258,4138,4150,4120,4148,4134,4151,18,,,,,,,0,0,0,-22.00,2.00,945.00,0.00,1.00,-7.00,11,9.00,3.00,2.09,0.00,0.00,-3.00,0,,,100,100,18,2,0,0,1,1,0,,,,,0.0,0.0,0.0,0.0,0.0,0.0,0
-22.959754,-67.786900,0.90,0.00,0.30,0.21,0.90,0.90,0.81,0.21,708,2025-11-30 16:34:30.359,2025-11-30 13:34:30.359,17,0,0,52.022,-22.959755,-67.786902,0.00,0.00,-0.30,2.00,0.10,94.60,0,1,0,97,96,-972,15807,52022,2971.50,17,TakeOff,1,0,0,0,0,0,0,1764520470358,4138,4150,4120,4148,4134,4151,18,,,,,,,0,0,0,-20.00,1.00,946.00,0.00,1.00,-7.00,11,9.00,3.00,2.13,0.00,0.00,-3.00,0,,,100,100,18,2,0,0,1,1,0,,,,,0.0,0.0,0.0,0.0,0.0,0.0,0
-22.959754,-67.786900,1.00,0.00,0.30,0.22,1.00,1.00,0.81,0.22,813,2025-11-30 16:34:30.464,2025-11-30 13:34:30.464,17,0,0,52.022,-22.959755,-67.786902,0.00,0.00,-0.30,1.60,0.10,94.60,0,1,0,97,96,-972,15807,52022,2971.50,17,TakeOff,1,0,0,0,0,0,0,1764520470463,4138,4150,4120,4148,4134,4151,18,,,,,,,0,0,0,-16.00,1.00,946.00,0.00,1.00,-8.00,11,10.00,3.00,2.16,0.00,0.00,-3.00,0,,,100,100,18,2,0,0,1,1,0,,,,,0.0,0.0,0.0,0.0,0.0,0.0,0
-22.959754,-67.786900,1.00,0.00,0.20,0.22,1.00,1.00,0.81,0.22,916,2025-11-30 16:34:30.567,2025-11-30 13:34:30.567,17,0,0,52.022,-22.959755,-67.786902,0.00,0.00,-0.20,1.30,0.10,94.70,0,1,0,97,96,-972,15807,52022,2971.50,17,TakeOff,1,0,0,0,0,0,0,1764520470566,4138,4150,4120,4148,4134,4151,18,,,,,,,0,0,0,-13.00,1.00,947.00,0.00,1.00,-8.00,11,10.00,2.00,2.18,0.00,0.00,-2.00,0,,,100,100,18,2,0,0,1,1,0,,,,,0.0,0.0,0.0,0.0,0.0,0.0,0
-22.959754,-67.786900,1.00,0.00,0.20,0.21,1.00,1.00,0.81,0.22,1006,2025-11-30 16:34:30.657,2025-11-30 13:34:30.657,17,0,0,52.022,-22.959755,-67.786902,0.00,0.00,-0.20,1.00,0.00,94.70,0,1,0,97,96,-972,15807,52022,2971.50,17,TakeOff,1,0,0,0,0,0,0,1764520470656,4138,4150,4120,4148,4134,4151,18,,,,,,,0,0,0,-10.00,0.00,947.00,0.00,1.00,-8.00,11,10.00,2.00,2.06,0.00,0.00,-2.00,0,,,100,100,18,2,0,0,1,1,0,,,,,0.0,0.0,0.0,0.0,0.0,0.0,0
-22.959754,-67.786900,1.00,0.00,0.30,0.20,1.00,1.00,0.81,0.22,1112,2025-11-30 16:34:30.763,2025-11-30 13:34:30.763,17,0,0,52.022,-22.959755,-67.786902,0.00,0.00,-0.30,0.80,-0.20,94.70,0,1,0,97,96,-972,15807,52022,2971.50,17,TakeOff,1,0,0,0,0,0,0,1764520470762,4138,4150,4120,4148,4134,4151,18,,,,,,,0,0,0,-8.00,-2.00,947.00,0.00,2.00,-9.00,11,10.00,3.00,2.00,0.00,0.00,-3.00,0,,,100,100,18,2,0,0,1,1,0,,,,,0.0,0.0,0.0,0.0,0.0,0.0,0
-22.959755,-67.786900,1.00,0.00,0.30,0.20,1.00,1.00,0.81,0.22,1216,2025-11-30 16:34:30.867,2025-11-30 13:34:30.867,17,0,0,52.022,-22.959755,-67.786902,0.00,0.00,-0.30,0.80,-0.20,94.60,0,1,0,97,96,-972,15807,52022,2971.50,17,WP,1,0,0,0,0,0,0,1764520470866,4138,4150,4120,4148,4134,4151,18,,,,,,,0,0,0,-8.00,-2.00,946.00,0.00,1.00,-9.00,14,10.00,3.00,1.99,0.00,0.00,-3.00,0,,,100,100,18,2,0,0,1,1,0,,,,,0.0,0.0,0.0,0.0,0.0,0.0,0
-22.959755,-67.786900,1.10,0.00,0.20,0.20,1.10,1.10,0.81,0.22,1311,2025-11-30 16:34:30.962,2025-11-30 13:34:30.962,17,0,0,52.022,-22.959755,-67.786902,0.00,0.00,-0.20,0.60,0.00,94.60,0,1,0,97,96,-972,15807,52022,2971.50,17,WP,1,0,0,0,0,0,0,1764520470961,4138,4150,4120,4148,4134,4151,18,,,,,,,0,0,0,-6.00,0.00,946.00,0.00,1.00,-9.00,14,11.00,2.00,1.99,0.00,0.00,-2.00,0,,,100,99,18,2,0,0,1,1,0,,,,,0.0,0.0,0.0,0.0,0.0,0.0,0
-22.959755,-67.786901,1.10,0.00,0.20,0.19,1.10,1.10,0.81,0.22,1408,2025-11-30 16:34:31.058,2025-11-30 13:34:31.058,17,0,0,51.978,-22.959755,-67.786902,0.00,0.00,-0.20,0.20,0.30,94.80,0,1,0,97,96,-25772,15807,51978,2971.50,17,WP,1,0,0,0,0,0,0,1764520471058,4138,4150,4120,4148,4134,4151,18,,,,,,,0,0,0,-2.00,3.00,948.00,0.00,1.00,-8.00,14,11.00,2.00,1.93,0.00,0.00,-2.00,0,,,100,99,18,2,0,0,1,1,0,,,,,0.0,0.0,0.0,0.0,0.0,0.0,0
-22.959755,-67.786901,1.10,0.00,0.20,0.19,1.10,1.10,0.81,0.22,1513,2025-11-30 16:34:31.164,2025-11-30 13:34:31.164,17,0,0,51.978,-22.959755,-67.786902,0.00,0.00,-0.20,0.40,0.90,94.90,0,1,0,97,96,-25772,15807,51978,2971.50,17,WP,1,0,0,0,0,0,0,1764520471163,4138,4150,4120,4148,4134,4151,18,,,,,,,0,0,0,-4.00,9.00,949.00,0.00,1.00,-10.00,14,11.00,2.00,1.88,0.00,0.00,-2.00,0,,,100,99,18,2,0,0,1,1,0,,,,,0.0,0.0,0.0,0.0,0.0,0.0,0
-22.959755,-67.786901,1.20,0.00,0.30,0.19,1.20,1.20,0.81,0.22,1616,2025-11-30 16:34:31.267,2025-11-30 13:34:31.267,17,0,0,51.978,-22.959755,-67.786902,0.00,0.00,-0.30,0.80,1.00,94.90,0,1,0,97,96,-25772,15807,51978,2971.50,17,WP,1,0,0,0,0,0,0,1764520471266,4138,4150,4120,4148,4134,4151,18,,,,,,,0,0,0,-8.00,10.00,949.00,0.00,1.00,-11.00,14,12.00,3.00,1.93,0.00,0.00,-3.00,0,,,100,99,18,2,0,0,1,1,0,,,,,0.0,0.0,0.0,0.0,0.0,0.0,0
-22.959754,-67.786901,1.20,0.00,0.40,0.20,1.20,1.20,0.81,0.22,1712,2025-11-30 16:34:31.362,2025-11-30 13:34:31.362,17,0,0,51.978,-22.959755,-67.786902,0.00,0.00,-0.40,1.20,0.40,94.90,0,1,0,97,96,-25772,15807,51978,2971.50,17,WP,1,0,0,0,0,0,0,1764520471362,4138,4150,4120,4148,4134,4151,18,,,,,,,0,0,0,-12.00,4.00,949.00,0.00,1.00,-11.00,14,12.00,4.00,1.96,0.00,0.00,-4.00,0,,,100,99,18,2,0,0,1,1,0,,,,,0.0,0.0,0.0,0.0,0.0,0.0,0
-22.959754,-67.786901,1.20,0.00,0.60,0.19,1.20,1.20,0.81,0.22,1813,2025-11-30 16:34:31.464,2025-11-30 13:34:31.464,17,0,0,51.978,-22.959755,-67.786902,0.00,0.00,-0.60,1.60,-0.30,94.90,0,1,0,97,96,-25772,15807,51978,2971.50,17,WP,1,0,0,0,0,0,0,1764520471463,4138,4150,4120,4148,4134,4151,18,,,,,,,0,0,0,-16.00,-3.00,949.00,0.00,1.00,-12.00,14,12.00,6.00,1.92,0.00,0.00,-6.00,0,,,100,99,18,2,0,0,1,1,0,,,,,0.0,0.0,0.0,0.0,0.0,0.0,0
-22.959754,-67.786901,1.30,0.00,0.80,0.19,1.30,1.30,0.81,0.22,1916,2025-11-30 16:34:31.566,2025-11-30 13:34:31.567,17,0,0,51.978,-22.959755,-67.786902,0.00,0.00,-0.80,1.50,-0.70,94.80,0,1,0,97,96,-25772,15807,51978,2971.50,17,WP,1,0,0,0,0,0,0,1764520471566,4138,4150,4120,4148,4134,4151,18,,,,,,,0,0,0,-15.00,-7.00,948.00,0.00,1.00,-12.00,14,13.00,8.00,1.88,0.00,0.00,-8.00,0,,,100,99,18,2,0,0,1,1,0,,,,,0.0,0.0,0.0,0.0,0.0,0.0,0
-22.959754,-67.786901,1.40,0.00,1.10,0.18,1.40,1.40,1.10,0.22,2016,2025-11-30 16:34:31.666,2025-11-30 13:34:31.666,17,0,0,51.978,-22.959755,-67.786902,0.00,0.00,-1.10,0.80,-0.60,94.70,0,1,0,97,96,-25772,15807,51978,2971.50,17,WP,1,0,0,0,0,0,0,1764520471666,4138,4150,4120,4148,4134,4151,18,,,,,,,0,0,0,-8.00,-6.00,947.00,0.00,1.00,-10.00,14,14.00,11.00,1.78,0.00,0.00,-11.00,0,,,100,99,18,2,0,0,1,1,0,,,,,0.0,0.0,0.0,0.0,0.0,0.0,0
-22.959754,-67.786901,1.50,0.00,1.30,0.17,1.50,1.50,1.30,0.22,2116,2025-11-30 16:34:31.767,2025-11-30 13:34:31.767,17,0,0,51.978,-22.959755,-67.786902,0.00,0.00,-1.30,-0.10,-0.20,94.60,0,1,0,97,96,-25772,15807,51978,2971.50,17,WP,1,0,0,0,0,0,0,1764520471766,4138,4150,4120,4148,4134,4151,18,,,,,,,0,0,0,1.00,-2.00,946.00,0.00,1.00,-9.00,14,15.00,13.00,1.70,0.00,0.00,-13.00,0,,,100,99,18,2,0,0,1,1,0,,,,,0.0,0.0,0.0,0.0,0.0,0.0,0
-22.959754,-67.786901,1.70,0.00,1.50,0.17,1.70,1.70,1.50,0.22,2215,2025-11-30 16:34:31.866,2025-11-30 13:34:31.866,17,0,0,51.978,-22.959755,-67.786902,0.00,0.00,-1.50,-1.00,0.20,94.60,0,1,0,97,96,-25772,15807,51978,2971.50,17,WP,1,0,0,0,0,0,0,1764520471865,4138,4150,4120,4148,4134,4151,18,,,,,,,0,0,0,10.00,2.00,946.00,0.00,1.00,-8.00,14,17.00,15.00,1.67,0.00,0.00,-15.00,0,,,100,99,18,2,0,0,1,1,0,,,,,0.0,0.0,0.0,0.0,0.0,0.0,0
-22.959754,-67.786901,1.90,0.00,1.80,0.17,1.90,1.90,1.80,0.22,2318,2025-11-30 16:34:31.969,2025-11-30 13:34:31.969,17,0,0,51.978,-22.959755,-67.786902,0.00,0.00,-1.80,-1.30,0.60,94.60,0,1,0,97,96,-25772,15807,51978,2971.50,17,WP,1,0,0,0,0,0,0,1764520471968,4138,4150,4120,4148,4134,4151,18,,,,,,,0,0,0,13.00,6.00,946.00,0.00,1.00,-8.00,14,19.00,18.00,1.67,0.00,0.00,-18.00,0,,,100,99,18,2,0,0,1,1,0,,,,,0.0,0.0,0.0,0.0,0.0,0.0,0
-22.959754,-67.786901,2.10,0.00,2.10,0.16,2.10,2.10,2.10,0.22,2418,2025-11-30 16:34:32.069,2025-11-30 13:34:32.069,17,0,0,51.978,-22.959755,-67.786902,0.00,0.00,-2.10,-1.30,0.70,94.60,0,1,0,97,96,-25772,15807,51978,2971.50,17,WP,1,0,0,0,0,0,0,1764520472068,4138,4150,4120,4148,4134,4151,18,,,,,,,0,0,0,13.00,7.00,946.00,0.00,1.00,-8.00,14,21.00,21.00,1.64,0.00,0.00,-21.00,0,,,100,99,18,2,0,0,1,1,0,,,,,0.0,0.0,0.0,0.0,0.0,0.0,0
-22.959754,-67.786901,2.30,0.00,2.30,0.17,2.30,2.30,2.30,0.22,2520,2025-11-30 16:34:32.171,2025-11-30 13:34:32.171,17,0,0,51.978,-22.959755,-67.786902,0.00,0.10,-2.30,-0.80,0.80,94.60,0,1,0,97,96,-25772,15807,51978,2971.50,17,WP,1,0,0,0,0,0,0,1764520472170,4138,4150,4120,4148,4134,4151,18,,,,,,,0,0,0,8.00,8.00,946.00,0.00,1.00,-8.00,14,23.00,23.02,1.70,0.00,1.00,-23.00,0,,,100,99,18,2,0,0,1,1,0,,,,,0.0,0.0,0.0,0.0,0.0,0.0,0
-22.959755,-67.786901,2.50,0.00,2.60,0.18,2.50,2.50,2.60,0.22,2619,2025-11-30 16:34:32.270,2025-11-30 13:34:32.270,17,0,0,51.978,-22.959755,-67.786902,0.00,0.10,-2.60,-0.20,1.10,94.60,0,1,0,97,96,-25772,15807,51978,2971.50,17,WP,1,0,0,0,0,0,0,1764520472269,4138,4150,4120,4148,4134,4151,18,,,,,,,0,0,0,2.00,11.00,946.00,0.00,1.00,-8.00,14,25.00,26.02,1.81,0.00,1.00,-26.00,0,,,100,99,18,2,0,0,1,1,0,,,,,0.0,0.0,0.0,0.0,0.0,0.0,0
-22.959755,-67.786901,2.80,0.00,2.90,0.19,2.80,2.80,2.90,0.22,2719,2025-11-30 16:34:32.369,2025-11-30 13:34:32.369,17,0,0,48.841,-22.959755,-67.786902,0.00,0.10,-2.90,0.40,1.30,94.50,0,1,0,97,96,-49880,15753,48841,2971.50,17,WP,1,0,0,0,0,0,0,1764520472369,4138,4150,4120,4148,4134,4151,18,,,,,,,0,0,0,-4.00,13.00,945.00,0.00,1.00,-8.00,14,28.00,29.02,1.95,0.00,1.00,-29.00,0,,,100,99,18,2,0,0,1,1,0,,,,,0.0,0.0,0.0,0.0,0.0,0.0,0
-22.959755,-67.786900,3.10,0.00,3.00,0.21,3.10,3.10,3.00,0.22,2821,2025-11-30 16:34:32.472,2025-11-30 13:34:32.472,17,0,0,48.841,-22.959755,-67.786902,0.00,0.10,-3.00,1.10,1.20,94.50,0,1,0,97,96,-49880,15753,48841,2971.50,17,WP,1,0,0,0,0,0,0,1764520472471,4138,4150,4120,4148,4134,4151,18,,,,,,,0,0,0,-11.00,12.00,945.00,0.00,1.00,-7.00,14,31.00,30.02,2.09,0.00,1.00,-30.00,0,,,100,100,18,2,0,0,1,1,0,,,,,0.0,0.0,0.0,0.0,0.0,0.0,0
-22.959755,-67.786900,3.40,0.00,3.20,0.22,3.40,3.40,3.20,0.22,2924,2025-11-30 16:34:32.574,2025-11-30 13:34:32.574,17,0,0,48.841,-22.959755,-67.786902,-0.10,0.10,-3.20,1.60,0.80,94.50,0,1,0,97,96,-49880,15753,48841,2971.50,17,WP,1,0,0,0,0,0,0,1764520472574,4138,4150,4120,4148,4134,4151,18,,,,,,,0,0,0,-16.00,8.00,945.00,0.00,1.00,-7.00,14,34.00,32.03,2.24,-1.00,1.00,-32.00,0,,,100,100,18,2,0,0,1,1,0,,,,,0.0,0.0,0.0,0.0,0.0,0.0,0
-22.959755,-67.786900,3.70,0.00,3.30,0.24,3.70,3.70,3.30,0.24,3031,2025-11-30 16:34:32.682,2025-11-30 13:34:32.682,17,0,0,48.841,-22.959755,-67.786902,-0.10,0.10,-3.30,1.50,0.30,94.60,0,1,0,97,96,-49880,15753,48841,2971.50,17,WP,1,0,0,0,0,0,0,1764520472681,4138,4150,4120,4148,4134,4151,18,,,,,,,0,0,0,-15.00,3.00,946.00,0.00,1.00,-7.00,14,37.00,33.03,2.41,-1.00,1.00,-33.00,0,,,100,100,18,2,0,0,1,1,0,,,,,0.0,0.0,0.0,0.0,0.0,0.0,0
-22.959755,-67.786900,4.00,0.00,3.40,0.26,4.00,4.00,3.40,0.26,3132,2025-11-30 16:34:32.783,2025-11-30 13:34:32.783,17,0,0,48.841,-22.959755,-67.786902,0.00,0.10,-3.40,1.40,-0.10,94.60,0,1,0,97,96,-49880,15753,48841,2971.50,17,WP,1,0,0,0,0,0,0,1764520472782,4138,4150,4120,4148,4134,4151,18,,,,,,,0,0,0,-14.00,-1.00,946.00,0.00,1.00,-8.00,14,40.00,34.01,2.56,0.00,1.00,-34.00,0,,,100,100,18,2,0,0,1,1,0,,,,,0.0,0.0,0.0,0.0,0.0,0.0,0
-22.959755,-67.786900,4.30,0.00,3.40,0.27,4.30,4.30,3.40,0.27,3224,2025-11-30 16:34:32.874,2025-11-30 13:34:32.874,17,0,0,48.841,-22.959755,-67.786902,-0.10,0.10,-3.40,1.50,-0.20,94.60,0,1,0,97,96,-49880,15753,48841,2971.50,17,WP,1,0,0,0,0,0,0,1764520472874,4138,4150,4120,4148,4134,4151,18,,,,,,,0,0,0,-15.00,-2.00,946.00,0.00,1.00,-8.00,14,43.00,34.03,2.66,-1.00,1.00,-34.00,0,,,100,100,18,2,0,0,1,1,0,,,,,0.0,0.0,0.0,0.0,0.0,0.0,0
-22.959755,-67.786900,4.60,0.00,3.30,0.28,4.60,4.60,3.40,0.28,3430,2025-11-30 16:34:33.080,2025-11-30 13:34:33.080,17,0,0,48.841,-22.959755,-67.786902,0.00,0.00,-3.30,1.80,-0.30,94.70,0,1,0,97,96,-49880,15753,48841,2971.50,17,WP,1,0,0,0,0,0,0,1764520473080,4138,4150,4120,4148,4134,4151,18,,,,,,,0,0,0,-18.00,-3.00,947.00,0.00,1.00,-8.00,14,46.00,33.00,2.76,0.00,0.00,-33.00,0,,,100,100,18,2,0,0,1,1,0,,,,,0.0,0.0,0.0,0.0,0.0,0.0,0
-22.959756,-67.786900,5.30,0.00,3.20,0.30,5.30,5.30,3.40,0.30,3533,2025-11-30 16:34:33.183,2025-11-30 13:34:33.183,17,0,0,48.841,-22.959755,-67.786902,0.00,0.00,-3.20,2.00,-1.20,94.70,0,1,0,97,96,-49880,15753,48841,2971.50,17,WP,1,0,0,0,0,0,0,1764520473183,4138,4150,4120,4148,4134,4151,18,,,,,,,0,0,0,-20.00,-12.00,947.00,0.00,1.00,-9.00,14,53.00,32.00,2.97,0.00,0.00,-32.00,0,,,100,100,18,2,0,0,1,1,0,,,,,0.0,0.0,0.0,0.0,0.0,0.0,0
-22.959756,-67.786900,5.60,0.00,3.20,0.30,5.60,5.60,3.40,0.30,3626,2025-11-30 16:34:33.277,2025-11-30 13:34:33.277,17,0,0,48.841,-22.959755,-67.786902,0.00,0.00,-3.20,2.00,-1.50,94.60,0,1,0,97,96,-49880,15753,48841,2971.50,17,WP,1,0,0,0,0,0,0,1764520473276,4138,4150,4120,4148,4134,4151,18,,,,,,,0,0,0,-20.00,-15.00,946.00,0.00,1.00,-9.00,14,56.00,32.00,2.97,0.00,0.00,-32.00,0,,,100,100,18,2,0,0,1,1,0,,,,,0.0,0.0,0.0,0.0,0.0,0.0,0
-22.959756,-67.786900,5.90,0.00,3.20,0.30,5.90,5.90,3.40,0.30,3729,2025-11-30 16:34:33.380,2025-11-30 13:34:33.380,17,0,0,48.841,-22.959755,-67.786902,0.00,0.00,-3.20,1.70,-1.60,94.60,0,1,0,97,96,-49880,15753,48841,2971.50,17,WP,1,0,0,0,0,0,0,1764520473379,4138,4150,4120,4148,4134,4151,18,,,,,,,0,0,0,-17.00,-16.00,946.00,0.00,1.00,-8.00,14,59.00,32.00,2.97,0.00,0.00,-32.00,0,,,100,100,18,2,0,0,1,1,0,,,,,0.0,0.0,0.0,0.0,0.0,0.0,0
-22.959756,-67.786900,6.50,0.00,3.10,0.29,6.50,6.50,3.40,0.30,3930,2025-11-30 16:34:33.580,2025-11-30 13:34:33.580,17,0,0,48.841,-22.959755,-67.786902,0.00,0.00,-3.10,0.80,-0.80,94.50,0,1,0,97,96,-49880,15753,48841,2971.50,17,WP,1,0,0,0,0,0,0,1764520473580,4138,4150,4120,4148,4134,4151,18,,,,,,,0,0,0,-8.00,-8.00,945.00,0.00,1.00,-8.00,14,65.00,31.00,2.86,0.00,0.00,-31.00,0,,,100,98,18,2,0,0,1,1,0,,,,,0.0,0.0,0.0,0.0,0.0,0.0,0
-22.959756,-67.786900,6.80,0.00,3.10,0.27,6.80,6.80,3.40,0.30,4033,2025-11-30 16:34:33.683,2025-11-30 13:34:33.683,17,0,0,48.841,-22.959755,-67.786902,0.00,0.00,-3.10,0.20,-0.30,94.60,0,1,0,97,96,-49880,15753,48841,2971.50,17,WP,1,0,0,0,0,0,0,1764520473683,4138,4150,4120,4148,4134,4151,18,,,,,,,0,0,0,-2.00,-3.00,946.00,0.00,1.00,-8.00,14,68.00,31.00,2.69,0.00,0.00,-31.00,0,,,100,98,18,2,0,0,1,1,0,,,,,0.0,0.0,0.0,0.0,0.0,0.0,0
-22.959756,-67.786900,7.10,0.00,3.10,0.26,7.10,7.10,3.40,0.30,4132,2025-11-30 16:34:33.783,2025-11-30 13:34:33.783,17,0,0,48.841,-22.959755,-67.786902,0.00,0.00,-3.10,0.00,0.10,94.60,0,1,0,97,96,-49880,15753,48841,2971.50,17,WP,1,0,0,0,0,0,0,1764520473782,4138,4150,4120,4148,4134,4151,18,,,,,,,0,0,0,-0.00,1.00,946.00,0.00,1.00,-8.00,14,71.00,31.00,2.57,0.00,0.00,-31.00,0,,,100,98,18,2,0,0,1,1,0,,,,,0.0,0.0,0.0,0.0,0.0,0.0,0
-22.959756,-67.786901,7.50,0.00,3.10,0.24,7.50,7.50,3.40,0.30,4232,2025-11-30 16:34:33.882,2025-11-30 13:34:33.882,17,0,0,48.841,-22.959755,-67.786902,0.00,0.00,-3.10,0.00,0.50,94.50,0,1,0,97,96,-49880,15753,48841,2971.50,17,WP,1,0,0,0,0,0,0,1764520473882,4138,4150,4120,4148,4134,4151,18,,,,,,,0,0,0,-0.00,5.00,945.00,0.00,1.00,-8.00,14,75.00,31.00,2.41,0.00,0.00,-31.00,0,,,100,98,18,2,0,0,1,1,0,,,,,0.0,0.0,0.0,0.0,0.0,0.0,0
-22.959756,-67.786901,7.80,0.00,3.10,0.23,7.80,7.80,3.40,0.30,4333,2025-11-30 16:34:33.983,2025-11-30 13:34:33.984,17,0,0,48.841,-22.959755,-67.786902,0.00,0.00,-3.10,0.00,0.60,94.50,0,1,0,97,96,-49880,15753,48841,2971.50,17,WP,1,0,0,0,0,0,0,1764520473983,4138,4150,4120,4148,4134,4151,18,,,,,,,0,0,0,-0.00,6.00,945.00,0.00,1.00,-8.00,14,78.00,31.00,2.31,0.00,0.00,-31.00,0,,,100,94,18,2,0,0,1,1,0,,,,,0.0,0.0,0.0,0.0,0.0,0.0,0
-22.959756,-67.786901,8.10,0.00,3.20,0.22,8.10,8.10,3.40,0.30,4436,2025-11-30 16:34:34.086,2025-11-30 13:34:34.087,17,0,0,48.841,-22.959755,-67.786902,0.00,0.00,-3.20,0.00,0.60,94.40,0,1,0,97,96,-49880,15753,48841,2971.50,17,WP,1,0,0,0,0,0,0,1764520474086,4138,4150,4120,4148,4134,4151,18,,,,,,,0,0,0,-0.00,6.00,944.00,0.00,1.00,-7.00,14,81.00,32.00,2.23,0.00,0.00,-32.00,0,,,100,94,18,2,0,0,1,1,0,,,,,0.0,0.0,0.0,0.0,0.0,0.0,0
-22.959756,-67.786901,8.40,0.00,3.20,0.22,8.40,8.40,3.40,0.30,4537,2025-11-30 16:34:34.187,2025-11-30 13:34:34.187,17,0,0,48.841,-22.959755,-67.786902,0.00,0.00,-3.20,0.10,0.50,94.30,0,1,0,97,96,-49880,15753,48841,2971.50,17,WP,1,0,0,0,0,0,0,1764520474187,4138,4150,4120,4148,4134,4151,18,,,,,,,0,0,0,-1.00,5.00,943.00,0.00,1.00,-6.00,14,84.00,32.00,2.20,0.00,0.00,-32.00,0,,,100,94,18,2,0,0,1,1,0,,,,,0.0,0.0,0.0,0.0,0.0,0.0,0
-22.959756,-67.786901,8.70,0.00,3.20,0.22,8.70,8.70,3.40,0.30,4639,2025-11-30 16:34:34.289,2025-11-30 13:34:34.290,17,0,0,48.841,-22.959755,-67.786902,0.00,0.00,-3.20,0.20,0.80,94.30,0,1,0,97,96,-49880,15753,48841,2971.50,17,WP,1,0,0,0,0,0,0,1764520474289,4138,4150,4120,4148,4134,4151,18,,,,,,,0,0,0,-2.00,8.00,943.00,0.00,1.00,-6.00,14,87.00,32.00,2.21,0.00,0.00,-32.00,0,,,100,94,18,2,0,0,1,1,0,,,,,0.0,0.0,0.0,0.0,0.0,0.0,0
-22.959756,-67.786901,9.10,0.00,3.20,0.23,9.10,9.10,3.40,0.30,4735,2025-11-30 16:34:34.385,2025-11-30 13:34:34.385,17,0,0,48.099,-22.959755,-67.786902,0.00,0.00,-3.20,0.60,1.10,94.30,0,1,0,97,96,-71746,15753,48099,2971.50,17,WP,1,0,0,0,0,0,0,1764520474385,4138,4150,4120,4148,4134,4151,18,,,,,,,0,0,0,-6.00,11.00,943.00,0.00,1.00,-5.00,14,91.00,32.00,2.26,0.00,0.00,-32.00,0,,,100,94,18,2,0,0,1,1,0,,,,,0.0,0.0,0.0,0.0,0.0,0.0,0
-22.959756,-67.786901,9.40,0.00,3.10,0.24,9.40,9.40,3.40,0.30,4839,2025-11-30 16:34:34.489,2025-11-30 13:34:34.490,17,0,0,48.099,-22.959755,-67.786902,0.00,0.00,-3.10,1.20,1.30,94.30,0,1,0,97,96,-71746,15753,48099,2971.50,17,WP,1,0,0,0,0,0,0,1764520474489,4138,4150,4120,4148,4134,4151,18,,,,,,,0,0,0,-12.00,13.00,943.00,0.00,1.00,-5.00,14,94.00,31.00,2.35,0.00,0.00,-31.00,0,,,100,94,18,2,0,0,1,1,0,,,,,0.0,0.0,0.0,0.0,0.0,0.0,0
-22.959756,-67.786900,9.70,0.00,3.20,0.25,9.70,9.70,3.40,0.30,4939,2025-11-30 16:34:34.590,2025-11-30 13:34:34.590,17,0,0,48.099,-22.959755,-67.786902,0.00,0.00,-3.20,1.60,1.10,94.40,0,1,0,97,96,-71746,15753,48099,2971.50,17,WP,1,0,0,0,0,0,0,1764520474589,4138,4150,4120,4148,4134,4151,18,,,,,,,0,0,0,-16.00,11.00,944.00,0.00,1.00,-6.00,14,97.00,32.00,2.45,0.00,0.00,-32.00,0,,,100,94,18,2,0,0,1,1,0,,,,,0.0,0.0,0.0,0.0,0.0,0.0,0
-22.959756,-67.786900,10.00,0.00,3.10,0.25,10.00,10.00,3.40,0.30,5037,2025-11-30 16:34:34.688,2025-11-30 13:34:34.688,17,0,0,48.099,-22.959755,-67.786902,0.00,0.00,-3.10,1.60,0.50,94.50,0,1,0,97,96,-71746,15753,48099,2971.50,17,WP,1,0,0,0,0,0,0,1764520474687,4138,4150,4120,4148,4134,4151,18,,,,,,,0,0,0,-16.00,5.00,945.00,0.00,1.00,-6.00,14,100.00,31.00,2.53,0.00,0.00,-31.00,0,,,100,94,18,2,0,0,1,1,0,,,,,0.0,0.0,0.0,0.0,0.0,0.0,0
-22.959756,-67.786900,10.30,0.00,3.10,0.26,10.30,10.30,3.40,0.30,5146,2025-11-30 16:34:34.797,2025-11-30 13:34:34.797,17,0,0,48.099,-22.959755,-67.786902,0.00,0.00,-3.10,1.40,-0.30,94.50,0,1,0,97,96,-71746,15753,48099,2971.50,17,WP,1,0,0,0,0,0,0,1764520474796,4138,4150,4120,4148,4134,4151,18,,,,,,,0,0,0,-14.00,-3.00,945.00,0.00,1.00,-7.00,14,103.00,31.00,2.64,0.00,0.00,-31.00,0,,,100,94,18,2,0,0,1,1,0,,,,,0.0,0.0,0.0,0.0,0.0,0.0,0
-22.959756,-67.786900,10.70,0.00,3.10,0.28,10.70,10.70,3.40,0.30,5249,2025-11-30 16:34:34.899,2025-11-30 13:34:34.899,17,0,0,48.099,-22.959755,-67.786902,-0.10,0.00,-3.10,1.20,-1.00,94.50,0,1,0,97,96,-71746,15753,48099,2971.50,17,WP,1,0,0,0,0,0,0,1764520474899,4138,4150,4120,4148,4134,4151,18,,,,,,,0,0,0,-12.00,-10.00,945.00,0.00,1.00,-7.00,14,107.00,31.02,2.78,-1.00,0.00,-31.00,0,,,100,94,18,2,0,0,1,1,0,,,,,0.0,0.0,0.0,0.0,0.0,0.0,0
-22.959756,-67.786900,11.00,0.00,3.10,0.29,11.00,11.00,3.40,0.30,5349,2025-11-30 16:34:35.000,2025-11-30 13:34:35.000,17,0,0,48.099,-22.959755,-67.786902,0.00,0.00,-3.10,1.30,-1.80,94.50,0,1,0,97,96,-71746,15753,48099,2971.50,17,WP,1,0,0,0,0,0,0,1764520474999,4138,4150,4120,4148,4134,4151,18,,,,,,,0,0,0,-13.00,-18.00,945.00,0.00,1.00,-7.00,14,110.00,31.00,2.92,0.00,0.00,-31.00,0,,,100,93,18,2,0,0,1,1,0,,,,,0.0,0.0,0.0,0.0,0.0,0.0,0
-22.959757,-67.786900,11.30,0.00,3.00,0.30,11.30,11.30,3.40,0.30,5445,2025-11-30 16:34:35.095,2025-11-30 13:34:35.096,17,0,0,48.099,-22.959755,-67.786902,0.00,0.00,-3.00,1.30,-2.30,94.60,0,1,0,97,96,-71746,15753,48099,2971.50,17,WP,1,0,0,0,0,0,0,1764520475095,4138,4150,4120,4148,4134,4151,18,,,,,,,0,0,0,-13.00,-23.00,946.00,0.00,1.00,-7.00,14,113.00,30.00,3.04,0.00,0.00,-30.00,0,,,100,93,18,2,0,0,1,1,0,,,,,0.0,0.0,0.0,0.0,0.0,0.0,0
-22.959757,-67.786900,11.60,0.00,2.90,0.32,11.60,11.60,3.40,0.32,5549,2025-11-30 16:34:35.200,2025-11-30 13:34:35.200,17,0,0,48.099,-22.959755,-67.786902,0.00,0.00,-2.90,1.30,-2.40,94.60,0,1,0,97,96,-71746,15753,48099,2971.50,17,WP,1,0,0,0,0,0,0,1764520475199,4138,4150,4120,4148,4134,4151,18,,,,,,,0,0,0,-13.00,-24.00,946.00,0.00,1.00,-8.00,14,116.00,29.00,3.16,0.00,0.00,-29.00,0,,,100,93,18,2,0,0,1,1,0,,,,,0.0,0.0,0.0,0.0,0.0,0.0,0
-22.959757,-67.786900,11.90,0.00,2.90,0.32,11.90,11.90,3.40,0.32,5640,2025-11-30 16:34:35.291,2025-11-30 13:34:35.291,17,0,0,48.099,-22.959755,-67.786902,0.00,0.00,-2.90,1.20,-2.20,94.70,0,1,0,97,96,-71746,15753,48099,2971.50,17,WP,1,0,0,0,0,0,0,1764520475290,4138,4150,4120,4148,4134,4151,18,,,,,,,0,0,0,-12.00,-22.00,947.00,0.00,1.00,-9.00,14,119.00,29.00,3.21,0.00,0.00,-29.00,0,,,100,93,18,2,0,0,1,1,0,,,,,0.0,0.0,0.0,0.0,0.0,0.0,0
-22.959757,-67.786900,12.20,0.00,2.90,0.32,12.20,12.20,3.40,0.32,5746,2025-11-30 16:34:35.397,2025-11-30 13:34:35.397,17,0,0,48.099,-22.959755,-67.786902,0.00,0.00,-2.90,0.90,-1.50,94.70,0,1,0,97,96,-71746,15753,48099,2971.50,17,WP,1,0,0,0,0,0,0,1764520475396,4138,4150,4120,4148,4134,4151,18,,,,,,,0,0,0,-9.00,-15.00,947.00,0.00,1.00,-9.00,14,122.00,29.00,3.22,0.00,0.00,-29.00,0,,,100,93,18,2,0,0,1,1,0,,,,,0.0,0.0,0.0,0.0,0.0,0.0,0
-22.959757,-67.786900,12.40,0.00,2.90,0.32,12.40,12.40,3.40,0.32,5849,2025-11-30 16:34:35.499,2025-11-30 13:34:35.499,17,0,0,48.099,-22.959755,-67.786902,0.00,0.00,-2.90,0.90,-0.80,94.70,0,1,0,97,96,-71746,15753,48099,2971.50,17,WP,1,0,0,0,0,0,0,1764520475499,4138,4150,4120,4148,4134,4151,18,,,,,,,0,0,0,-9.00,-8.00,947.00,0.00,1.00,-9.00,14,124.00,29.00,3.19,0.00,0.00,-29.00,0,,,100,96,18,2,0,0,1,1,0,,,,,0.0,0.0,0.0,0.0,0.0,0.0,0
-22.959757,-67.786900,12.70,0.00,2.90,0.32,12.70,12.70,3.40,0.32,5946,2025-11-30 16:34:35.596,2025-11-30 13:34:35.596,17,0,0,48.099,-22.959755,-67.786902,0.10,0.00,-2.90,1.00,-0.10,94.60,0,1,0,97,96,-71746,15753,48099,2971.50,17,WP,1,0,0,0,0,0,0,1764520475596,4138,4150,4120,4148,4134,4151,18,,,,,,,0,0,0,-10.00,-1.00,946.00,0.00,1.00,-9.00,14,127.00,29.02,3.16,1.00,0.00,-29.00,0,,,100,96,18,2,0,0,1,1,0,,,,,0.0,0.0,0.0,0.0,0.0,0.0,0
-22.959756,-67.786900,13.00,0.00,3.00,0.30,13.00,13.00,3.40,0.32,6046,2025-11-30 16:34:35.696,2025-11-30 13:34:35.696,17,0,0,48.099,-22.959755,-67.786902,0.10,0.00,-3.00,1.20,0.20,94.60,0,1,0,97,96,-71746,15753,48099,2971.50,17,WP,1,0,0,0,0,0,0,1764520475696,4138,4150,4120,4148,4134,4151,18,,,,,,,0,0,0,-12.00,2.00,946.00,0.00,1.00,-9.00,14,130.00,30.02,3.03,1.00,0.00,-30.00,0,,,100,96,18,2,0,0,1,1,0,,,,,0.0,0.0,0.0,0.0,0.0,0.0,0
-22.959756,-67.786900,13.30,0.00,2.90,0.29,13.30,13.30,3.40,0.32,6149,2025-11-30 16:34:35.799,2025-11-30 13:34:35.799,17,0,0,48.099,-22.959755,-67.786902,0.10,0.00,-2.90,1.30,0.40,94.60,0,1,0,97,96,-71746,15753,48099,2971.50,17,WP,1,0,0,0,0,0,0,1764520475799,4138,4150,4120,4148,4134,4151,18,,,,,,,0,0,0,-13.00,4.00,946.00,0.00,1.00,-9.00,14,133.00,29.02,2.94,1.00,0.00,-29.00,0,,,100,96,18,2,0,0,1,1,0,,,,,0.0,0.0,0.0,0.0,0.0,0.0,0
-22.959756,-67.786900,13.60,0.00,2.90,0.28,13.60,13.60,3.40,0.32,6247,2025-11-30 16:34:35.898,2025-11-30 13:34:35.898,17,0,0,48.099,-22.959755,-67.786902,0.10,0.00,-2.90,1.30,0.20,94.70,0,1,0,97,96,-71746,15753,48099,2971.50,17,WP,1,0,0,0,0,0,0,1764520475897,4138,4150,4120,4148,4134,4151,18,,,,,,,0,0,0,-13.00,2.00,947.00,0.00,1.00,-9.00,14,136.00,29.02,2.84,1.00,0.00,-29.00,0,,,100,96,18,2,0,0,1,1,0,,,,,0.0,0.0,0.0,0.0,0.0,0.0,0
-22.959756,-67.786900,13.90,0.00,3.00,0.28,13.90,13.90,3.40,0.32,6348,2025-11-30 16:34:35.998,2025-11-30 13:34:35.998,17,0,0,48.099,-22.959755,-67.786902,0.10,0.00,-3.00,1.30,0.00,94.60,0,1,0,97,96,-71746,15753,48099,2971.50,17,WP,1,0,0,0,0,0,0,1764520475998,4138,4150,4120,4148,4134,4151,18,,,,,,,0,0,0,-13.00,0.00,946.00,0.00,1.00,-9.00,14,139.00,30.02,2.78,1.00,0.00,-30.00,0,,,100,97,18,2,0,0,1,1,0,,,,,0.0,0.0,0.0,0.0,0.0,0.0,0
-22.959756,-67.786900,14.20,0.00,3.00,0.27,14.20,14.20,3.40,0.32,6452,2025-11-30 16:34:36.102,2025-11-30 13:34:36.102,17,0,0,48.099,-22.959755,-67.786902,0.10,0.00,-3.00,1.20,-0.10,94.60,0,1,0,97,96,-71746,15753,48099,2971.50,17,WP,1,0,0,0,0,0,0,1764520476102,4138,4150,4120,4148,4134,4151,18,,,,,,,0,0,0,-12.00,-1.00,946.00,0.00,1.00,-9.00,14,142.00,30.02,2.71,1.00,0.00,-30.00,0,,,100,97,18,2,0,0,1,1,0,,,,,0.0,0.0,0.0,0.0,0.0,0.0,0
-22.959756,-67.786900,14.60,0.00,3.10,0.27,14.60,14.60,3.40,0.32,6550,2025-11-30 16:34:36.200,2025-11-30 13:34:36.200,17,0,0,48.099,-22.959755,-67.786902,0.10,0.00,-3.10,1.20,0.00,94.50,0,1,0,97,96,-71746,15753,48099,2971.50,17,WP,1,0,0,0,0,0,0,1764520476200,4138,4150,4120,4148,4134,4151,18,,,,,,,0,0,0,-12.00,0.00,945.00,0.00,1.00,-8.00,14,146.00,31.02,2.66,1.00,0.00,-31.00,0,,,100,97,18,2,0,0,1,1,0,,,,,0.0,0.0,0.0,0.0,0.0,0.0,0
-22.959756,-67.786900,14.90,0.00,3.00,0.26,14.90,14.90,3.40,0.32,6648,2025-11-30 16:34:36.299,2025-11-30 13:34:36.299,17,0,0,48.002,-22.959755,-67.786902,0.00,0.00,-3.00,1.10,0.30,94.50,0,1,0,97,96,-54472,15699,48002,2971.50,17,WP,1,0,0,0,0,0,0,1764520476298,4138,4150,4120,4148,4134,4151,18,,,,,,,0,0,0,-11.00,3.00,945.00,0.00,1.00,-7.00,14,149.00,30.00,2.58,0.00,0.00,-30.00,0,,,100,97,18,2,0,0,1,1,0,,,,,0.0,0.0,0.0,0.0,0.0,0.0,0
-22.959756,-67.786900,15.20,0.00,3.00,0.25,15.20,15.20,3.40,0.32,6753,2025-11-30 16:34:36.403,2025-11-30 13:34:36.403,17,0,0,48.002,-22.959755,-67.786902,0.10,0.00,-3.00,0.80,0.70,94.60,0,1,0,97,96,-54472,15699,48002,2971.50,17,WP,1,0,0,0,0,0,0,1764520476403,4138,4150,4120,4148,4134,4151,18,,,,,,,0,0,0,-8.00,7.00,946.00,0.00,1.00,-8.00,14,152.00,30.02,2.54,1.00,0.00,-30.00,0,,,100,97,18,2,0,0,1,1,0,,,,,0.0,0.0,0.0,0.0,0.0,0.0,0
-22.959755,-67.786900,15.50,0.00,2.90,0.25,15.50,15.50,3.40,0.32,6853,2025-11-30 16:34:36.503,2025-11-30 13:34:36.503,17,0,0,48.002,-22.959755,-67.786902,0.00,0.00,-2.90,0.60,0.90,94.60,0,1,0,97,96,-54472,15699,48002,2971.50,17,WP,1,0,0,0,0,0,0,1764520476503,4138,4150,4120,4148,4134,4151,18,,,,,,,0,0,0,-6.00,9.00,946.00,0.00,1.00,-8.00,14,155.00,29.00,2.50,0.00,0.00,-29.00,0,,,100,98,18,2,0,0,1,1,0,,,,,0.0,0.0,0.0,0.0,0.0,0.0,0
-22.959755,-67.786900,15.80,0.00,2.90,0.25,15.80,15.80,3.40,0.32,6954,2025-11-30 16:34:36.604,2025-11-30 13:34:36.604,17,0,0,48.002,-22.959755,-67.786902,0.00,0.00,-2.90,0.70,1.10,94.60,0,1,0,97,96,-54472,15699,48002,2971.50,17,WP,1,0,0,0,0,0,0,1764520476604,4138,4150,4120,4148,4134,4151,18,,,,,,,0,0,0,-7.00,11.00,946.00,0.00,1.00,-8.00,14,158.00,29.00,2.51,0.00,0.00,-29.00,0,,,100,98,18,2,0,0,1,1,0,,,,,0.0,0.0,0.0,0.0,0.0,0.0,0
-22.959755,-67.786900,16.10,0.00,2.80,0.26,16.10,16.10,3.40,0.32,7052,2025-11-30 16:34:36.703,2025-11-30 13:34:36.703,17,0,0,48.002,-22.959755,-67.786902,0.00,0.00,-2.80,1.20,1.00,94.50,0,1,0,97,96,-54472,15699,48002,2971.50,17,WP,1,0,0,0,0,0,0,1764520476702,4138,4150,4120,4148,4134,4151,18,,,,,,,0,0,0,-12.00,10.00,945.00,0.00,1.00,-8.00,14,161.00,28.00,2.57,0.00,0.00,-28.00,0,,,100,98,18,2,0,0,1,1,0,,,,,0.0,0.0,0.0,0.0,0.0,0.0,0
-22.959755,-67.786900,16.30,0.00,2.60,0.27,16.30,16.30,3.40,0.32,7150,2025-11-30 16:34:36.800,2025-11-30 13:34:36.800,17,0,0,48.002,-22.959755,-67.786902,0.00,0.00,-2.60,1.90,0.90,94.50,0,1,0,97,96,-54472,15699,48002,2971.50,17,WP,1,0,0,0,0,0,0,1764520476800,4138,4150,4120,4148,4134,4151,18,,,,,,,0,0,0,-19.00,9.00,945.00,0.00,1.00,-8.00,14,163.00,26.00,2.66,0.00,0.00,-26.00,0,,,100,98,18,2,0,0,1,1,0,,,,,0.0,0.0,0.0,0.0,0.0,0.0,0
-22.959755,-67.786900,16.60,0.00,2.40,0.28,16.60,16.60,3.40,0.32,7155,2025-11-30 16:34:36.806,2025-11-30 13:34:36.806,17,0,0,48.002,-22.959755,-67.786902,0.00,0.00,-2.40,2.30,0.90,94.50,0,1,0,97,96,-54472,15699,48002,2971.50,17,WP,1,0,0,0,0,0,0,1764520476805,4138,4150,4120,4148,4134,4151,18,,,,,,,0,0,0,-23.00,9.00,945.00,0.00,1.00,-7.00,14,166.00,24.00,2.78,0.00,0.00,-24.00,0,,,100,98,18,2,0,0,1,1,0,,,,,0.0,0.0,0.0,0.0,0.0,0.0,0
-22.959755,-67.786900,16.80,0.00,2.20,0.29,16.80,16.80,3.40,0.32,7354,2025-11-30 16:34:37.005,2025-11-30 13:34:37.005,17,0,0,48.002,-22.959755,-67.786902,0.00,0.00,-2.20,2.50,0.70,94.40,0,1,0,97,96,-54472,15699,48002,2971.50,17,WP,1,0,0,0,0,0,0,1764520477004,4138,4150,4120,4148,4134,4151,18,,,,,,,0,0,0,-25.00,7.00,944.00,0.00,1.00,-7.00,14,168.00,22.00,2.90,0.00,0.00,-22.00,0,,,100,96,18,2,0,0,1,1,0,,,,,0.0,0.0,0.0,0.0,0.0,0.0,0
-22.959755,-67.786900,17.00,0.00,2.00,0.31,17.00,17.00,3.40,0.32,7465,2025-11-30 16:34:37.115,2025-11-30 13:34:37.116,17,0,0,48.002,-22.959755,-67.786902,0.00,0.00,-2.00,2.70,0.70,94.40,0,1,0,97,96,-54472,15699,48002,2971.50,17,WP,1,0,0,0,0,0,0,1764520477115,4138,4150,4120,4148,4134,4151,18,,,,,,,0,0,0,-27.00,7.00,944.00,0.00,1.00,-7.00,14,170.00,20.00,3.05,0.00,0.00,-20.00,0,,,100,96,18,2,0,0,1,1,0,,,,,0.0,0.0,0.0,0.0,0.0,0.0,0
-22.959755,-67.786899,17.20,0.00,1.90,0.32,17.20,17.20,3.40,0.32,7567,2025-11-30 16:34:37.217,2025-11-30 13:34:37.218,17,0,0,48.002,-22.959755,-67.786902,0.00,0.00,-1.90,2.80,0.70,94.50,0,1,0,97,96,-54472,15699,48002,2971.50,17,WP,1,0,0,0,0,0,0,1764520477217,4138,4150,4120,4148,4134,4151,18,,,,,,,0,0,0,-28.00,7.00,945.00,0.00,1.00,-7.00,14,172.00,19.00,3.17,0.00,0.00,-19.00,0,,,100,96,18,2,0,0,1,1,0,,,,,0.0,0.0,0.0,0.0,0.0,0.0,0
-22.959755,-67.786899,17.40,0.00,1.80,0.33,17.40,17.40,3.40,0.33,7656,2025-11-30 16:34:37.306,2025-11-30 13:34:37.306,17,0,0,48.002,-22.959755,-67.786902,0.00,0.00,-1.80,2.80,0.40,94.60,0,1,0,97,96,-54472,15699,48002,2971.50,17,WP,1,0,0,0,0,0,0,1764520477306,4138,4150,4120,4148,4134,4151,18,,,,,,,0,0,0,-28.00,4.00,946.00,0.00,1.00,-7.00,14,174.00,18.00,3.28,0.00,0.00,-18.00,0,,,100,96,18,2,0,0,1,1,0,,,,,0.0,0.0,0.0,0.0,0.0,0.0,0
-22.959755,-67.786899,17.60,0.00,1.70,0.34,17.60,17.60,3.40,0.34,7660,2025-11-30 16:34:37.310,2025-11-30 13:34:37.310,17,0,0,48.002,-22.959755,-67.786902,0.00,0.00,-1.70,2.80,0.00,94.60,0,1,0,97,96,-54472,15699,48002,2971.50,17,WP,1,0,0,0,0,0,0,1764520477310,4138,4150,4120,4148,4134,4151,18,,,,,,,0,0,0,-28.00,0.00,946.00,0.00,1.00,-8.00,14,176.00,17.00,3.36,0.00,0.00,-17.00,0,,,100,96,18,2,0,0,1,1,0,,,,,0.0,0.0,0.0,0.0,0.0,0.0,0
-22.959755,-67.786899,17.70,0.00,1.50,0.34,17.70,17.70,3.40,0.34,7763,2025-11-30 16:34:37.413,2025-11-30 13:34:37.413,17,0,0,48.002,-22.959755,-67.786902,0.00,0.00,-1.50,2.80,-0.70,94.60,0,1,0,97,96,-54472,15699,48002,2971.50,17,WP,1,0,0,0,0,0,0,1764520477413,4138,4150,4120,4148,4134,4151,18,,,,,,,0,0,0,-28.00,-7.00,946.00,0.00,1.00,-8.00,14,177.00,15.00,3.41,0.00,0.00,-15.00,0,,,100,97,18,2,0,0,1,1,0,,,,,0.0,0.0,0.0,0.0,0.0,0.0,0
-22.959756,-67.786899,17.90,0.00,1.40,0.34,17.90,17.90,3.40,0.34,7866,2025-11-30 16:34:37.517,2025-11-30 13:34:37.517,17,0,0,48.002,-22.959755,-67.786902,0.00,0.00,-1.40,2.90,-1.20,94.60,0,1,0,97,96,-54472,15699,48002,2971.50,17,WP,1,0,0,0,0,0,0,1764520477516,4138,4150,4120,4148,4134,4151,18,,,,,,,0,0,0,-29.00,-12.00,946.00,0.00,1.00,-8.00,14,179.00,14.00,3.44,0.00,0.00,-14.00,0,,,100,97,18,2,0,0,1,1,0,,,,,0.0,0.0,0.0,0.0,0.0,0.0,0
-22.959755,-67.786899,18.00,0.00,1.40,0.34,18.00,18.00,3.40,0.34,7959,2025-11-30 16:34:37.610,2025-11-30 13:34:37.610,17,0,0,48.002,-22.959755,-67.786902,0.00,0.00,-1.40,2.70,-1.30,94.60,0,1,0,97,96,-54472,15699,48002,2971.50,17,WP,1,0,0,0,0,0,0,1764520477609,4138,4150,4120,4148,4134,4151,18,,,,,,,0,0,0,-27.00,-13.00,946.00,0.00,1.00,-8.00,14,180.00,14.00,3.41,0.00,0.00,-14.00,0,,,100,97,18,2,0,0,1,1,0,,,,,0.0,0.0,0.0,0.0,0.0,0.0,0
-22.959755,-67.786899,18.20,0.00,1.30,0.34,18.20,18.20,3.40,0.34,8062,2025-11-30 16:34:37.713,2025-11-30 13:34:37.713,17,0,0,48.002,-22.959755,-67.786902,0.00,0.00,-1.30,2.50,-1.30,94.70,0,1,0,97,96,-54472,15699,48002,2971.50,17,WP,1,0,0,0,0,0,0,1764520477712,4138,4150,4120,4148,4134,4151,18,,,,,,,0,0,0,-25.00,-13.00,947.00,0.00,1.00,-9.00,14,182.00,13.00,3.39,0.00,0.00,-13.00,0,,,100,97,18,2,0,0,1,1,0,,,,,0.0,0.0,0.0,0.0,0.0,0.0,0
-22.959755,-67.786899,18.30,0.00,1.30,0.33,18.30,18.30,3.40,0.34,8165,2025-11-30 16:34:37.816,2025-11-30 13:34:37.816,17,0,0,48.002,-22.959755,-67.786902,0.10,0.00,-1.30,2.30,-0.90,94.70,0,1,0,97,96,-54472,15699,48002,2971.50,17,WP,1,0,0,0,0,0,0,1764520477815,4138,4150,4120,4148,4134,4151,18,,,,,,,0,0,0,-23.00,-9.00,947.00,0.00,1.00,-9.00,14,183.00,13.04,3.28,1.00,0.00,-13.00,0,,,100,97,18,2,0,0,1,1,0,,,,,0.0,0.0,0.0,0.0,0.0,0.0,0
-22.959755,-67.786899,18.50,0.00,1.30,0.32,18.50,18.50,3.40,0.34,8264,2025-11-30 16:34:37.914,2025-11-30 13:34:37.914,17,0,0,48.002,-22.959755,-67.786902,0.10,0.00,-1.30,2.10,-0.30,94.70,0,1,0,97,96,-54472,15699,48002,2971.50,17,WP,1,0,0,0,0,0,0,1764520477914,4138,4150,4120,4148,4134,4151,18,,,,,,,0,0,0,-21.00,-3.00,947.00,0.00,1.00,-9.00,14,185.00,13.04,3.21,1.00,0.00,-13.00,0,,,100,97,18,2,0,0,1,1,0,,,,,0.0,0.0,0.0,0.0,0.0,0.0,0
-22.959755,-67.786899,18.60,0.00,1.30,0.31,18.60,18.60,3.40,0.34,8363,2025-11-30 16:34:38.013,2025-11-30 13:34:38.013,17,0,0,48.002,-22.959755,-67.786902,0.10,0.00,-1.30,2.20,0.40,94.60,0,1,0,97,96,-54472,15699,48002,2971.50,17,WP,1,0,0,0,0,0,0,1764520478013,4138,4150,4120,4148,4134,4151,18,,,,,,,0,0,0,-22.00,4.00,946.00,0.00,1.00,-9.00,14,186.00,13.04,3.12,1.00,0.00,-13.00,0,,,100,97,18,2,0,0,1,1,0,,,,,0.0,0.0,0.0,0.0,0.0,0.0,0
-22.959755,-67.786899,18.80,0.00,1.20,0.31,18.80,18.80,3.40,0.34,8564,2025-11-30 16:34:38.215,2025-11-30 13:34:38.215,17,0,0,48.002,-22.959755,-67.786902,0.00,0.00,-1.20,2.30,0.70,94.70,0,1,0,97,96,-54472,15699,48002,2971.50,17,WP,1,0,0,0,0,0,0,1764520478214,4138,4150,4120,4148,4134,4151,18,,,,,,,0,0,0,-23.00,7.00,947.00,0.00,1.00,-9.00,14,188.00,12.00,3.05,0.00,0.00,-12.00,0,,,100,97,18,2,0,0,1,1,0,,,,,0.0,0.0,0.0,0.0,0.0,0.0,0
-22.959754,-67.786899,18.90,0.00,1.20,0.30,18.90,18.90,3.40,0.34,8579,2025-11-30 16:34:38.229,2025-11-30 13:34:38.229,17,0,0,48.002,-22.959755,-67.786902,0.00,0.00,-1.20,2.30,0.70,94.60,0,1,0,97,96,-54472,15699,48002,2971.50,17,WP,1,0,0,0,0,0,0,1764520478229,4138,4150,4120,4148,4134,4151,18,,,,,,,0,0,0,-23.00,7.00,946.00,0.00,1.00,-9.00,14,189.00,12.00,3.01,0.00,0.00,-12.00,0,,,100,97,18,2,0,0,1,1,0,,,,,0.0,0.0,0.0,0.0,0.0,0.0,0
-22.959754,-67.786900,19.00,0.00,1.20,0.30,19.00,19.00,3.40,0.34,8765,2025-11-30 16:34:38.415,2025-11-30 13:34:38.415,17,0,0,48.100,-22.959755,-67.786902,0.00,0.00,-1.20,2.30,0.50,94.70,0,1,0,97,96,-51754,15699,48100,2971.50,17,WP,1,0,0,0,0,0,0,1764520478415,4138,4150,4120,4148,4134,4151,18,,,,,,,0,0,0,-23.00,5.00,947.00,0.00,1.00,-9.00,14,190.00,12.00,2.97,0.00,0.00,-12.00,0,,,100,97,18,2,0,0,1,1,0,,,,,0.0,0.0,0.0,0.0,0.0,0.0,0
-22.959754,-67.786900,19.20,0.00,1.10,0.29,19.20,19.20,3.40,0.34,8870,2025-11-30 16:34:38.520,2025-11-30 13:34:38.521,17,0,0,48.100,-22.959755,-67.786902,0.00,0.00,-1.10,2.40,0.50,94.70,0,1,0,97,96,-51754,15699,48100,2971.50,17,WP,1,0,0,0,0,0,0,1764520478520,4138,4150,4120,4148,4134,4151,18,,,,,,,0,0,0,-24.00,5.00,947.00,0.00,1.00,-9.00,14,192.00,11.00,2.92,0.00,0.00,-11.00,0,,,100,100,18,2,0,0,1,1,0,,,,,0.0,0.0,0.0,0.0,0.0,0.0,0
-22.959754,-67.786900,19.30,0.00,1.00,0.29,19.30,19.30,3.40,0.34,8877,2025-11-30 16:34:38.528,2025-11-30 13:34:38.528,17,0,0,48.100,-22.959755,-67.786902,0.00,0.00,-1.00,2.60,0.70,94.60,0,1,0,97,96,-51754,15699,48100,2971.50,17,WP,1,0,0,0,0,0,0,1764520478527,4138,4150,4120,4148,4134,4151,18,,,,,,,0,0,0,-26.00,7.00,946.00,0.00,1.00,-9.00,14,193.00,10.00,2.88,0.00,0.00,-10.00,0,,,100,100,18,2,0,0,1,1,0,,,,,0.0,0.0,0.0,0.0,0.0,0.0,0
-22.959754,-67.786900,19.40,0.00,0.90,0.28,19.40,19.40,3.40,0.34,9078,2025-11-30 16:34:38.728,2025-11-30 13:34:38.728,17,0,0,48.100,-22.959755,-67.786902,0.00,0.00,-0.90,2.50,1.10,94.50,0,1,0,97,96,-51754,15699,48100,2971.50,17,WP,1,0,0,0,0,0,0,1764520478728,4138,4150,4120,4148,4134,4151,18,,,,,,,0,0,0,-25.00,11.00,945.00,0.00,1.00,-8.00,14,194.00,9.00,2.79,0.00,0.00,-9.00,0,,,100,100,18,2,0,0,1,1,0,,,,,0.0,0.0,0.0,0.0,0.0,0.0,0
-22.959754,-67.786900,19.50,0.00,0.80,0.27,19.50,19.50,3.40,0.34,9083,2025-11-30 16:34:38.733,2025-11-30 13:34:38.733,17,0,0,48.100,-22.959755,-67.786902,0.00,0.00,-0.80,2.10,1.00,96.20,0,1,0,97,96,-51754,15699,48100,2971.50,17,WP,1,0,0,0,0,0,0,1764520478733,4138,4150,4120,4148,4134,4151,18,,,,,,,0,0,0,-21.00,10.00,962.00,0.00,1.00,-8.00,14,195.00,8.00,2.71,0.00,0.00,-8.00,0,,,100,100,18,2,0,0,1,1,0,,,,,0.0,0.0,0.0,0.0,0.0,0.0,0
-22.959754,-67.786900,19.50,0.00,0.60,0.26,19.50,19.50,3.40,0.34,9168,2025-11-30 16:34:38.818,2025-11-30 13:34:38.818,17,0,0,48.100,-22.959755,-67.786902,0.00,0.00,-0.60,1.20,0.70,101.30,0,1,0,97,96,-51754,15699,48100,2971.50,17,WP,1,0,0,0,0,0,0,1764520478818,4138,4150,4120,4148,4134,4151,18,,,,,,,0,0,0,-12.00,7.00,1013.00,0.00,1.00,-31.00,14,195.00,6.00,2.64,0.00,0.00,-6.00,0,,,100,100,18,2,0,0,1,1,0,,,,,0.0,0.0,0.0,0.0,0.0,0.0,0
-22.959753,-67.786900,19.60,0.00,0.30,0.26,19.60,19.60,3.40,0.34,9278,2025-11-30 16:34:38.929,2025-11-30 13:34:38.929,17,0,0,48.100,-22.959755,-67.786902,0.00,0.00,-0.30,0.40,0.10,109.00,0,1,0,97,96,-51754,15699,48100,2971.50,17,WP,1,0,0,0,0,0,0,1764520478928,4138,4150,4120,4148,4134,4151,18,,,,,,,0,0,0,-4.00,1.00,1090.00,0.00,1.00,-31.00,14,196.00,3.00,2.59,0.00,0.00,-3.00,0,,,100,100,18,2,0,0,1,1,0,,,,,0.0,0.0,0.0,0.0,0.0,0.0,0
-22.959753,-67.786900,19.60,0.00,0.14,0.26,19.60,19.60,3.40,0.34,9372,2025-11-30 16:34:39.023,2025-11-30 13:34:39.023,17,0,0,48.100,-22.959755,-67.786902,0.10,0.00,-0.10,0.60,0.00,118.50,0,1,0,97,96,-51754,15699,48100,2971.50,17,WP,1,0,0,0,0,0,0,1764520479022,4138,4150,4120,4148,4134,4151,18,,,,,,,0,0,0,-6.00,0.00,1185.00,0.00,1.00,-31.00,14,196.00,1.41,2.62,1.00,0.00,-1.00,0,,,100,100,18,2,0,0,1,1,0,,,,,0.0,0.0,0.0,0.0,0.0,0.0,0
-22.959753,-67.786900,19.70,0.00,0.10,0.26,19.70,19.70,3.40,0.34,9580,2025-11-30 16:34:39.230,2025-11-30 13:34:39.231,17,0,0,48.100,-22.959755,-67.786902,0.10,0.00,0.00,1.40,0.00,127.80,0,1,0,97,96,-51754,15699,48100,2971.50,17,WP,1,0,0,0,0,0,0,1764520479230,4138,4150,4120,4148,4134,4151,18,,,,,,,0,0,0,-14.00,0.00,1278.00,0.00,1.00,-252.00,14,197.00,1.00,2.65,1.00,0.00,0.00,0,,,100,100,18,2,0,0,1,1,0,,,,,0.0,0.0,0.0,0.0,0.0,0.0,0
-22.959753,-67.786901,19.70,0.00,0.14,0.27,19.70,19.70,3.40,0.34,9586,2025-11-30 16:34:39.237,2025-11-30 13:34:39.237,17,0,0,48.100,-22.959755,-67.786902,0.10,-0.10,0.00,2.00,0.40,137.10,0,1,0,97,96,-51754,15699,48100,2971.50,17,WP,1,0,0,0,0,0,0,1764520479236,4138,4150,4120,4148,4134,4151,18,,,,,,,0,0,0,-20.00,4.00,1371.00,0.00,2.00,-324.00,14,197.00,1.41,2.67,1.00,-1.00,0.00,0,,,100,100,18,2,0,0,1,1,0,,,,,0.0,0.0,0.0,0.0,0.0,0.0,0
-22.959753,-67.786901,19.70,0.00,0.22,0.27,19.70,19.70,3.40,0.34,9678,2025-11-30 16:34:39.328,2025-11-30 13:34:39.328,17,0,0,48.100,-22.959755,-67.786902,0.20,-0.10,0.00,1.60,0.70,146.90,0,1,0,97,96,-51754,15699,48100,2971.50,17,WP,1,0,0,0,0,0,0,1764520479328,4138,4150,4120,4148,4134,4151,18,,,,,,,0,0,0,-16.00,7.00,1469.00,0.00,2.00,-386.00,14,197.00,2.24,2.69,2.00,-1.00,0.00,0,,,100,100,18,2,0,0,1,1,0,,,,,0.0,0.0,0.0,0.0,0.0,0.0,0
-22.959752,-67.786901,19.70,0.00,0.24,0.29,19.70,19.70,3.40,0.34,9778,2025-11-30 16:34:39.428,2025-11-30 13:34:39.428,17,0,0,48.100,-22.959755,-67.786902,0.20,-0.10,0.10,0.80,0.70,155.70,0,1,0,97,96,-51754,15699,48100,2971.50,17,WP,1,0,0,0,0,0,0,1764520479428,4138,4150,4120,4148,4134,4151,18,,,,,,,0,0,0,-8.00,7.00,1557.00,0.00,2.00,-386.00,14,197.00,2.45,2.86,2.00,-1.00,1.00,0,,,100,99,18,2,0,0,1,1,0,,,,,0.0,0.0,0.0,0.0,0.0,0.0,0
-22.959752,-67.786901,19.60,0.00,0.33,0.30,19.70,19.70,3.40,0.34,9882,2025-11-30 16:34:39.533,2025-11-30 13:34:39.533,17,0,0,48.100,-22.959755,-67.786902,0.30,-0.10,0.10,-0.30,0.30,164.00,0,1,0,97,96,-51754,15699,48100,2971.50,17,WP,1,0,0,0,0,0,0,1764520479532,4138,4150,4120,4148,4134,4151,18,,,,,,,0,0,0,3.00,3.00,1640.00,0.00,1.00,-475.00,14,196.00,3.32,3.03,3.00,-1.00,1.00,0,,,100,99,18,2,0,0,1,1,0,,,,,0.0,0.0,0.0,0.0,0.0,0.0,0
-22.959752,-67.786901,19.60,0.00,0.22,0.34,19.70,19.70,3.40,0.34,9982,2025-11-30 16:34:39.633,2025-11-30 13:34:39.633,17,0,0,48.100,-22.959755,-67.786902,0.20,0.00,0.10,-1.40,-0.20,170.10,0,1,0,97,96,-51754,15699,48100,2971.50,17,WP,1,0,0,0,0,0,0,1764520479632,4138,4150,4120,4148,4134,4151,18,,,,,,,0,0,0,14.00,-2.00,1701.00,0.00,1.00,-492.00,14,196.00,2.24,3.39,2.00,0.00,1.00,0,,,100,99,18,2,0,0,1,1,0,,,,,0.0,0.0,0.0,0.0,0.0,0.0,0
-22.959751,-67.786901,19.60,0.00,0.22,0.37,19.70,19.70,3.40,0.37,10083,2025-11-30 16:34:39.733,2025-11-30 13:34:39.733,17,0,0,48.100,-22.959755,-67.786902,0.20,0.00,0.10,-2.20,-0.40,174.20,0,1,0,97,96,-51754,15699,48100,2971.50,17,WP,1,0,0,0,0,0,0,1764520479733,4138,4150,4120,4148,4134,4151,18,,,,,,,0,0,0,22.00,-4.00,1742.00,0.00,1.00,-481.00,14,196.00,2.24,3.66,2.00,0.00,1.00,0,,,100,99,18,2,0,0,1,1,0,,,,,0.0,0.0,0.0,0.0,0.0,0.0,0
-22.959751,-67.786901,19.60,0.00,0.22,0.41,19.70,19.70,3.40,0.41,10176,2025-11-30 16:34:39.826,2025-11-30 13:34:39.826,17,0,0,48.100,-22.959755,-67.786902,0.20,0.00,0.10,-2.60,0.00,176.90,0,1,0,97,96,-51754,15699,48100,2971.50,17,WP,1,0,0,0,0,0,0,1764520479826,4138,4150,4120,4148,4134,4151,18,,,,,,,0,0,0,26.00,0.00,1769.00,0.00,1.00,-451.00,14,196.00,2.24,4.08,2.00,0.00,1.00,0,,,100,99,18,2,0,0,1,1,0,,,,,0.0,0.0,0.0,0.0,0.0,0.0,0
-22.959751,-67.786901,19.60,0.00,0.22,0.44,19.70,19.70,3.40,0.44,10279,2025-11-30 16:34:39.929,2025-11-30 13:34:39.929,17,0,0,48.100,-22.959755,-67.786902,0.20,0.00,0.10,-2.80,0.50,178.10,0,1,0,97,96,-51754,15699,48100,2971.50,17,WP,1,0,0,0,0,0,0,1764520479929,4138,4150,4120,4148,4134,4151,18,,,,,,,0,0,0,28.00,5.00,1781.00,0.00,1.00,-411.00,14,196.00,2.24,4.37,2.00,0.00,1.00,0,,,100,98,18,2,0,0,1,1,0,,,,,0.0,0.0,0.0,0.0,0.0,0.0,0
-22.959750,-67.786901,19.60,0.00,0.17,0.48,19.70,19.70,3.40,0.48,10382,2025-11-30 16:34:40.032,2025-11-30 13:34:40.033,17,0,0,48.100,-22.959755,-67.786902,0.10,0.10,0.10,-2.30,1.40,178.50,0,1,0,97,96,-51754,15699,48100,2971.50,17,WP,1,0,0,0,0,0,0,1764520480032,4138,4150,4120,4148,4134,4151,18,,,,,,,0,0,0,23.00,14.00,1785.00,0.00,1.00,-362.00,14,196.00,1.73,4.76,1.00,1.00,1.00,0,,,100,98,18,2,0,0,1,1,0,,,,,0.0,0.0,0.0,0.0,0.0,0.0,0
-22.959750,-67.786901,19.60,0.00,0.14,0.50,19.70,19.70,3.40,0.50,10578,2025-11-30 16:34:40.229,2025-11-30 13:34:40.229,17,0,0,48.100,-22.959755,-67.786902,0.10,0.10,0.00,-2.90,2.10,178.60,0,1,0,97,96,-51754,15699,48100,2971.50,17,WP,1,0,0,0,0,0,0,1764520480228,4138,4150,4120,4148,4134,4151,18,,,,,,,0,0,0,29.00,21.00,1786.00,0.00,1.00,-317.00,14,196.00,1.41,5.01,1.00,1.00,0.00,0,,,100,98,18,2,0,0,1,1,0,,,,,0.0,0.0,0.0,0.0,0.0,0.0,0
-22.959750,-67.786901,19.60,0.00,0.10,0.53,19.70,19.70,3.40,0.53,10584,2025-11-30 16:34:40.234,2025-11-30 13:34:40.235,17,0,0,48.100,-22.959755,-67.786902,0.00,0.10,0.00,-5.00,2.50,178.60,0,1,0,97,96,-51754,15699,48100,2971.50,17,WP,1,0,0,0,0,0,0,1764520480234,4138,4150,4120,4148,4134,4151,18,,,,,,,0,0,0,50.00,25.00,1786.00,-1.00,1.00,-280.00,14,196.00,1.00,5.29,0.00,1.00,0.00,0,,,100,98,18,2,0,0,1,1,0,,,,,0.0,0.0,0.0,0.0,0.0,0.0,0
-22.959750,-67.786900,19.60,0.00,0.10,0.54,19.70,19.70,3.40,0.54,10679,2025-11-30 16:34:40.329,2025-11-30 13:34:40.329,17,0,0,48.202,-22.959755,-67.786902,0.00,0.10,0.00,-7.70,2.60,178.50,0,1,0,97,96,-47209,15699,48202,2971.50,17,WP,1,0,0,0,0,0,0,1764520480329,4138,4150,4120,4148,4134,4151,18,,,,,,,0,0,0,77.00,26.00,1785.00,-1.00,1.00,-252.00,14,196.00,1.00,5.41,0.00,1.00,0.00,0,,,100,98,18,2,0,0,1,1,0,,,,,0.0,0.0,0.0,0.0,0.0,0.0,0
-22.959750,-67.786900,19.60,0.00,0.22,0.54,19.70,19.70,3.40,0.54,10781,2025-11-30 16:34:40.432,2025-11-30 13:34:40.432,17,0,0,48.202,-22.959755,-67.786902,-0.20,0.10,0.00,-10.20,2.60,178.40,0,1,0,97,96,-47209,15699,48202,2971.50,17,WP,1,0,0,0,0,0,0,1764520480431,4138,4150,4120,4148,4134,4151,18,,,,,,,0,0,0,102.00,26.00,1784.00,-1.00,1.00,-230.00,14,196.00,2.24,5.38,-2.00,1.00,0.00,0,,,100,98,18,2,0,0,1,1,0,,,,,0.0,0.0,0.0,0.0,0.0,0.0,0
-22.959750,-67.786900,19.60,0.00,0.41,0.52,19.70,19.70,3.40,0.54,10898,2025-11-30 16:34:40.548,2025-11-30 13:34:40.548,17,0,0,48.202,-22.959755,-67.786902,-0.40,0.00,-0.10,-12.20,2.40,178.40,0,1,0,97,96,-47209,15699,48202,2971.50,17,WP,1,0,0,0,0,0,0,1764520480548,4138,4150,4120,4148,4134,4151,18,,,,,,,0,0,0,122.00,24.00,1784.00,0.00,1.00,-214.00,14,196.00,4.12,5.17,-4.00,0.00,-1.00,0,,,100,98,18,2,0,0,1,1,0,,,,,0.0,0.0,0.0,0.0,0.0,0.0,0
-22.959751,-67.786900,19.60,0.00,0.60,0.46,19.70,19.70,3.40,0.54,10984,2025-11-30 16:34:40.635,2025-11-30 13:34:40.635,17,0,0,48.202,-22.959755,-67.786902,-0.60,0.00,0.00,-13.70,2.00,178.40,0,1,0,97,96,-47209,15699,48202,2971.50,17,WP,1,0,0,0,0,0,0,1764520480634,4138,4150,4120,4148,4134,4151,18,,,,,,,0,0,0,137.00,20.00,1784.00,-1.00,1.00,-200.00,14,196.00,6.00,4.61,-6.00,0.00,0.00,0,,,100,98,18,2,0,0,1,1,0,,,,,0.0,0.0,0.0,0.0,0.0,0.0,0
-22.959752,-67.786900,19.60,0.00,0.81,0.39,19.70,19.70,3.40,0.54,11083,2025-11-30 16:34:40.734,2025-11-30 13:34:40.734,17,0,0,48.202,-22.959755,-67.786902,-0.80,0.00,-0.10,-14.40,1.60,178.40,0,1,0,97,96,-47209,15699,48202,2971.50,17,WP,1,0,0,0,0,0,0,1764520480733,4138,4150,4120,4148,4134,4151,18,,,,,,,0,0,0,144.00,16.00,1784.00,-1.00,0.00,-189.00,14,196.00,8.06,3.94,-8.00,0.00,-1.00,0,,,100,98,18,2,0,0,1,1,0,,,,,0.0,0.0,0.0,0.0,0.0,0.0,0
-22.959753,-67.786900,19.70,0.00,1.00,0.30,19.70,19.70,3.40,0.54,11186,2025-11-30 16:34:40.837,2025-11-30 13:34:40.837,16,0,0,48.202,-22.959755,-67.786902,-1.00,0.00,0.00,-15.00,1.20,178.50,0,1,0,97,96,-47209,15699,48202,2971.50,17,WP,1,0,0,0,0,0,0,1764520480836,4138,4150,4120,4148,4134,4151,18,,,,,,,0,0,0,150.00,12.00,1785.00,-1.00,0.00,-181.00,14,197.00,10.00,3.05,-10.00,0.00,0.00,0,,,100,98,18,2,0,0,1,1,0,,,,,0.0,0.0,0.0,0.0,0.0,0.0,0
-22.959754,-67.786900,19.60,0.00,1.30,0.25,19.70,19.70,3.40,0.54,11284,2025-11-30 16:34:40.934,2025-11-30 13:34:40.934,16,0,0,48.202,-22.959755,-67.786902,-1.30,0.00,0.00,-15.50,1.20,178.50,0,1,0,97,96,-47209,15699,48202,2971.50,17,WP,1,0,0,0,0,0,0,1764520480934,4138,4150,4120,4148,4134,4151,18,,,,,,,0,0,0,155.00,12.00,1785.00,-1.00,1.00,-173.00,14,196.00,13.00,2.54,-13.00,0.00,0.00,0,,,100,98,18,2,0,0,1,1,0,,,,,0.0,0.0,0.0,0.0,0.0,0.0,0
-22.959756,-67.786900,19.60,0.00,1.50,0.30,19.70,19.70,3.40,0.54,11388,2025-11-30 16:34:41.038,2025-11-30 13:34:41.038,16,0,0,48.202,-22.959755,-67.786902,-1.50,0.00,0.00,-15.60,1.30,178.60,0,1,0,97,96,-47209,15699,48202,2971.50,17,WP,1,0,0,0,0,0,0,1764520481038,4021,4032,4037,4069,4067,4039,18,,,,,,,0,0,0,156.00,13.00,1786.00,0.00,1.00,-166.00,14,196.00,15.00,3.02,-15.00,0.00,0.00,0,,,100,98,18,2,0,0,1,1,0,,,,,0.0,0.0,0.0,0.0,0.0,0.0,0
-22.959758,-67.786900,19.60,0.00,1.80,0.44,19.70,19.70,3.40,0.54,11586,2025-11-30 16:34:41.237,2025-11-30 13:34:41.237,16,0,0,48.202,-22.959755,-67.786902,-1.80,0.00,0.00,-15.70,1.60,178.60,0,1,0,97,96,-47209,15699,48202,2971.50,17,WP,1,0,0,0,0,0,0,1764520481236,4021,4032,4037,4069,4067,4039,18,,,,,,,0,0,0,157.00,16.00,1786.00,0.00,1.00,-159.00,14,196.00,18.00,4.45,-18.00,0.00,0.00,0,,,100,98,18,2,0,0,1,1,0,,,,,0.0,0.0,0.0,0.0,0.0,0.0,0
-22.959760,-67.786900,19.60,0.00,2.00,0.68,19.70,19.70,3.40,0.68,11599,2025-11-30 16:34:41.250,2025-11-30 13:34:41.250,16,0,0,48.202,-22.959755,-67.786902,-2.00,0.00,0.00,-15.60,2.10,178.50,0,1,0,97,96,-47209,15699,48202,2971.50,17,WP,1,0,0,0,0,0,0,1764520481249,4021,4032,4037,4069,4067,4039,18,,,,,,,0,0,0,156.00,21.00,1785.00,0.00,1.00,-153.00,14,196.00,20.00,6.76,-20.00,0.00,0.00,0,,,100,98,18,2,0,0,1,1,0,,,,,0.0,0.0,0.0,0.0,0.0,0.0,0
-22.959762,-67.786900,19.60,0.00,2.30,0.92,19.70,19.70,3.40,0.92,11686,2025-11-30 16:34:41.337,2025-11-30 13:34:41.337,16,0,0,48.202,-22.959755,-67.786902,-2.30,0.00,0.10,-15.70,2.50,178.50,0,1,0,97,96,-47209,15699,48202,2971.50,17,WP,1,0,0,0,0,0,0,1764520481336,4021,4032,4037,4069,4067,4039,18,,,,,,,0,0,0,157.00,25.00,1785.00,0.00,1.00,-147.00,14,196.00,23.02,9.23,-23.00,0.00,1.00,0,,,100,98,18,2,0,0,1,1,0,,,,,0.0,0.0,0.0,0.0,0.0,0.0,0
-22.959765,-67.786900,19.60,0.00,2.50,1.23,19.70,19.70,3.40,1.23,11795,2025-11-30 16:34:41.446,2025-11-30 13:34:41.446,16,0,0,48.202,-22.959755,-67.786902,-2.50,0.00,0.00,-16.10,2.80,178.40,0,1,0,97,96,-47209,15699,48202,2971.50,17,WP,1,0,0,0,0,0,0,1764520481445,4021,4032,4037,4069,4067,4039,18,,,,,,,0,0,0,161.00,28.00,1784.00,0.00,1.00,-143.00,14,196.00,25.00,12.30,-25.00,0.00,0.00,0,,,100,98,18,2,0,0,1,1,0,,,,,0.0,0.0,0.0,0.0,0.0,0.0,0
-22.959768,-67.786900,19.60,0.00,2.80,1.54,19.70,19.70,3.40,1.54,11898,2025-11-30 16:34:41.549,2025-11-30 13:34:41.549,16,0,0,48.202,-22.959755,-67.786902,-2.80,0.00,0.00,-16.30,2.90,178.40,0,1,0,97,96,-47209,15699,48202,2971.50,17,WP,1,0,0,0,0,0,0,1764520481548,4021,4032,4037,4069,4067,4039,18,,,,,,,0,0,0,163.00,29.00,1784.00,0.00,1.00,-138.00,14,196.00,28.00,15.43,-28.00,0.00,0.00,0,,,100,98,18,2,0,0,1,1,0,,,,,0.0,0.0,0.0,0.0,0.0,0.0,0
-22.959772,-67.786900,19.60,0.00,3.10,1.91,19.70,19.70,3.40,1.91,11999,2025-11-30 16:34:41.649,2025-11-30 13:34:41.650,16,0,0,48.202,-22.959755,-67.786902,-3.10,0.00,0.00,-16.00,2.90,178.30,0,1,0,97,96,-47209,15699,48202,2971.50,17,WP,1,0,0,0,0,0,0,1764520481649,4021,4032,4037,4069,4067,4039,18,,,,,,,0,0,0,160.00,29.00,1783.00,0.00,1.00,-133.00,14,196.00,31.00,19.14,-31.00,0.00,0.00,0,,,100,98,18,2,0,0,1,1,0,,,,,0.0,0.0,0.0,0.0,0.0,0.0,0
-22.959775,-67.786899,19.60,0.00,3.30,2.29,19.70,19.70,3.40,2.29,12093,2025-11-30 16:34:41.743,2025-11-30 13:34:41.743,16,0,0,48.202,-22.959755,-67.786902,-3.30,0.00,0.00,-15.60,2.90,178.40,0,1,0,97,96,-47209,15699,48202,2971.50,17,WP,1,0,0,0,0,0,0,1764520481743,4021,4032,4037,4069,4067,4039,18,,,,,,,0,0,0,156.00,29.00,1784.00,1.00,1.00,-129.00,14,196.00,33.00,22.86,-33.00,0.00,0.00,0,,,100,98,18,2,0,0,1,1,0,,,,,0.0,0.0,0.0,0.0,0.0,0.0,0
-22.959779,-67.786899,19.60,0.00,3.60,2.70,19.70,19.70,3.60,2.70,12201,2025-11-30 16:34:41.851,2025-11-30 13:34:41.851,16,0,0,48.202,-22.959755,-67.786902,-3.60,0.00,0.00,-15.50,2.90,178.40,0,1,0,97,96,-47209,15699,48202,2971.50,17,WP,1,0,0,0,0,0,0,1764520481851,4021,4032,4037,4069,4067,4039,18,,,,,,,0,0,0,155.00,29.00,1784.00,1.00,1.00,-126.00,14,196.00,36.00,27.01,-36.00,0.00,0.00,0,,,100,98,18,2,0,0,1,1,0,,,,,0.0,0.0,0.0,0.0,0.0,0.0,0
-22.959783,-67.786899,19.60,0.00,3.80,3.12,19.70,19.70,3.80,3.12,12289,2025-11-30 16:34:41.940,2025-11-30 13:34:41.940,16,0,0,48.202,-22.959755,-67.786902,-3.80,0.00,-0.10,-15.50,3.00,178.40,0,1,0,97,96,-47209,15699,48202,2971.50,17,WP,1,0,0,0,0,0,0,1764520481939,4021,4032,4037,4069,4067,4039,18,,,,,,,0,0,0,155.00,30.00,1784.00,1.00,1.00,-123.00,14,196.00,38.01,31.23,-38.00,0.00,-1.00,0,,,100,96,18,2,0,0,1,1,0,,,,,0.0,0.0,0.0,0.0,0.0,0.0,0
-22.959787,-67.786899,19.60,0.00,4.10,3.60,19.70,19.70,4.10,3.60,12395,2025-11-30 16:34:42.046,2025-11-30 13:34:42.046,16,0,0,48.202,-22.959755,-67.786902,-4.10,0.00,-0.10,-15.50,3.10,178.40,0,1,0,97,96,-47209,15699,48202,2971.50,17,WP,1,0,0,0,0,0,0,1764520482045,4021,4032,4037,4069,4067,4039,18,,,,,,,0,0,0,155.00,31.00,1784.00,1.00,1.00,-121.00,14,196.00,41.01,35.97,-41.00,0.00,-1.00,0,,,100,96,18,2,0,0,1,1,0,,,,,0.0,0.0,0.0,0.0,0.0,0.0,0
-22.959791,-67.786899,19.60,0.00,4.30,4.07,19.70,19.70,4.30,4.07,12498,2025-11-30 16:34:42.149,2025-11-30 13:34:42.149,16,0,0,48.202,-22.959755,-67.786902,-4.30,0.00,-0.10,-15.40,3.20,178.40,0,1,0,97,96,-47209,15699,48202,2971.50,17,WP,1,0,0,0,0,0,0,1764520482148,4021,4032,4037,4069,4067,4039,18,,,,,,,0,0,0,154.00,32.00,1784.00,0.00,1.00,-118.00,14,196.00,43.01,40.74,-43.00,0.00,-1.00,0,,,100,96,18,2,0,0,1,1,0,,,,,0.0,0.0,0.0,0.0,0.0,0.0,0
-22.959796,-67.786900,19.70,0.00,4.60,4.60,19.70,19.70,4.60,4.60,12593,2025-11-30 16:34:42.243,2025-11-30 13:34:42.243,16,0,0,48.202,-22.959755,-67.786902,-4.60,0.00,-0.10,-15.10,3.50,178.30,0,1,0,97,96,-47209,15699,48202,2971.50,17,WP,1,0,0,0,0,0,0,1764520482243,4021,4032,4037,4069,4067,4039,18,,,,,,,0,0,0,151.00,35.00,1783.00,1.00,1.00,-115.00,14,197.00,46.01,46.01,-46.00,0.00,-1.00,0,,,100,96,18,2,0,0,1,1,0,,,,,0.0,0.0,0.0,0.0,0.0,0.0,0
-22.959801,-67.786900,19.70,0.00,4.80,5.13,19.70,19.70,4.80,5.13,12696,2025-11-30 16:34:42.347,2025-11-30 13:34:42.347,16,0,0,47.917,-22.959755,-67.786902,-4.80,0.00,0.00,-14.90,3.60,178.30,0,1,0,96,96,-52755,15645,47917,2971.50,17,WP,1,0,0,0,0,0,0,1764520482346,4021,4032,4037,4069,4067,4039,18,,,,,,,0,0,0,149.00,36.00,1783.00,1.00,1.00,-113.00,14,197.00,48.00,51.28,-48.00,0.00,0.00,0,,,100,96,18,2,0,0,1,1,0,,,,,0.0,0.0,0.0,0.0,0.0,0.0,0
-22.959806,-67.786900,19.70,0.00,5.00,5.68,19.70,19.70,5.00,5.68,12800,2025-11-30 16:34:42.450,2025-11-30 13:34:42.450,16,0,0,47.917,-22.959755,-67.786902,-5.00,0.00,0.00,-15.00,3.70,178.30,0,1,0,96,96,-52755,15645,47917,2971.50,17,WP,1,0,0,0,0,0,0,1764520482450,4021,4032,4037,4069,4067,4039,18,,,,,,,0,0,0,150.00,37.00,1783.00,1.00,1.00,-110.00,14,197.00,50.00,56.79,-50.00,0.00,0.00,0,,,100,98,18,2,0,0,1,1,0,,,,,0.0,0.0,0.0,0.0,0.0,0.0,0
-22.959811,-67.786900,19.70,0.00,5.30,6.24,19.70,19.70,5.30,6.24,12898,2025-11-30 16:34:42.549,2025-11-30 13:34:42.549,16,0,0,47.917,-22.959755,-67.786902,-5.30,0.00,0.00,-15.00,3.90,178.30,0,1,0,96,96,-52755,15645,47917,2971.50,17,WP,1,0,0,0,0,0,0,1764520482548,4021,4032,4037,4069,4067,4039,18,,,,,,,0,0,0,150.00,39.00,1783.00,1.00,1.00,-110.00,14,197.00,53.00,62.40,-53.00,0.00,0.00,0,,,100,98,18,2,0,0,1,1,0,,,,,0.0,0.0,0.0,0.0,0.0,0.0,0
-22.959817,-67.786900,19.70,0.00,5.50,6.88,19.70,19.70,5.50,6.88,12999,2025-11-30 16:34:42.649,2025-11-30 13:34:42.649,16,0,0,47.917,-22.959755,-67.786902,-5.50,0.00,0.00,-14.80,4.10,178.30,0,1,0,96,96,-52755,15645,47917,2971.50,17,WP,1,0,0,0,0,0,0,1764520482649,4021,4032,4037,4069,4067,4039,18,,,,,,,0,0,0,148.00,41.00,1783.00,1.00,1.00,-107.00,14,197.00,55.00,68.75,-55.00,0.00,0.00,0,,,100,98,18,2,0,0,1,1,0,,,,,0.0,0.0,0.0,0.0,0.0,0.0,0
-22.959822,-67.786900,19.70,0.00,5.80,7.50,19.70,19.70,5.80,7.50,13097,2025-11-30 16:34:42.748,2025-11-30 13:34:42.748,16,0,0,47.917,-22.959755,-67.786902,-5.80,0.00,0.00,-14.60,3.90,178.30,0,1,0,96,96,-52755,15645,47917,2971.50,17,WP,1,0,0,0,0,0,0,1764520482747,4021,4032,4037,4069,4067,4039,18,,,,,,,0,0,0,146.00,39.00,1783.00,1.00,1.00,-107.00,14,197.00,58.00,75.02,-58.00,0.00,0.00,0,,,100,98,18,2,0,0,1,1,0,,,,,0.0,0.0,0.0,0.0,0.0,0.0,0
-22.959828,-67.786900,19.70,0.00,6.00,8.17,19.70,19.70,6.00,8.17,13200,2025-11-30 16:34:42.850,2025-11-30 13:34:42.850,16,0,0,47.917,-22.959755,-67.786902,-6.00,-0.10,0.00,-14.60,3.60,178.30,0,1,0,96,96,-52755,15645,47917,2971.50,17,WP,1,0,0,0,0,0,0,1764520482850,4021,4032,4037,4069,4067,4039,18,,,,,,,0,0,0,146.00,36.00,1783.00,1.00,1.00,-104.00,14,197.00,60.01,81.73,-60.00,-1.00,0.00,0,,,100,98,18,2,0,0,1,1,0,,,,,0.0,0.0,0.0,0.0,0.0,0.0,0
-22.959834,-67.786901,19.70,0.00,6.20,8.84,19.70,19.70,6.20,8.84,13303,2025-11-30 16:34:42.953,2025-11-30 13:34:42.953,16,0,0,47.917,-22.959755,-67.786902,-6.20,-0.10,0.00,-14.70,3.00,178.30,0,1,0,96,96,-52755,15645,47917,2971.50,17,WP,1,0,0,0,0,0,0,1764520482953,4021,4032,4037,4069,4067,4039,18,,,,,,,0,0,0,147.00,30.00,1783.00,1.00,1.00,-102.00,14,197.00,62.01,88.37,-62.00,-1.00,0.00,0,,,100,97,18,2,0,0,1,1,0,,,,,0.0,0.0,0.0,0.0,0.0,0.0,0
-22.959841,-67.786901,19.70,0.00,6.40,9.55,19.70,19.70,6.40,9.55,13398,2025-11-30 16:34:43.048,2025-11-30 13:34:43.048,16,0,0,47.917,-22.959755,-67.786902,-6.40,-0.20,0.00,-14.50,2.50,178.40,0,1,0,96,96,-52755,15645,47917,2971.50,17,WP,1,0,0,0,0,0,0,1764520483048,4021,4032,4037,4069,4067,4039,18,,,,,,,0,0,0,145.00,25.00,1784.00,1.00,1.00,-102.00,14,197.00,64.03,95.51,-64.00,-2.00,0.00,0,,,100,97,18,2,0,0,1,1,0,,,,,0.0,0.0,0.0,0.0,0.0,0.0,0
-22.959847,-67.786901,19.70,0.00,6.50,10.25,19.70,19.70,6.50,10.25,13503,2025-11-30 16:34:43.154,2025-11-30 13:34:43.154,16,0,0,47.917,-22.959755,-67.786902,-6.50,-0.20,0.00,-14.30,1.90,178.40,0,1,0,96,96,-52755,15645,47917,2971.50,17,WP,1,0,0,0,0,0,0,1764520483153,4021,4032,4037,4069,4067,4039,18,,,,,,,0,0,0,143.00,19.00,1784.00,2.00,1.00,-99.00,14,197.00,65.03,102.53,-65.00,-2.00,0.00,0,,,100,97,18,2,0,0,1,1,0,,,,,0.0,0.0,0.0,0.0,0.0,0.0,0
