latitude,longitude,altitude(m),ultrasonicHeight(m),speed(mps),distance(m),max_altitude(m),max_ascent(m),max_speed(mps),max_distance(m),time(millisecond),datetime(utc),datetime(local),satellites,pressure(Pa),temperature(F),voltage(v),home_latitude,home_longitude,velocityX(mps),velocityY(mps),velocityZ(mps),pitch(deg),roll(deg),yaw(deg),powerlevel,isflying,istakingphoto,remainPowerPercent,remainLifePercent,currentCurrent,currentElectricity,currentVoltage,batteryTemperature,dischargeCount,flightmode,isMotorsOn,isTakingVideo,Rc_elevator,Rc_aileron,Rc_throttle,Rc_rudder,Rc_gyro,timestamp,Battery_Cell1,Battery_Cell2,Battery_Cell3,Battery_Cell4,Battery_Cell5,Battery_Cell6,Dronetype,AppVersion,Planename,FlyControllerSerialNumber,RemoteSerialNumber,BatterySerialNumber,CENTER_BATTERY.productDate,CENTER_BATTERY.serialNo,CENTER_BATTERY.fullCapacity,CENTER_BATTERY.productDateRaw,pitchRaw,rollRaw,yawRaw,gimbalPitchRaw,gimbalRollRaw,gimbalYawRaw,flyState,altitudeRaw,speedRaw,distanceRaw,velocityXRaw,velocityYRaw,velocityZRaw,data_reuse,App_Tip,App_Warning,downlinkSignalQuality,uplinkSignalQuality,transmissionChannel,rcModeSwitch,rcHome,rcPause,rcTransform,rcJoystickMode,appMode,FlyControllerSerialNumber_legacy,RemoteSerialNumber_legacy,BatterySerialNumber_legacy,Battery2SerialNumber,frontAvoidDist,backAvoidDist,rightAvoidDist,leftAvoidDist,upAvoidDist,downAvoidDist,isBrakingToAvoid
-22.959742,-67.786918,0.50,0.00,0.82,0.20,0.50,0.50,0.82,0.20,4,2025-12-01 15:15:17.994,2025-12-01 12:15:17.994,16,0,0,51.735,-22.959743,-67.786920,0.00,0.20,-0.80,1.80,0.70,92.50,0,1,0,97,90,-1105,14409,51735,2971.50,42,TakeOff,1,0,0,0,0,0,0,1764602117993,4308,4314,4313,4313,4313,4310,18,Litchi_iOS_2.15.7,EIK Matrice 1,0670131556,03LLCA05XT,,,0,14706,0,-18.00,7.00,925.00,0.00,0.00,7.00,11,5.00,8.25,2.05,0.00,2.00,-8.00,0,,,100,100,20,2,0,0,1,1,0,(null),(null),(null),(null),0.0,0.0,0.0,0.0,0.0,0.0,0
-22.959742,-67.786918,0.50,0.00,0.73,0.23,0.50,0.50,0.82,0.23,110,2025-12-01 15:15:18.100,2025-12-01 12:15:18.100,16,0,0,51.735,-22.959743,-67.786920,0.00,0.20,-0.70,2.10,0.60,92.50,0,1,0,97,90,-1105,14409,51735,2971.50,42,TakeOff,1,0,0,0,0,0,0,1764602118099,4308,4314,4313,4313,4313,4310,18,,,,,,,0,0,0,-21.00,6.00,925.00,1.00,0.00,7.00,11,5.00,7.28,2.31,0.00,2.00,-7.00,0,,,100,100,20,2,0,0,1,1,0,,,,,0.0,0.0,0.0,0.0,0.0,0.0,0
-22.959743,-67.786918,0.60,0.00,0.71,0.25,0.60,0.60,0.82,0.25,194,2025-12-01 15:15:18.184,2025-12-01 12:15:18.184,16,0,0,51.735,-22.959743,-67.786920,0.00,0.10,-0.70,2.10,0.50,92.50,0,1,0,97,90,-1105,14409,51735,2971.50,42,TakeOff,1,0,0,0,0,0,0,1764602118183,4308,4314,4313,4313,4313,4310,18,,,,,,,0,0,0,-21.00,5.00,925.00,2.00,0.00,7.00,11,6.00,7.07,2.48,0.00,1.00,-7.00,0,,,100,100,20,2,0,0,1,1,0,,,,,0.0,0.0,0.0,0.0,0.0,0.0,0
-22.959743,-67.786918,0.70,0.00,0.61,0.26,0.70,0.70,0.82,0.26,299,2025-12-01 15:15:18.289,2025-12-01 12:15:18.289,16,0,0,51.735,-22.959743,-67.786920,0.00,0.10,-0.60,2.10,0.40,92.40,0,1,0,97,90,-1105,14409,51735,2971.50,42,TakeOff,1,0,0,0,0,0,0,1764602118288,4308,4314,4313,4313,4313,4310,18,,,,,,,0,0,0,-21.00,4.00,924.00,0.00,0.00,7.00,11,7.00,6.08,2.64,0.00,1.00,-6.00,0,,,100,100,20,2,0,0,1,1,0,,,,,0.0,0.0,0.0,0.0,0.0,0.0,0
-22.959743,-67.786917,0.70,0.00,0.51,0.28,0.70,0.70,0.82,0.28,401,2025-12-01 15:15:18.390,2025-12-01 12:15:18.390,17,0,0,51.735,-22.959743,-67.786920,0.00,0.10,-0.50,1.90,0.30,92.40,0,1,0,97,90,-1105,14409,51735,2971.50,42,TakeOff,1,0,0,0,0,0,0,1764602118390,4308,4314,4313,4313,4313,4310,18,,,,,,,0,0,0,-19.00,3.00,924.00,0.00,0.00,7.00,11,7.00,5.10,2.75,0.00,1.00,-5.00,0,,,100,100,20,2,0,0,1,1,0,,,,,0.0,0.0,0.0,0.0,0.0,0.0,0
-22.959743,-67.786917,0.70,0.00,0.40,0.29,0.70,0.70,0.82,0.29,498,2025-12-01 15:15:18.487,2025-12-01 12:15:18.487,17,0,0,51.735,-22.959743,-67.786920,0.00,0.00,-0.40,1.70,0.20,92.40,0,1,0,97,90,-1105,14409,51735,2971.50,42,TakeOff,1,0,0,0,0,0,0,1764602118487,4308,4314,4313,4313,4313,4310,18,,,,,,,0,0,0,-17.00,2.00,924.00,0.00,0.00,8.00,11,7.00,4.00,2.85,0.00,0.00,-4.00,0,,,100,100,20,2,0,0,1,1,0,,,,,0.0,0.0,0.0,0.0,0.0,0.0,0
-22.959743,-67.786917,0.80,0.00,0.30,0.29,0.80,0.80,0.82,0.29,598,2025-12-01 15:15:18.588,2025-12-01 12:15:18.588,17,0,0,51.569,-22.959743,-67.786920,0.00,0.00,-0.30,1.60,0.20,92.40,0,1,0,97,90,-24227,14409,51569,2971.50,42,TakeOff,1,0,0,0,0,0,0,1764602118587,4308,4314,4313,4313,4313,4310,18,,,,,,,0,0,0,-16.00,2.00,924.00,0.00,0.00,7.00,11,8.00,3.00,2.91,0.00,0.00,-3.00,0,,,100,100,20,2,0,0,1,1,0,,,,,0.0,0.0,0.0,0.0,0.0,0.0,0
-22.959743,-67.786917,0.80,0.00,0.30,0.30,0.80,0.80,0.82,0.30,702,2025-12-01 15:15:18.691,2025-12-01 12:15:18.691,17,0,0,51.569,-22.959743,-67.786920,0.00,0.00,-0.30,1.80,0.30,92.40,0,1,0,97,90,-24227,14409,51569,2971.50,42,TakeOff,1,0,0,0,0,0,0,1764602118691,4308,4314,4313,4313,4313,4310,18,,,,,,,0,0,0,-18.00,3.00,924.00,0.00,0.00,8.00,11,8.00,3.00,2.98,0.00,0.00,-3.00,0,,,100,100,20,2,0,0,1,1,0,,,,,0.0,0.0,0.0,0.0,0.0,0.0,0
-22.959743,-67.786917,0.80,0.00,0.30,0.30,0.80,0.80,0.82,0.30,802,2025-12-01 15:15:18.792,2025-12-01 12:15:18.792,17,0,0,51.569,-22.959743,-67.786920,0.00,0.00,-0.30,2.00,0.40,92.30,0,1,0,97,90,-24227,14409,51569,2971.50,42,TakeOff,1,0,0,0,0,0,0,1764602118791,4308,4314,4313,4313,4313,4310,18,,,,,,,0,0,0,-20.00,4.00,923.00,0.00,0.00,8.00,11,8.00,3.00,2.97,0.00,0.00,-3.00,0,,,100,100,20,2,0,0,1,1,0,,,,,0.0,0.0,0.0,0.0,0.0,0.0,0
-22.959743,-67.786917,0.90,0.00,0.30,0.29,0.90,0.90,0.82,0.30,1003,2025-12-01 15:15:18.993,2025-12-01 12:15:18.993,17,0,0,51.569,-22.959743,-67.786920,0.00,0.00,-0.30,1.90,0.30,92.30,0,1,0,97,90,-24227,14409,51569,2971.50,42,TakeOff,1,0,0,0,0,0,0,1764602118992,4308,4314,4313,4313,4313,4310,18,,,,,,,0,0,0,-19.00,3.00,923.00,1.00,0.00,8.00,11,9.00,3.00,2.86,0.00,0.00,-3.00,0,,,100,100,20,2,0,0,1,1,0,,,,,0.0,0.0,0.0,0.0,0.0,0.0,0
-22.959743,-67.786917,0.90,0.00,0.40,0.28,0.90,0.90,0.82,0.30,1105,2025-12-01 15:15:19.094,2025-12-01 12:15:19.095,17,0,0,51.569,-22.959743,-67.786920,0.00,0.00,-0.40,1.50,0.20,92.30,0,1,0,97,90,-24227,14409,51569,2971.50,42,TakeOff,1,0,0,0,0,0,0,1764602119094,4308,4314,4313,4313,4313,4310,18,,,,,,,0,0,0,-15.00,2.00,923.00,0.00,0.00,9.00,11,9.00,4.00,2.77,0.00,0.00,-4.00,0,,,100,100,20,2,0,0,1,1,0,,,,,0.0,0.0,0.0,0.0,0.0,0.0,0
-22.959743,-67.786917,1.00,0.00,0.40,0.27,1.00,1.00,0.82,0.30,1203,2025-12-01 15:15:19.193,2025-12-01 12:15:19.193,17,0,0,51.569,-22.959743,-67.786920,0.00,0.00,-0.40,1.00,0.10,92.30,0,1,0,97,90,-24227,14409,51569,2971.50,42,TakeOff,1,0,0,0,0,0,0,1764602119192,4308,4314,4313,4313,4313,4310,18,,,,,,,0,0,0,-10.00,1.00,923.00,0.00,0.00,8.00,11,10.00,4.00,2.66,0.00,0.00,-4.00,0,,,100,100,20,2,0,0,1,1,0,,,,,0.0,0.0,0.0,0.0,0.0,0.0,0
-22.959743,-67.786918,1.00,0.00,0.40,0.26,1.00,1.00,0.82,0.30,1311,2025-12-01 15:15:19.301,2025-12-01 12:15:19.301,17,0,0,51.569,-22.959743,-67.786920,0.00,0.00,-0.40,0.60,0.00,92.40,0,1,0,97,90,-24227,14409,51569,2971.50,42,TakeOff,1,0,0,0,0,0,0,1764602119300,4308,4314,4313,4313,4313,4310,18,,,,,,,0,0,0,-6.00,0.00,924.00,0.00,0.00,8.00,11,10.00,4.00,2.57,0.00,0.00,-4.00,0,,,100,100,20,2,0,0,1,1,0,,,,,0.0,0.0,0.0,0.0,0.0,0.0,0
-22.959743,-67.786918,1.10,0.00,0.40,0.25,1.10,1.10,0.82,0.30,1416,2025-12-01 15:15:19.405,2025-12-01 12:15:19.405,17,0,0,51.569,-22.959743,-67.786920,0.00,0.00,-0.40,0.60,-0.10,92.40,0,1,0,97,90,-24227,14409,51569,2971.50,42,WP,1,0,0,0,0,0,0,1764602119405,4308,4314,4313,4313,4313,4310,18,,,,,,,0,0,0,-6.00,-1.00,924.00,0.00,0.00,8.00,14,11.00,4.00,2.48,0.00,0.00,-4.00,0,,,100,100,20,2,0,0,1,1,0,,,,,0.0,0.0,0.0,0.0,0.0,0.0,0
-22.959743,-67.786918,1.10,0.00,0.40,0.24,1.10,1.10,0.82,0.30,1507,2025-12-01 15:15:19.496,2025-12-01 12:15:19.496,17,0,0,51.569,-22.959743,-67.786920,0.00,0.00,-0.40,0.70,-0.20,92.50,0,1,0,97,90,-24227,14409,51569,2971.50,42,WP,1,0,0,0,0,0,0,1764602119496,4308,4314,4313,4313,4313,4310,18,,,,,,,0,0,0,-7.00,-2.00,925.00,0.00,0.00,7.00,14,11.00,4.00,2.39,0.00,0.00,-4.00,0,,,100,100,20,2,0,0,1,1,0,,,,,0.0,0.0,0.0,0.0,0.0,0.0,0
-22.959743,-67.786918,1.10,0.00,0.30,0.23,1.10,1.10,0.82,0.30,1612,2025-12-01 15:15:19.602,2025-12-01 12:15:19.602,17,0,0,51.569,-22.959743,-67.786920,0.00,0.00,-0.30,0.20,-0.10,92.60,0,1,0,97,90,-24227,14409,51569,2971.50,42,WP,1,0,0,0,0,0,0,1764602119601,4308,4314,4313,4313,4313,4310,18,,,,,,,0,0,0,-2.00,-1.00,926.00,0.00,0.00,7.00,14,11.00,3.00,2.34,0.00,0.00,-3.00,0,,,100,100,20,2,0,0,1,1,0,,,,,0.0,0.0,0.0,0.0,0.0,0.0,0
-22.959743,-67.786918,1.20,0.00,0.30,0.23,1.20,1.20,0.82,0.30,1811,2025-12-01 15:15:19.800,2025-12-01 12:15:19.800,17,0,0,51.569,-22.959743,-67.786920,0.00,0.00,-0.30,-0.10,0.00,92.70,0,1,0,97,90,-24227,14409,51569,2971.50,42,WP,1,0,0,0,0,0,0,1764602119800,4308,4314,4313,4313,4313,4310,18,,,,,,,0,0,0,1.00,0.00,927.00,0.00,0.00,6.00,14,12.00,3.00,2.27,0.00,0.00,-3.00,0,,,100,100,20,2,0,0,1,1,0,,,,,0.0,0.0,0.0,0.0,0.0,0.0,0
-22.959743,-67.786918,1.20,0.00,0.30,0.23,1.20,1.20,0.82,0.30,1918,2025-12-01 15:15:19.908,2025-12-01 12:15:19.908,17,0,0,51.569,-22.959743,-67.786920,0.00,0.00,-0.30,0.10,-0.10,92.70,0,1,0,97,90,-24227,14409,51569,2971.50,42,WP,1,0,0,0,0,0,0,1764602119907,4308,4314,4313,4313,4313,4310,18,,,,,,,0,0,0,-1.00,-1.00,927.00,0.00,0.00,5.00,14,12.00,3.00,2.25,0.00,0.00,-3.00,0,,,100,100,20,2,0,0,1,1,0,,,,,0.0,0.0,0.0,0.0,0.0,0.0,0
-22.959743,-67.786918,1.20,0.00,0.40,0.23,1.20,1.20,0.82,0.30,2011,2025-12-01 15:15:20.000,2025-12-01 12:15:20.001,17,0,0,51.569,-22.959743,-67.786920,0.00,0.00,-0.40,0.40,-0.20,92.70,0,1,0,97,90,-24227,14409,51569,2971.50,42,WP,1,0,0,0,0,0,0,1764602120000,4308,4314,4313,4313,4313,4310,18,,,,,,,0,0,0,-4.00,-2.00,927.00,1.00,0.00,5.00,14,12.00,4.00,2.30,0.00,0.00,-4.00,0,,,100,100,20,2,0,0,1,1,0,,,,,0.0,0.0,0.0,0.0,0.0,0.0,0
-22.959743,-67.786918,1.30,0.00,0.60,0.23,1.30,1.30,0.82,0.30,2111,2025-12-01 15:15:20.101,2025-12-01 12:15:20.101,17,0,0,51.569,-22.959743,-67.786920,0.00,0.00,-0.60,0.70,-0.40,92.80,0,1,0,97,90,-24227,14409,51569,2971.50,42,WP,1,0,0,0,0,0,0,1764602120100,4308,4314,4313,4313,4313,4310,18,,,,,,,0,0,0,-7.00,-4.00,928.00,1.00,0.00,5.00,14,13.00,6.00,2.33,0.00,0.00,-6.00,0,,,100,100,20,2,0,0,1,1,0,,,,,0.0,0.0,0.0,0.0,0.0,0.0,0
-22.959743,-67.786918,1.40,0.00,0.80,0.24,1.40,1.40,0.82,0.30,2213,2025-12-01 15:15:20.202,2025-12-01 12:15:20.202,17,0,0,51.569,-22.959743,-67.786920,0.00,0.00,-0.80,0.80,-0.30,92.80,0,1,0,97,90,-24227,14409,51569,2971.50,42,WP,1,0,0,0,0,0,0,1764602120202,4308,4314,4313,4313,4313,4310,18,,,,,,,0,0,0,-8.00,-3.00,928.00,1.00,0.00,4.00,14,14.00,8.00,2.37,0.00,0.00,-8.00,0,,,100,100,20,2,0,0,1,1,0,,,,,0.0,0.0,0.0,0.0,0.0,0.0,0
-22.959743,-67.786918,1.50,0.00,1.10,0.24,1.50,1.50,1.10,0.30,2309,2025-12-01 15:15:20.299,2025-12-01 12:15:20.299,17,0,0,51.569,-22.959743,-67.786920,0.00,0.00,-1.10,0.90,0.10,92.70,0,1,0,97,90,-24227,14409,51569,2971.50,42,WP,1,0,0,0,0,0,0,1764602120298,4308,4314,4313,4313,4313,4310,18,,,,,,,0,0,0,-9.00,1.00,927.00,1.00,0.00,4.00,14,15.00,11.00,2.39,0.00,0.00,-11.00,0,,,100,100,20,2,0,0,1,1,0,,,,,0.0,0.0,0.0,0.0,0.0,0.0,0
-22.959743,-67.786918,1.60,0.00,1.30,0.24,1.60,1.60,1.30,0.30,2414,2025-12-01 15:15:20.403,2025-12-01 12:15:20.403,17,0,0,51.569,-22.959743,-67.786920,0.00,0.00,-1.30,0.60,0.70,92.70,0,1,0,97,90,-24227,14409,51569,2971.50,42,WP,1,0,0,0,0,0,0,1764602120403,4308,4314,4313,4313,4313,4310,18,,,,,,,0,0,0,-6.00,7.00,927.00,1.00,0.00,4.00,14,16.00,13.00,2.39,0.00,0.00,-13.00,0,,,100,100,20,2,0,0,1,1,0,,,,,0.0,0.0,0.0,0.0,0.0,0.0,0
-22.959742,-67.786918,1.70,0.00,1.60,0.24,1.70,1.70,1.60,0.30,2514,2025-12-01 15:15:20.504,2025-12-01 12:15:20.504,17,0,0,51.569,-22.959743,-67.786920,0.00,0.00,-1.60,0.00,1.00,92.70,0,1,0,97,90,-24227,14409,51569,2971.50,42,WP,1,0,0,0,0,0,0,1764602120503,4308,4314,4313,4313,4313,4310,18,,,,,,,0,0,0,-0.00,10.00,927.00,0.00,0.00,5.00,14,17.00,16.00,2.40,0.00,0.00,-16.00,0,,,100,100,20,2,0,0,1,1,0,,,,,0.0,0.0,0.0,0.0,0.0,0.0,0
-22.959742,-67.786918,1.90,0.00,1.90,0.23,1.90,1.90,1.90,0.30,2616,2025-12-01 15:15:20.605,2025-12-01 12:15:20.605,17,0,0,47.704,-22.959743,-67.786920,0.00,0.00,-1.90,-0.50,1.00,92.70,0,1,0,97,90,-49395,14409,47704,2971.50,42,WP,1,0,0,0,0,0,0,1764602120605,4308,4314,4313,4313,4313,4310,18,,,,,,,0,0,0,5.00,10.00,927.00,0.00,0.00,5.00,14,19.00,19.00,2.33,0.00,0.00,-19.00,0,,,100,100,20,2,0,0,1,1,0,,,,,0.0,0.0,0.0,0.0,0.0,0.0,0
-22.959742,-67.786918,2.10,0.00,2.10,0.23,2.10,2.10,2.10,0.30,2717,2025-12-01 15:15:20.706,2025-12-01 12:15:20.707,17,0,0,47.704,-22.959743,-67.786920,0.00,0.00,-2.10,-0.70,1.00,92.70,0,1,0,97,90,-49395,14409,47704,2971.50,42,WP,1,0,0,0,0,0,0,1764602120706,4308,4314,4313,4313,4313,4310,18,,,,,,,0,0,0,7.00,10.00,927.00,0.00,0.00,4.00,14,21.00,21.00,2.30,0.00,0.00,-21.00,0,,,100,100,20,2,0,0,1,1,0,,,,,0.0,0.0,0.0,0.0,0.0,0.0,0
-22.959742,-67.786918,2.40,0.00,2.40,0.23,2.40,2.40,2.40,0.30,2814,2025-12-01 15:15:20.804,2025-12-01 12:15:20.804,17,0,0,47.704,-22.959743,-67.786920,0.00,0.00,-2.40,-0.70,1.00,92.70,0,1,0,97,90,-49395,14409,47704,2971.50,42,WP,1,0,0,0,0,0,0,1764602120803,4308,4314,4313,4313,4313,4310,18,,,,,,,0,0,0,7.00,10.00,927.00,0.00,0.00,4.00,14,24.00,24.00,2.25,0.00,0.00,-24.00,0,,,100,100,20,2,0,0,1,1,0,,,,,0.0,0.0,0.0,0.0,0.0,0.0,0
-22.959742,-67.786918,2.60,0.00,2.60,0.23,2.60,2.60,2.60,0.30,2917,2025-12-01 15:15:20.907,2025-12-01 12:15:20.907,17,0,0,47.704,-22.959743,-67.786920,0.00,0.00,-2.60,-0.70,1.00,92.50,0,1,0,97,90,-49395,14409,47704,2971.50,42,WP,1,0,0,0,0,0,0,1764602120906,4308,4314,4313,4313,4313,4310,18,,,,,,,0,0,0,7.00,10.00,925.00,0.00,0.00,5.00,14,26.00,26.00,2.25,0.00,0.00,-26.00,0,,,100,100,20,2,0,0,1,1,0,,,,,0.0,0.0,0.0,0.0,0.0,0.0,0
-22.959743,-67.786918,2.90,0.00,2.90,0.22,2.90,2.90,2.90,0.30,3020,2025-12-01 15:15:21.010,2025-12-01 12:15:21.010,17,0,0,47.704,-22.959743,-67.786920,0.00,0.00,-2.90,-0.40,1.00,92.40,0,1,0,97,90,-49395,14409,47704,2971.50,42,WP,1,0,0,0,0,0,0,1764602121009,4308,4314,4313,4313,4313,4310,18,,,,,,,0,0,0,4.00,10.00,924.00,0.00,0.00,6.00,14,29.00,29.00,2.23,0.00,0.00,-29.00,0,,,100,100,20,2,0,0,1,1,0,,,,,0.0,0.0,0.0,0.0,0.0,0.0,0
-22.959743,-67.786918,3.20,0.00,3.10,0.23,3.20,3.20,3.10,0.30,3120,2025-12-01 15:15:21.109,2025-12-01 12:15:21.110,17,0,0,47.704,-22.959743,-67.786920,0.00,0.00,-3.10,0.00,0.90,92.20,0,1,0,97,90,-49395,14409,47704,2971.50,42,WP,1,0,0,0,0,0,0,1764602121109,4308,4314,4313,4313,4313,4310,18,,,,,,,0,0,0,-0.00,9.00,922.00,0.00,0.00,7.00,14,32.00,31.00,2.25,0.00,0.00,-31.00,0,,,100,100,20,2,0,0,1,1,0,,,,,0.0,0.0,0.0,0.0,0.0,0.0,0
-22.959743,-67.786918,3.50,0.00,3.30,0.22,3.50,3.50,3.30,0.30,3220,2025-12-01 15:15:21.210,2025-12-01 12:15:21.210,17,0,0,47.704,-22.959743,-67.786920,0.00,0.00,-3.30,0.30,0.50,92.10,0,1,0,97,90,-49395,14409,47704,2971.50,42,WP,1,0,0,0,0,0,0,1764602121209,4308,4314,4313,4313,4313,4310,18,,,,,,,0,0,0,-3.00,5.00,921.00,1.00,0.00,9.00,14,35.00,33.00,2.24,0.00,0.00,-33.00,0,,,100,100,20,2,0,0,1,1,0,,,,,0.0,0.0,0.0,0.0,0.0,0.0,0
-22.959743,-67.786918,3.80,0.00,3.40,0.23,3.80,3.80,3.40,0.30,3321,2025-12-01 15:15:21.311,2025-12-01 12:15:21.311,17,0,0,47.704,-22.959743,-67.786920,0.00,0.00,-3.40,0.30,-0.20,92.00,0,1,0,97,90,-49395,14409,47704,2971.50,42,WP,1,0,0,0,0,0,0,1764602121310,4308,4314,4313,4313,4313,4310,18,,,,,,,0,0,0,-3.00,-2.00,920.00,1.00,0.00,11.00,14,38.00,34.00,2.27,0.00,0.00,-34.00,0,,,100,100,20,2,0,0,1,1,0,,,,,0.0,0.0,0.0,0.0,0.0,0.0,0
-22.959743,-67.786918,4.10,0.00,3.50,0.23,4.10,4.10,3.50,0.30,3420,2025-12-01 15:15:21.409,2025-12-01 12:15:21.409,17,0,0,47.704,-22.959743,-67.786920,0.00,0.00,-3.50,0.20,-1.00,92.00,0,1,0,97,90,-49395,14409,47704,2971.50,42,WP,1,0,0,0,0,0,0,1764602121409,4308,4314,4313,4313,4313,4310,18,,,,,,,0,0,0,-2.00,-10.00,920.00,1.00,0.00,12.00,14,41.00,35.00,2.28,0.00,0.00,-35.00,0,,,100,100,20,2,0,0,1,1,0,,,,,0.0,0.0,0.0,0.0,0.0,0.0,0
-22.959743,-67.786918,4.50,0.00,3.50,0.23,4.50,4.50,3.50,0.30,3521,2025-12-01 15:15:21.510,2025-12-01 12:15:21.511,17,0,0,47.704,-22.959743,-67.786920,0.00,0.00,-3.50,-0.20,-1.50,92.00,0,1,0,97,90,-49395,14409,47704,2971.50,42,WP,1,0,0,0,0,0,0,1764602121510,4308,4314,4313,4313,4313,4310,18,,,,,,,0,0,0,2.00,-15.00,920.00,0.00,0.00,12.00,14,45.00,35.00,2.34,0.00,0.00,-35.00,0,,,100,100,20,2,0,0,1,1,0,,,,,0.0,0.0,0.0,0.0,0.0,0.0,0
-22.959743,-67.786918,4.80,0.00,3.50,0.24,4.80,4.80,3.50,0.30,3631,2025-12-01 15:15:21.620,2025-12-01 12:15:21.621,17,0,0,47.704,-22.959743,-67.786920,0.00,0.00,-3.50,-0.70,-1.70,92.10,0,1,0,97,90,-49395,14409,47704,2971.50,42,WP,1,0,0,0,0,0,0,1764602121620,4308,4314,4313,4313,4313,4310,18,,,,,,,0,0,0,7.00,-17.00,921.00,0.00,0.00,12.00,14,48.00,35.00,2.36,0.00,0.00,-35.00,0,,,100,100,20,2,0,0,1,1,0,,,,,0.0,0.0,0.0,0.0,0.0,0.0,0
-22.959743,-67.786918,5.50,0.00,3.40,0.25,5.50,5.50,3.50,0.30,3829,2025-12-01 15:15:21.818,2025-12-01 12:15:21.818,17,0,0,47.704,-22.959743,-67.786920,0.00,0.00,-3.40,-0.30,-0.80,92.40,0,1,0,97,90,-49395,14409,47704,2971.50,42,WP,1,0,0,0,0,0,0,1764602121818,4308,4314,4313,4313,4313,4310,18,,,,,,,0,0,0,3.00,-8.00,924.00,0.00,0.00,10.00,14,55.00,34.00,2.49,0.00,0.00,-34.00,0,,,100,100,20,2,0,0,1,1,0,,,,,0.0,0.0,0.0,0.0,0.0,0.0,0
-22.959743,-67.786918,5.80,0.00,3.30,0.26,5.80,5.80,3.50,0.30,3932,2025-12-01 15:15:21.922,2025-12-01 12:15:21.922,17,0,0,47.704,-22.959743,-67.786920,0.00,0.00,-3.30,0.20,-0.10,92.40,0,1,0,97,90,-49395,14409,47704,2971.50,42,WP,1,0,0,0,0,0,0,1764602121921,4308,4314,4313,4313,4313,4310,18,,,,,,,0,0,0,-2.00,-1.00,924.00,0.00,0.00,8.00,14,58.00,33.00,2.59,0.00,0.00,-33.00,0,,,100,100,20,2,0,0,1,1,0,,,,,0.0,0.0,0.0,0.0,0.0,0.0,0
-22.959743,-67.786917,6.10,0.00,3.20,0.26,6.10,6.10,3.50,0.30,4026,2025-12-01 15:15:22.016,2025-12-01 12:15:22.016,17,0,0,47.704,-22.959743,-67.786920,0.00,0.00,-3.20,0.80,0.40,92.50,0,1,0,97,90,-49395,14409,47704,2971.50,42,WP,1,0,0,0,0,0,0,1764602122015,4308,4314,4313,4313,4313,4310,18,,,,,,,0,0,0,-8.00,4.00,925.00,1.00,0.00,7.00,14,61.00,32.00,2.64,0.00,0.00,-32.00,0,,,100,100,20,2,0,0,1,1,0,,,,,0.0,0.0,0.0,0.0,0.0,0.0,0
-22.959743,-67.786917,6.40,0.00,3.20,0.27,6.40,6.40,3.50,0.30,4131,2025-12-01 15:15:22.121,2025-12-01 12:15:22.121,17,0,0,47.704,-22.959743,-67.786920,0.00,0.00,-3.20,1.40,0.90,92.50,0,1,0,97,90,-49395,14409,47704,2971.50,42,WP,1,0,0,0,0,0,0,1764602122120,4308,4314,4313,4313,4313,4310,18,,,,,,,0,0,0,-14.00,9.00,925.00,1.00,0.00,7.00,14,64.00,32.00,2.73,0.00,0.00,-32.00,0,,,100,100,20,2,0,0,1,1,0,,,,,0.0,0.0,0.0,0.0,0.0,0.0,0
-22.959743,-67.786917,6.70,0.00,3.20,0.28,6.70,6.70,3.50,0.30,4231,2025-12-01 15:15:22.221,2025-12-01 12:15:22.221,17,0,0,47.704,-22.959743,-67.786920,0.00,0.00,-3.20,1.70,1.20,92.60,0,1,0,97,90,-49395,14409,47704,2971.50,42,WP,1,0,0,0,0,0,0,1764602122220,4308,4314,4313,4313,4313,4310,18,,,,,,,0,0,0,-17.00,12.00,926.00,0.00,0.00,6.00,14,67.00,32.00,2.79,0.00,0.00,-32.00,0,,,100,100,20,2,0,0,1,1,0,,,,,0.0,0.0,0.0,0.0,0.0,0.0,0
-22.959743,-67.786917,7.00,0.00,3.10,0.29,7.00,7.00,3.50,0.30,4328,2025-12-01 15:15:22.317,2025-12-01 12:15:22.317,17,0,0,47.704,-22.959743,-67.786920,0.00,0.00,-3.10,1.70,1.30,92.60,0,1,0,97,90,-49395,14409,47704,2971.50,42,WP,1,0,0,0,0,0,0,1764602122317,4308,4314,4313,4313,4313,4310,18,,,,,,,0,0,0,-17.00,13.00,926.00,1.00,0.00,6.00,14,70.00,31.00,2.87,0.00,0.00,-31.00,0,,,100,100,20,2,0,0,1,1,0,,,,,0.0,0.0,0.0,0.0,0.0,0.0,0
-22.959743,-67.786917,7.40,0.00,3.10,0.29,7.40,7.40,3.50,0.30,4431,2025-12-01 15:15:22.421,2025-12-01 12:15:22.421,17,0,0,47.704,-22.959743,-67.786920,0.00,0.00,-3.10,1.40,1.40,92.50,0,1,0,97,90,-49395,14409,47704,2971.50,42,WP,1,0,0,0,0,0,0,1764602122420,4308,4314,4313,4313,4313,4310,18,,,,,,,0,0,0,-14.00,14.00,925.00,0.00,0.00,6.00,14,74.00,31.00,2.88,0.00,0.00,-31.00,0,,,100,100,20,2,0,0,1,1,0,,,,,0.0,0.0,0.0,0.0,0.0,0.0,0
-22.959743,-67.786917,7.70,0.00,3.10,0.29,7.70,7.70,3.50,0.30,4531,2025-12-01 15:15:22.521,2025-12-01 12:15:22.521,17,0,0,47.704,-22.959743,-67.786920,0.00,0.00,-3.10,1.00,1.30,92.50,0,1,0,97,90,-49395,14409,47704,2971.50,42,WP,1,0,0,0,0,0,0,1764602122520,4308,4314,4313,4313,4313,4310,18,,,,,,,0,0,0,-10.00,13.00,925.00,0.00,0.00,7.00,14,77.00,31.00,2.89,0.00,0.00,-31.00,0,,,100,100,20,2,0,0,1,1,0,,,,,0.0,0.0,0.0,0.0,0.0,0.0,0
-22.959743,-67.786917,8.00,0.00,3.10,0.28,8.00,8.00,3.50,0.30,4628,2025-12-01 15:15:22.618,2025-12-01 12:15:22.618,17,0,0,46.590,-22.959743,-67.786920,0.00,0.00,-3.10,0.50,1.20,92.50,0,1,0,97,90,-81918,14409,46590,2971.50,42,WP,1,0,0,0,0,0,0,1764602122617,4308,4314,4313,4313,4313,4310,18,,,,,,,0,0,0,-5.00,12.00,925.00,0.00,0.00,7.00,14,80.00,31.00,2.85,0.00,0.00,-31.00,0,,,100,99,20,2,0,0,1,1,0,,,,,0.0,0.0,0.0,0.0,0.0,0.0,0
-22.959743,-67.786917,8.30,0.00,3.10,0.28,8.30,8.30,3.50,0.30,4728,2025-12-01 15:15:22.717,2025-12-01 12:15:22.717,17,0,0,46.590,-22.959743,-67.786920,0.00,0.00,-3.10,0.30,0.90,92.50,0,1,0,97,90,-81918,14409,46590,2971.50,42,WP,1,0,0,0,0,0,0,1764602122717,4308,4314,4313,4313,4313,4310,18,,,,,,,0,0,0,-3.00,9.00,925.00,0.00,0.00,7.00,14,83.00,31.00,2.84,0.00,0.00,-31.00,0,,,100,99,20,2,0,0,1,1,0,,,,,0.0,0.0,0.0,0.0,0.0,0.0,0
-22.959743,-67.786917,8.60,0.00,3.10,0.28,8.60,8.60,3.50,0.30,4828,2025-12-01 15:15:22.817,2025-12-01 12:15:22.817,17,0,0,46.590,-22.959743,-67.786920,0.00,0.00,-3.10,0.20,0.60,92.40,0,1,0,97,90,-81918,14409,46590,2971.50,42,WP,1,0,0,0,0,0,0,1764602122817,4308,4314,4313,4313,4313,4310,18,,,,,,,0,0,0,-2.00,6.00,924.00,0.00,0.00,7.00,14,86.00,31.00,2.77,0.00,0.00,-31.00,0,,,100,99,20,2,0,0,1,1,0,,,,,0.0,0.0,0.0,0.0,0.0,0.0,0
-22.959743,-67.786917,8.90,0.00,3.10,0.28,8.90,8.90,3.50,0.30,4933,2025-12-01 15:15:22.922,2025-12-01 12:15:22.923,17,0,0,46.590,-22.959743,-67.786920,0.00,0.00,-3.10,0.10,0.20,92.40,0,1,0,97,90,-81918,14409,46590,2971.50,42,WP,1,0,0,0,0,0,0,1764602122922,4308,4314,4313,4313,4313,4310,18,,,,,,,0,0,0,-1.00,2.00,924.00,0.00,0.00,7.00,14,89.00,31.00,2.75,0.00,0.00,-31.00,0,,,100,99,20,2,0,0,1,1,0,,,,,0.0,0.0,0.0,0.0,0.0,0.0,0
-22.959743,-67.786917,9.20,0.00,3.10,0.27,9.20,9.20,3.50,0.30,5035,2025-12-01 15:15:23.024,2025-12-01 12:15:23.024,17,0,0,46.590,-22.959743,-67.786920,0.00,0.00,-3.10,0.10,-0.20,92.30,0,1,0,97,90,-81918,14409,46590,2971.50,42,WP,1,0,0,0,0,0,0,1764602123024,4308,4314,4313,4313,4313,4310,18,,,,,,,0,0,0,-1.00,-2.00,923.00,0.00,0.00,8.00,14,92.00,31.00,2.74,0.00,0.00,-31.00,0,,,100,99,20,2,0,0,1,1,0,,,,,0.0,0.0,0.0,0.0,0.0,0.0,0
-22.959743,-67.786917,9.50,0.00,3.10,0.28,9.50,9.50,3.50,0.30,5134,2025-12-01 15:15:23.123,2025-12-01 12:15:23.124,17,0,0,46.590,-22.959743,-67.786920,0.00,0.00,-3.10,0.20,-1.00,92.30,0,1,0,97,90,-81918,14409,46590,2971.50,42,WP,1,0,0,0,0,0,0,1764602123123,4308,4314,4313,4313,4313,4310,18,,,,,,,0,0,0,-2.00,-10.00,923.00,0.00,0.00,8.00,14,95.00,31.00,2.77,0.00,0.00,-31.00,0,,,100,98,20,2,0,0,1,1,0,,,,,0.0,0.0,0.0,0.0,0.0,0.0,0
-22.959743,-67.786917,9.80,0.00,3.10,0.28,9.80,9.80,3.50,0.30,5235,2025-12-01 15:15:23.225,2025-12-01 12:15:23.225,17,0,0,46.590,-22.959743,-67.786920,0.00,0.00,-3.10,0.20,-1.70,92.40,0,1,0,97,90,-81918,14409,46590,2971.50,42,WP,1,0,0,0,0,0,0,1764602123224,4308,4314,4313,4313,4313,4310,18,,,,,,,0,0,0,-2.00,-17.00,924.00,0.00,0.00,9.00,14,98.00,31.00,2.75,0.00,0.00,-31.00,0,,,100,98,20,2,0,0,1,1,0,,,,,0.0,0.0,0.0,0.0,0.0,0.0,0
-22.959743,-67.786917,10.10,0.00,3.00,0.28,10.10,10.10,3.50,0.30,5334,2025-12-01 15:15:23.323,2025-12-01 12:15:23.323,17,0,0,46.590,-22.959743,-67.786920,0.00,0.00,-3.00,0.30,-1.90,92.50,0,1,0,97,90,-81918,14409,46590,2971.50,42,WP,1,0,0,0,0,0,0,1764602123323,4308,4314,4313,4313,4313,4310,18,,,,,,,0,0,0,-3.00,-19.00,925.00,0.00,0.00,8.00,14,101.00,30.00,2.76,0.00,0.00,-30.00,0,,,100,98,20,2,0,0,1,1,0,,,,,0.0,0.0,0.0,0.0,0.0,0.0,0
-22.959743,-67.786917,10.40,0.00,3.00,0.28,10.40,10.40,3.50,0.30,5437,2025-12-01 15:15:23.426,2025-12-01 12:15:23.426,17,0,0,46.590,-22.959743,-67.786920,0.00,0.00,-3.00,0.60,-1.50,92.50,0,1,0,97,90,-81918,14409,46590,2971.50,42,WP,1,0,0,0,0,0,0,1764602123426,4308,4314,4313,4313,4313,4310,18,,,,,,,0,0,0,-6.00,-15.00,925.00,0.00,0.00,7.00,14,104.00,30.00,2.78,0.00,0.00,-30.00,0,,,100,98,20,2,0,0,1,1,0,,,,,0.0,0.0,0.0,0.0,0.0,0.0,0
-22.959743,-67.786917,10.80,0.00,3.10,0.28,10.80,10.80,3.50,0.30,5547,2025-12-01 15:15:23.536,2025-12-01 12:15:23.536,17,0,0,46.590,-22.959743,-67.786920,0.10,0.00,-3.10,0.80,-0.80,92.40,0,1,0,97,90,-81918,14409,46590,2971.50,42,WP,1,0,0,0,0,0,0,1764602123536,3707,3740,3750,3869,3711,3739,18,,,,,,,0,0,0,-8.00,-8.00,924.00,0.00,0.00,7.00,14,108.00,31.02,2.83,1.00,0.00,-31.00,0,,,100,98,20,2,0,0,1,1,0,,,,,0.0,0.0,0.0,0.0,0.0,0.0,0
-22.959743,-67.786917,11.10,0.00,3.10,0.28,11.10,11.10,3.50,0.30,5635,2025-12-01 15:15:23.624,2025-12-01 12:15:23.624,17,0,0,46.590,-22.959743,-67.786920,0.10,0.00,-3.10,1.10,0.00,92.40,0,1,0,97,90,-81918,14409,46590,2971.50,42,WP,1,0,0,0,0,0,0,1764602123624,3707,3740,3750,3869,3711,3739,18,,,,,,,0,0,0,-11.00,0.00,924.00,0.00,0.00,7.00,14,111.00,31.02,2.85,1.00,0.00,-31.00,0,,,100,98,20,2,0,0,1,1,0,,,,,0.0,0.0,0.0,0.0,0.0,0.0,0
-22.959743,-67.786917,11.70,0.00,3.10,0.30,11.70,11.70,3.50,0.30,5843,2025-12-01 15:15:23.833,2025-12-01 12:15:23.833,17,0,0,46.590,-22.959743,-67.786920,0.10,0.00,-3.10,1.20,1.80,92.40,0,1,0,97,90,-81918,14409,46590,2971.50,42,WP,1,0,0,0,0,0,0,1764602123832,3707,3740,3750,3869,3711,3739,18,,,,,,,0,0,0,-12.00,18.00,924.00,0.00,0.00,8.00,14,117.00,31.02,2.96,1.00,0.00,-31.00,0,,,100,98,20,2,0,0,1,1,0,,,,,0.0,0.0,0.0,0.0,0.0,0.0,0
-22.959742,-67.786917,12.00,0.00,3.10,0.30,12.00,12.00,3.50,0.30,5947,2025-12-01 15:15:23.936,2025-12-01 12:15:23.936,17,0,0,46.590,-22.959743,-67.786920,0.10,0.00,-3.10,1.10,2.30,92.40,0,1,0,97,90,-81918,14409,46590,2971.50,42,WP,1,0,0,0,0,0,0,1764602123936,3707,3740,3750,3869,3711,3739,18,,,,,,,0,0,0,-11.00,23.00,924.00,0.00,0.00,8.00,14,120.00,31.02,3.03,1.00,0.00,-31.00,0,,,100,98,20,2,0,0,1,1,0,,,,,0.0,0.0,0.0,0.0,0.0,0.0,0
-22.959742,-67.786917,12.30,0.00,3.10,0.31,12.30,12.30,3.50,0.31,6048,2025-12-01 15:15:24.037,2025-12-01 12:15:24.037,17,0,0,46.590,-22.959743,-67.786920,0.10,0.00,-3.10,0.90,2.50,92.50,0,1,0,97,90,-81918,14409,46590,2971.50,42,WP,1,0,0,0,0,0,0,1764602124037,3707,3740,3750,3869,3711,3739,18,,,,,,,0,0,0,-9.00,25.00,925.00,0.00,0.00,7.00,14,123.00,31.02,3.07,1.00,0.00,-31.00,0,,,100,98,20,2,0,0,1,1,0,,,,,0.0,0.0,0.0,0.0,0.0,0.0,0
-22.959742,-67.786917,12.60,0.00,3.00,0.31,12.60,12.60,3.50,0.31,6142,2025-12-01 15:15:24.132,2025-12-01 12:15:24.132,17,0,0,46.590,-22.959743,-67.786920,0.00,0.00,-3.00,0.60,2.30,92.50,0,1,0,97,90,-81918,14409,46590,2971.50,42,WP,1,0,0,0,0,0,0,1764602124131,3707,3740,3750,3869,3711,3739,18,,,,,,,0,0,0,-6.00,23.00,925.00,0.00,0.00,7.00,14,126.00,30.00,3.10,0.00,0.00,-30.00,0,,,100,98,20,2,0,0,1,1,0,,,,,0.0,0.0,0.0,0.0,0.0,0.0,0
-22.959742,-67.786917,12.90,0.00,3.00,0.31,12.90,12.90,3.50,0.31,6240,2025-12-01 15:15:24.229,2025-12-01 12:15:24.229,17,0,0,46.590,-22.959743,-67.786920,0.00,0.00,-3.00,0.40,1.90,92.50,0,1,0,97,90,-81918,14409,46590,2971.50,42,WP,1,0,0,0,0,0,0,1764602124229,3707,3740,3750,3869,3711,3739,18,,,,,,,0,0,0,-4.00,19.00,925.00,0.00,0.00,7.00,14,129.00,30.00,3.08,0.00,0.00,-30.00,0,,,100,99,20,2,0,0,1,1,0,,,,,0.0,0.0,0.0,0.0,0.0,0.0,0
-22.959742,-67.786917,13.60,0.00,3.00,0.30,13.60,13.60,3.50,0.31,6443,2025-12-01 15:15:24.433,2025-12-01 12:15:24.433,17,0,0,46.590,-22.959743,-67.786920,0.00,0.00,-3.00,0.30,1.20,92.50,0,1,0,97,90,-81918,14409,46590,2971.50,42,WP,1,0,0,0,0,0,0,1764602124432,3707,3740,3750,3869,3711,3739,18,,,,,,,0,0,0,-3.00,12.00,925.00,0.00,0.00,7.00,14,136.00,30.00,3.04,0.00,0.00,-30.00,0,,,100,99,20,2,0,0,1,1,0,,,,,0.0,0.0,0.0,0.0,0.0,0.0,0
-22.959742,-67.786917,13.90,0.00,3.00,0.30,13.90,13.90,3.50,0.31,6548,2025-12-01 15:15:24.537,2025-12-01 12:15:24.538,17,0,0,46.590,-22.959743,-67.786920,0.00,0.00,-3.00,0.20,1.10,92.40,0,1,0,97,90,-81918,14409,46590,2971.50,42,WP,1,0,0,0,0,0,0,1764602124537,3707,3740,3750,3869,3711,3739,18,,,,,,,0,0,0,-2.00,11.00,924.00,0.00,0.00,7.00,14,139.00,30.00,3.03,0.00,0.00,-30.00,0,,,100,99,20,2,0,0,1,1,0,,,,,0.0,0.0,0.0,0.0,0.0,0.0,0
-22.959742,-67.786917,14.20,0.00,3.00,0.30,14.20,14.20,3.50,0.31,6555,2025-12-01 15:15:24.545,2025-12-01 12:15:24.545,17,0,0,46.590,-22.959743,-67.786920,0.00,0.00,-3.00,0.20,1.00,92.40,0,1,0,97,90,-81918,14409,46590,2971.50,42,WP,1,0,0,0,0,0,0,1764602124544,3707,3740,3750,3869,3711,3739,18,,,,,,,0,0,0,-2.00,10.00,924.00,0.00,0.00,7.00,14,142.00,30.00,2.96,0.00,0.00,-30.00,0,,,100,99,20,2,0,0,1,1,0,,,,,0.0,0.0,0.0,0.0,0.0,0.0,0
-22.959742,-67.786917,14.50,0.00,3.00,0.29,14.50,14.50,3.50,0.31,6745,2025-12-01 15:15:24.734,2025-12-01 12:15:24.734,17,0,0,45.531,-22.959743,-67.786920,0.00,0.00,-3.00,0.30,1.10,92.40,0,1,0,97,90,-58670,14311,45531,2971.50,42,WP,1,0,0,0,0,0,0,1764602124734,3707,3740,3750,3869,3711,3739,18,,,,,,,0,0,0,-3.00,11.00,924.00,0.00,0.00,8.00,14,145.00,30.00,2.91,0.00,0.00,-30.00,0,,,100,99,20,2,0,0,1,1,0,,,,,0.0,0.0,0.0,0.0,0.0,0.0,0
-22.959742,-67.786917,14.80,0.00,3.00,0.29,14.80,14.80,3.50,0.31,6848,2025-12-01 15:15:24.837,2025-12-01 12:15:24.837,17,0,0,45.531,-22.959743,-67.786920,0.00,0.00,-3.00,0.40,1.10,92.40,0,1,0,97,90,-58670,14311,45531,2971.50,42,WP,1,0,0,0,0,0,0,1764602124837,3707,3740,3750,3869,3711,3739,18,,,,,,,0,0,0,-4.00,11.00,924.00,0.00,0.00,8.00,14,148.00,30.00,2.85,0.00,0.00,-30.00,0,,,100,99,20,2,0,0,1,1,0,,,,,0.0,0.0,0.0,0.0,0.0,0.0,0
-22.959742,-67.786917,15.10,0.00,3.00,0.28,15.10,15.10,3.50,0.31,6855,2025-12-01 15:15:24.844,2025-12-01 12:15:24.844,17,0,0,45.531,-22.959743,-67.786920,0.00,0.00,-3.00,0.30,1.10,92.40,0,1,0,97,90,-58670,14311,45531,2971.50,42,WP,1,0,0,0,0,0,0,1764602124844,3707,3740,3750,3869,3711,3739,18,,,,,,,0,0,0,-3.00,11.00,924.00,0.00,0.00,7.00,14,151.00,30.00,2.83,0.00,0.00,-30.00,0,,,100,99,20,2,0,0,1,1,0,,,,,0.0,0.0,0.0,0.0,0.0,0.0,0
-22.959742,-67.786917,15.40,0.00,2.90,0.28,15.40,15.40,3.50,0.31,6948,2025-12-01 15:15:24.937,2025-12-01 12:15:24.937,17,0,0,45.531,-22.959743,-67.786920,0.00,0.00,-2.90,0.10,1.20,92.50,0,1,0,97,90,-58670,14311,45531,2971.50,42,WP,1,0,0,0,0,0,0,1764602124937,3707,3740,3750,3869,3711,3739,18,,,,,,,0,0,0,-1.00,12.00,925.00,0.00,0.00,7.00,14,154.00,29.00,2.82,0.00,0.00,-29.00,0,,,100,99,20,2,0,0,1,1,0,,,,,0.0,0.0,0.0,0.0,0.0,0.0,0
-22.959742,-67.786917,15.70,0.00,2.90,0.28,15.70,15.70,3.50,0.31,7147,2025-12-01 15:15:25.136,2025-12-01 12:15:25.137,17,0,0,45.531,-22.959743,-67.786920,0.00,0.00,-2.90,0.30,1.20,92.50,0,1,0,97,90,-58670,14311,45531,2971.50,42,WP,1,0,0,0,0,0,0,1764602125136,3707,3740,3750,3869,3711,3739,18,,,,,,,0,0,0,-3.00,12.00,925.00,0.00,0.00,7.00,14,157.00,29.00,2.84,0.00,0.00,-29.00,0,,,100,99,20,2,0,0,1,1,0,,,,,0.0,0.0,0.0,0.0,0.0,0.0,0
-22.959742,-67.786917,15.90,0.00,2.70,0.29,15.90,15.90,3.50,0.31,7249,2025-12-01 15:15:25.238,2025-12-01 12:15:25.238,17,0,0,45.531,-22.959743,-67.786920,0.00,0.00,-2.70,0.60,1.10,92.50,0,1,0,97,90,-58670,14311,45531,2971.50,42,WP,1,0,0,0,0,0,0,1764602125238,3707,3740,3750,3869,3711,3739,18,,,,,,,0,0,0,-6.00,11.00,925.00,0.00,0.00,7.00,14,159.00,27.00,2.87,0.00,0.00,-27.00,0,,,100,99,20,2,0,0,1,1,0,,,,,0.0,0.0,0.0,0.0,0.0,0.0,0
-22.959742,-67.786917,16.20,0.00,2.60,0.29,16.20,16.20,3.50,0.31,7265,2025-12-01 15:15:25.254,2025-12-01 12:15:25.254,17,0,0,45.531,-22.959743,-67.786920,0.00,0.00,-2.60,0.90,1.00,92.40,0,1,0,97,90,-58670,14311,45531,2971.50,42,WP,1,0,0,0,0,0,0,1764602125254,3707,3740,3750,3869,3711,3739,18,,,,,,,0,0,0,-9.00,10.00,924.00,0.00,0.00,7.00,14,162.00,26.00,2.91,0.00,0.00,-26.00,0,,,100,99,20,2,0,0,1,1,0,,,,,0.0,0.0,0.0,0.0,0.0,0.0,0
-22.959742,-67.786917,16.50,0.00,2.50,0.30,16.50,16.50,3.50,0.31,7349,2025-12-01 15:15:25.339,2025-12-01 12:15:25.339,17,0,0,45.531,-22.959743,-67.786920,0.00,0.00,-2.50,1.20,1.10,92.40,0,1,0,97,90,-58670,14311,45531,2971.50,42,WP,1,0,0,0,0,0,0,1764602125338,3707,3740,3750,3869,3711,3739,18,,,,,,,0,0,0,-12.00,11.00,924.00,0.00,0.00,7.00,14,165.00,25.00,2.99,0.00,0.00,-25.00,0,,,100,99,20,2,0,0,1,1,0,,,,,0.0,0.0,0.0,0.0,0.0,0.0,0
-22.959742,-67.786917,16.70,0.00,2.30,0.31,16.70,16.70,3.50,0.31,7551,2025-12-01 15:15:25.541,2025-12-01 12:15:25.541,17,0,0,45.531,-22.959743,-67.786920,0.00,0.00,-2.30,1.30,1.40,92.30,0,1,0,97,90,-58670,14311,45531,2971.50,42,WP,1,0,0,0,0,0,0,1764602125540,3707,3740,3750,3869,3711,3739,18,,,,,,,0,0,0,-13.00,14.00,923.00,0.00,0.00,8.00,14,167.00,23.00,3.06,0.00,0.00,-23.00,0,,,100,99,20,2,0,0,1,1,0,,,,,0.0,0.0,0.0,0.0,0.0,0.0,0
-22.959742,-67.786917,16.90,0.00,2.10,0.31,16.90,16.90,3.50,0.31,7654,2025-12-01 15:15:25.644,2025-12-01 12:15:25.644,17,0,0,45.531,-22.959743,-67.786920,0.00,0.00,-2.10,1.40,1.70,92.30,0,1,0,97,90,-58670,14311,45531,2971.50,42,WP,1,0,0,0,0,0,0,1764602125643,3707,3740,3750,3869,3711,3739,18,,,,,,,0,0,0,-14.00,17.00,923.00,0.00,0.00,8.00,14,169.00,21.00,3.11,0.00,0.00,-21.00,0,,,100,99,20,2,0,0,1,1,0,,,,,0.0,0.0,0.0,0.0,0.0,0.0,0
-22.959742,-67.786917,17.40,0.00,1.90,0.32,17.40,17.40,3.50,0.32,7764,2025-12-01 15:15:25.753,2025-12-01 12:15:25.753,17,0,0,45.531,-22.959743,-67.786920,0.00,0.00,-1.90,1.30,2.10,92.30,0,1,0,97,90,-58670,14311,45531,2971.50,42,WP,1,0,0,0,0,0,0,1764602125753,3707,3740,3750,3869,3711,3739,18,,,,,,,0,0,0,-13.00,21.00,923.00,0.00,0.00,9.00,14,174.00,19.00,3.17,0.00,0.00,-19.00,0,,,100,98,20,2,0,0,1,1,0,,,,,0.0,0.0,0.0,0.0,0.0,0.0,0
-22.959743,-67.786917,17.70,0.00,1.60,0.32,17.70,17.70,3.50,0.32,7960,2025-12-01 15:15:25.949,2025-12-01 12:15:25.949,17,0,0,45.531,-22.959743,-67.786920,-0.10,0.00,-1.60,1.00,1.80,92.40,0,1,0,97,90,-58670,14311,45531,2971.50,42,WP,1,0,0,0,0,0,0,1764602125949,3707,3740,3750,3869,3711,3739,18,,,,,,,0,0,0,-10.00,18.00,924.00,0.00,0.00,8.00,14,177.00,16.03,3.22,-1.00,0.00,-16.00,0,,,100,98,20,2,0,0,1,1,0,,,,,0.0,0.0,0.0,0.0,0.0,0.0,0
-22.959743,-67.786917,17.90,0.00,1.50,0.33,17.90,17.90,3.50,0.33,8064,2025-12-01 15:15:26.053,2025-12-01 12:15:26.053,17,0,0,45.531,-22.959743,-67.786920,-0.10,0.00,-1.50,1.20,1.30,92.50,0,1,0,97,90,-58670,14311,45531,2971.50,42,WP,1,0,0,0,0,0,0,1764602126053,3707,3740,3750,3869,3711,3739,18,,,,,,,0,0,0,-12.00,13.00,925.00,0.00,0.00,8.00,14,179.00,15.03,3.27,-1.00,0.00,-15.00,0,,,100,98,20,2,0,0,1,1,0,,,,,0.0,0.0,0.0,0.0,0.0,0.0,0
-22.959743,-67.786917,18.00,0.00,1.40,0.33,18.00,18.00,3.50,0.33,8161,2025-12-01 15:15:26.150,2025-12-01 12:15:26.151,17,0,0,45.531,-22.959743,-67.786920,-0.10,0.00,-1.40,1.30,0.70,92.50,0,1,0,97,90,-58670,14311,45531,2971.50,42,WP,1,0,0,0,0,0,0,1764602126150,3707,3740,3750,3869,3711,3739,18,,,,,,,0,0,0,-13.00,7.00,925.00,0.00,0.00,7.00,14,180.00,14.04,3.28,-1.00,0.00,-14.00,0,,,100,99,20,2,0,0,1,1,0,,,,,0.0,0.0,0.0,0.0,0.0,0.0,0
-22.959743,-67.786917,18.20,0.00,1.20,0.33,18.20,18.20,3.50,0.33,8265,2025-12-01 15:15:26.255,2025-12-01 12:15:26.255,17,0,0,45.531,-22.959743,-67.786920,-0.10,0.00,-1.20,1.50,0.30,92.60,0,1,0,97,90,-58670,14311,45531,2971.50,42,WP,1,0,0,0,0,0,0,1764602126254,3707,3740,3750,3869,3711,3739,18,,,,,,,0,0,0,-15.00,3.00,926.00,1.00,0.00,7.00,14,182.00,12.04,3.30,-1.00,0.00,-12.00,0,,,100,99,20,2,0,0,1,1,0,,,,,0.0,0.0,0.0,0.0,0.0,0.0,0
-22.959743,-67.786917,18.30,0.00,1.20,0.33,18.30,18.30,3.50,0.33,8363,2025-12-01 15:15:26.352,2025-12-01 12:15:26.353,17,0,0,45.531,-22.959743,-67.786920,-0.10,0.00,-1.20,1.60,0.30,92.60,0,1,0,97,90,-58670,14311,45531,2971.50,42,WP,1,0,0,0,0,0,0,1764602126352,3707,3740,3750,3869,3711,3739,18,,,,,,,0,0,0,-16.00,3.00,926.00,1.00,0.00,6.00,14,183.00,12.04,3.31,-1.00,0.00,-12.00,0,,,100,99,20,2,0,0,1,1,0,,,,,0.0,0.0,0.0,0.0,0.0,0.0,0
-22.959743,-67.786917,18.40,0.00,1.10,0.33,18.40,18.40,3.50,0.33,8461,2025-12-01 15:15:26.450,2025-12-01 12:15:26.450,17,0,0,45.531,-22.959743,-67.786920,0.00,0.00,-1.10,1.60,0.40,92.70,0,1,0,97,90,-58670,14311,45531,2971.50,42,WP,1,0,0,0,0,0,0,1764602126450,3707,3740,3750,3869,3711,3739,18,,,,,,,0,0,0,-16.00,4.00,927.00,0.00,0.00,6.00,14,184.00,11.00,3.33,0.00,0.00,-11.00,0,,,100,99,20,2,0,0,1,1,0,,,,,0.0,0.0,0.0,0.0,0.0,0.0,0
-22.959743,-67.786917,18.50,0.00,1.10,0.33,18.50,18.50,3.50,0.33,8563,2025-12-01 15:15:26.553,2025-12-01 12:15:26.553,17,0,0,45.400,-22.959743,-67.786920,0.00,0.00,-1.10,1.50,0.50,92.70,0,1,0,96,90,-57774,14262,45400,2971.50,42,WP,1,0,0,0,0,0,0,1764602126552,3707,3740,3750,3869,3711,3739,18,,,,,,,0,0,0,-15.00,5.00,927.00,0.00,0.00,5.00,14,185.00,11.00,3.30,0.00,0.00,-11.00,0,,,100,99,20,2,0,0,1,1,0,,,,,0.0,0.0,0.0,0.0,0.0,0.0,0
-22.959743,-67.786917,18.80,0.00,1.00,0.33,18.80,18.80,3.50,0.33,8760,2025-12-01 15:15:26.750,2025-12-01 12:15:26.750,17,0,0,45.400,-22.959743,-67.786920,0.00,0.00,-1.00,1.60,0.80,92.70,0,1,0,96,90,-57774,14262,45400,2971.50,42,WP,1,0,0,0,0,0,0,1764602126749,3707,3740,3750,3869,3711,3739,18,,,,,,,0,0,0,-16.00,8.00,927.00,0.00,0.00,5.00,14,188.00,10.00,3.26,0.00,0.00,-10.00,0,,,100,99,20,2,0,0,1,1,0,,,,,0.0,0.0,0.0,0.0,0.0,0.0,0
-22.959743,-67.786917,19.00,0.00,1.00,0.32,19.00,19.00,3.50,0.33,8962,2025-12-01 15:15:26.951,2025-12-01 12:15:26.951,17,0,0,45.400,-22.959743,-67.786920,-0.10,0.00,-1.00,1.60,0.80,92.60,0,1,0,96,90,-57774,14262,45400,2971.50,42,WP,1,0,0,0,0,0,0,1764602126951,3707,3740,3750,3869,3711,3739,18,,,,,,,0,0,0,-16.00,8.00,926.00,0.00,0.00,5.00,14,190.00,10.05,3.24,-1.00,0.00,-10.00,0,,,100,99,20,2,0,0,1,1,0,,,,,0.0,0.0,0.0,0.0,0.0,0.0,0
-22.959744,-67.786917,19.10,0.00,1.00,0.32,19.10,19.10,3.50,0.33,9066,2025-12-01 15:15:27.055,2025-12-01 12:15:27.055,17,0,0,45.400,-22.959743,-67.786920,-0.10,0.00,-1.00,1.50,0.50,92.60,0,1,0,96,90,-57774,14262,45400,2971.50,42,WP,1,0,0,0,0,0,0,1764602127055,3707,3740,3750,3869,3711,3739,18,,,,,,,0,0,0,-15.00,5.00,926.00,1.00,0.00,6.00,14,191.00,10.05,3.22,-1.00,0.00,-10.00,0,,,100,99,20,2,0,0,1,1,0,,,,,0.0,0.0,0.0,0.0,0.0,0.0,0
-22.959744,-67.786917,19.20,0.00,1.00,0.32,19.20,19.20,3.50,0.33,9163,2025-12-01 15:15:27.153,2025-12-01 12:15:27.153,17,0,0,45.400,-22.959743,-67.786920,-0.10,0.00,-1.00,1.30,0.10,92.60,0,1,0,96,90,-57774,14262,45400,2971.50,42,WP,1,0,0,0,0,0,0,1764602127152,3707,3740,3750,3869,3711,3739,18,,,,,,,0,0,0,-13.00,1.00,926.00,0.00,0.00,6.00,14,192.00,10.05,3.20,-1.00,0.00,-10.00,0,,,100,96,20,2,0,0,1,1,0,,,,,0.0,0.0,0.0,0.0,0.0,0.0,0
-22.959744,-67.786917,19.30,0.00,0.91,0.32,19.30,19.30,3.50,0.33,9266,2025-12-01 15:15:27.255,2025-12-01 12:15:27.255,17,0,0,45.400,-22.959743,-67.786920,-0.10,0.00,-0.90,1.00,0.00,94.30,0,1,0,96,90,-57774,14262,45400,2971.50,42,WP,1,0,0,0,0,0,0,1764602127255,3707,3740,3750,3869,3711,3739,18,,,,,,,0,0,0,-10.00,0.00,943.00,0.00,0.00,6.00,14,193.00,9.06,3.19,-1.00,0.00,-9.00,0,,,100,96,20,2,0,0,1,1,0,,,,,0.0,0.0,0.0,0.0,0.0,0.0,0
-22.959744,-67.786917,19.40,0.00,0.71,0.32,19.40,19.40,3.50,0.33,9366,2025-12-01 15:15:27.355,2025-12-01 12:15:27.355,17,0,0,45.400,-22.959743,-67.786920,-0.10,0.00,-0.70,0.60,0.00,99.80,0,1,0,96,90,-57774,14262,45400,2971.50,42,WP,1,0,0,0,0,0,0,1764602127355,3707,3740,3750,3869,3711,3739,18,,,,,,,0,0,0,-6.00,0.00,998.00,0.00,0.00,-10.00,14,194.00,7.07,3.19,-1.00,0.00,-7.00,0,,,100,96,20,2,0,0,1,1,0,,,,,0.0,0.0,0.0,0.0,0.0,0.0,0
-22.959744,-67.786917,19.50,0.00,0.41,0.32,19.50,19.50,3.50,0.33,9468,2025-12-01 15:15:27.458,2025-12-01 12:15:27.458,17,0,0,45.400,-22.959743,-67.786920,-0.10,0.00,-0.40,0.50,0.20,107.80,0,1,0,96,90,-57774,14262,45400,2971.50,42,WP,1,0,0,0,0,0,0,1764602127457,3707,3740,3750,3869,3711,3739,18,,,,,,,0,0,0,-5.00,2.00,1078.00,0.00,0.00,-77.00,14,195.00,4.12,3.20,-1.00,0.00,-4.00,0,,,100,96,20,2,0,0,1,1,0,,,,,0.0,0.0,0.0,0.0,0.0,0.0,0
-22.959744,-67.786917,19.50,0.00,0.20,0.32,19.50,19.50,3.50,0.33,9566,2025-12-01 15:15:27.555,2025-12-01 12:15:27.555,17,0,0,45.400,-22.959743,-67.786920,0.00,0.00,-0.20,0.60,0.60,117.40,0,1,0,96,90,-57774,14262,45400,2971.50,42,WP,1,0,0,0,0,0,0,1764602127555,3707,3740,3750,3869,3711,3739,18,,,,,,,0,0,0,-6.00,6.00,1174.00,0.00,0.00,-143.00,14,195.00,2.00,3.18,0.00,0.00,-2.00,0,,,100,96,20,2,0,0,1,1,0,,,,,0.0,0.0,0.0,0.0,0.0,0.0,0
-22.959744,-67.786917,19.50,0.00,0.10,0.31,19.50,19.50,3.50,0.33,9970,2025-12-01 15:15:27.960,2025-12-01 12:15:27.960,17,0,0,45.400,-22.959743,-67.786920,0.00,0.00,0.10,2.20,0.80,153.90,0,1,0,96,90,-57774,14262,45400,2971.50,42,WP,1,0,0,0,0,0,0,1764602127959,3707,3740,3750,3869,3711,3739,18,,,,,,,0,0,0,-22.00,8.00,1539.00,0.00,0.00,-431.00,14,195.00,1.00,3.05,0.00,0.00,1.00,0,,,100,96,20,2,0,0,1,1,0,,,,,0.0,0.0,0.0,0.0,0.0,0.0,0
-22.959744,-67.786917,19.50,0.00,0.00,0.30,19.50,19.50,3.50,0.33,10083,2025-12-01 15:15:28.072,2025-12-01 12:15:28.072,17,0,0,45.400,-22.959743,-67.786920,0.00,0.00,0.00,1.90,0.80,162.40,0,1,0,96,90,-57774,14262,45400,2971.50,42,WP,1,0,0,0,0,0,0,1764602128072,3707,3740,3750,3869,3711,3739,18,,,,,,,0,0,0,-19.00,8.00,1624.00,0.00,0.00,-469.00,14,195.00,0.00,2.97,0.00,0.00,0.00,0,,,100,96,20,2,0,0,1,1,0,,,,,0.0,0.0,0.0,0.0,0.0,0.0,0
-22.959744,-67.786917,19.50,0.00,0.10,0.28,19.50,19.50,3.50,0.33,10172,2025-12-01 15:15:28.162,2025-12-01 12:15:28.162,17,0,0,45.400,-22.959743,-67.786920,0.00,0.00,0.10,1.40,0.90,169.20,0,1,0,96,90,-57774,14262,45400,2971.50,42,WP,1,0,0,0,0,0,0,1764602128161,3707,3740,3750,3869,3711,3739,18,,,,,,,0,0,0,-14.00,9.00,1692.00,0.00,0.00,-490.00,14,195.00,1.00,2.81,0.00,0.00,1.00,0,,,100,96,20,2,0,0,1,1,0,,,,,0.0,0.0,0.0,0.0,0.0,0.0,0
-22.959744,-67.786918,19.50,0.00,0.14,0.27,19.50,19.50,3.50,0.33,10277,2025-12-01 15:15:28.267,2025-12-01 12:15:28.267,17,0,0,45.400,-22.959743,-67.786920,0.10,0.00,0.10,0.70,1.20,173.70,0,1,0,96,90,-57774,14262,45400,2971.50,42,WP,1,0,0,0,0,0,0,1764602128266,3707,3740,3750,3869,3711,3739,18,,,,,,,0,0,0,-7.00,12.00,1737.00,0.00,0.00,-484.00,14,195.00,1.41,2.66,1.00,0.00,1.00,0,,,100,96,20,2,0,0,1,1,0,,,,,0.0,0.0,0.0,0.0,0.0,0.0,0
-22.959744,-67.786918,19.50,0.00,0.14,0.25,19.50,19.50,3.50,0.33,10382,2025-12-01 15:15:28.371,2025-12-01 12:15:28.371,17,0,0,45.400,-22.959743,-67.786920,0.10,0.00,0.10,0.00,1.30,176.80,0,1,0,96,90,-57774,14262,45400,2971.50,42,WP,1,0,0,0,0,0,0,1764602128371,3707,3740,3750,3869,3711,3739,18,,,,,,,0,0,0,-0.00,13.00,1768.00,0.00,0.00,-458.00,14,195.00,1.41,2.51,1.00,0.00,1.00,0,,,100,96,20,2,0,0,1,1,0,,,,,0.0,0.0,0.0,0.0,0.0,0.0,0
-22.959743,-67.786918,19.50,0.00,0.10,0.24,19.50,19.50,3.50,0.33,10477,2025-12-01 15:15:28.467,2025-12-01 12:15:28.467,17,0,0,45.400,-22.959743,-67.786920,0.10,0.00,0.00,-0.80,1.30,178.40,0,1,0,96,90,-57774,14262,45400,2971.50,42,WP,1,0,0,0,0,0,0,1764602128466,3707,3740,3750,3869,3711,3739,18,,,,,,,0,0,0,8.00,13.00,1784.00,0.00,0.00,-420.00,14,195.00,1.00,2.41,1.00,0.00,0.00,0,,,100,96,20,2,0,0,1,1,0,,,,,0.0,0.0,0.0,0.0,0.0,0.0,0
-22.959743,-67.786918,19.50,0.00,0.10,0.23,19.50,19.50,3.50,0.33,10581,2025-12-01 15:15:28.570,2025-12-01 12:15:28.571,17,0,0,46.129,-22.959743,-67.786920,0.10,0.00,0.00,-1.60,1.10,178.90,0,1,0,96,90,-51624,14262,46129,2971.50,42,WP,1,0,0,0,0,0,0,1764602128570,3707,3740,3750,3869,3711,3739,18,,,,,,,0,0,0,16.00,11.00,1789.00,0.00,0.00,-374.00,14,195.00,1.00,2.32,1.00,0.00,0.00,0,,,100,96,20,2,0,0,1,1,0,,,,,0.0,0.0,0.0,0.0,0.0,0.0,0
-22.959743,-67.786918,19.50,0.00,0.00,0.23,19.50,19.50,3.50,0.33,10776,2025-12-01 15:15:28.766,2025-12-01 12:15:28.766,17,0,0,46.129,-22.959743,-67.786920,0.00,0.00,0.00,-3.10,0.90,179.10,0,1,0,96,90,-51624,14262,46129,2971.50,42,WP,1,0,0,0,0,0,0,1764602128765,3707,3740,3750,3869,3711,3739,18,,,,,,,0,0,0,31.00,9.00,1791.00,0.00,0.00,-328.00,14,195.00,0.00,2.26,0.00,0.00,0.00,0,,,100,99,20,2,0,0,1,1,0,,,,,0.0,0.0,0.0,0.0,0.0,0.0,0
-22.959743,-67.786918,19.50,0.00,0.00,0.22,19.50,19.50,3.50,0.33,10780,2025-12-01 15:15:28.770,2025-12-01 12:15:28.770,17,0,0,46.129,-22.959743,-67.786920,0.00,0.00,0.00,-5.30,0.70,179.20,0,1,0,96,90,-51624,14262,46129,2971.50,42,WP,1,0,0,0,0,0,0,1764602128769,3707,3740,3750,3869,3711,3739,18,,,,,,,0,0,0,53.00,7.00,1792.00,0.00,0.00,-289.00,14,195.00,0.00,2.25,0.00,0.00,0.00,0,,,100,99,20,2,0,0,1,1,0,,,,,0.0,0.0,0.0,0.0,0.0,0.0,0
-22.959743,-67.786918,19.60,0.00,0.20,0.22,19.60,19.60,3.50,0.33,10978,2025-12-01 15:15:28.967,2025-12-01 12:15:28.967,17,0,0,46.129,-22.959743,-67.786920,-0.20,0.00,0.00,-10.00,0.20,179.20,0,1,0,96,90,-51624,14262,46129,2971.50,42,WP,1,0,0,0,0,0,0,1764602128967,3707,3740,3750,3869,3711,3739,18,,,,,,,0,0,0,100.00,2.00,1792.00,0.00,0.00,-237.00,14,196.00,2.00,2.18,-2.00,0.00,0.00,0,,,100,99,20,2,0,0,1,1,0,,,,,0.0,0.0,0.0,0.0,0.0,0.0,0
-22.959743,-67.786918,19.60,0.00,0.30,0.22,19.60,19.60,3.50,0.33,11081,2025-12-01 15:15:29.071,2025-12-01 12:15:29.071,17,0,0,46.129,-22.959743,-67.786920,-0.30,0.00,0.00,-11.70,0.30,179.10,0,1,0,96,90,-51624,14262,46129,2971.50,42,WP,1,0,0,0,0,0,0,1764602129070,3707,3740,3750,3869,3711,3739,18,,,,,,,0,0,0,117.00,3.00,1791.00,0.00,0.00,-220.00,14,196.00,3.00,2.17,-3.00,0.00,0.00,0,,,100,99,20,2,0,0,1,1,0,,,,,0.0,0.0,0.0,0.0,0.0,0.0,0
-22.959744,-67.786918,19.60,0.00,0.50,0.23,19.60,19.60,3.50,0.33,11181,2025-12-01 15:15:29.171,2025-12-01 12:15:29.171,17,0,0,46.129,-22.959743,-67.786920,-0.50,0.00,0.00,-12.90,0.40,179.10,0,1,0,96,90,-51624,14262,46129,2971.50,42,WP,1,0,0,0,0,0,0,1764602129170,3707,3740,3750,3869,3711,3739,18,,,,,,,0,0,0,129.00,4.00,1791.00,0.00,0.00,-206.00,14,196.00,5.00,2.33,-5.00,0.00,0.00,0,,,100,99,20,2,0,0,1,1,0,,,,,0.0,0.0,0.0,0.0,0.0,0.0,0
-22.959745,-67.786918,19.60,0.00,0.80,0.27,19.60,19.60,3.50,0.33,11277,2025-12-01 15:15:29.267,2025-12-01 12:15:29.267,17,0,0,46.129,-22.959743,-67.786920,-0.80,0.00,0.00,-13.70,0.50,179.10,0,1,0,96,90,-51624,14262,46129,2971.50,42,WP,1,0,0,0,0,0,0,1764602129266,3707,3740,3750,3869,3711,3739,18,,,,,,,0,0,0,137.00,5.00,1791.00,0.00,0.00,-206.00,14,196.00,8.00,2.72,-8.00,0.00,0.00,0,,,100,99,20,2,0,0,1,1,0,,,,,0.0,0.0,0.0,0.0,0.0,0.0,0
-22.959746,-67.786918,19.60,0.00,1.00,0.36,19.60,19.60,3.50,0.36,11380,2025-12-01 15:15:29.370,2025-12-01 12:15:29.370,17,0,0,46.129,-22.959743,-67.786920,-1.00,0.00,0.00,-14.10,0.80,179.10,0,1,0,96,90,-51624,14262,46129,2971.50,42,WP,1,0,0,0,0,0,0,1764602129369,3707,3740,3750,3869,3711,3739,18,,,,,,,0,0,0,141.00,8.00,1791.00,0.00,0.00,-183.00,14,196.00,10.00,3.63,-10.00,0.00,0.00,0,,,100,99,20,2,0,0,1,1,0,,,,,0.0,0.0,0.0,0.0,0.0,0.0,0
-22.959747,-67.786918,19.60,0.00,1.20,0.48,19.60,19.60,3.50,0.48,11482,2025-12-01 15:15:29.472,2025-12-01 12:15:29.472,17,0,0,46.129,-22.959743,-67.786920,-1.20,0.00,0.00,-14.50,1.10,179.10,0,1,0,96,90,-51624,14262,46129,2971.50,42,WP,1,0,0,0,0,0,0,1764602129471,3707,3740,3750,3869,3711,3739,18,,,,,,,0,0,0,145.00,11.00,1791.00,0.00,0.00,-175.00,14,196.00,12.00,4.79,-12.00,0.00,0.00,0,,,100,99,20,2,0,0,1,1,0,,,,,0.0,0.0,0.0,0.0,0.0,0.0,0
-22.959749,-67.786918,19.60,0.00,1.50,0.65,19.60,19.60,3.50,0.65,11585,2025-12-01 15:15:29.575,2025-12-01 12:15:29.575,17,0,0,46.129,-22.959743,-67.786920,-1.50,0.00,0.00,-14.90,1.40,179.10,0,1,0,96,90,-51624,14262,46129,2971.50,42,WP,1,0,0,0,0,0,0,1764602129574,3707,3740,3750,3869,3711,3739,18,,,,,,,0,0,0,149.00,14.00,1791.00,0.00,0.00,-167.00,14,196.00,15.00,6.50,-15.00,0.00,0.00,0,,,100,99,20,2,0,0,1,1,0,,,,,0.0,0.0,0.0,0.0,0.0,0.0,0
-22.959753,-67.786918,19.60,0.00,1.90,1.07,19.60,19.60,3.50,1.07,11784,2025-12-01 15:15:29.774,2025-12-01 12:15:29.774,17,0,0,46.129,-22.959743,-67.786920,-1.90,0.00,0.00,-15.50,1.70,179.00,0,1,0,96,90,-51624,14262,46129,2971.50,42,WP,1,0,0,0,0,0,0,1764602129773,3707,3740,3750,3869,3711,3739,18,,,,,,,0,0,0,155.00,17.00,1790.00,0.00,0.00,-153.00,14,196.00,19.00,10.72,-19.00,0.00,0.00,0,,,100,99,20,2,0,0,1,1,0,,,,,0.0,0.0,0.0,0.0,0.0,0.0,0
-22.959758,-67.786918,19.60,0.00,2.40,1.62,19.60,19.60,3.50,1.62,11985,2025-12-01 15:15:29.974,2025-12-01 12:15:29.974,17,0,0,46.129,-22.959743,-67.786920,-2.40,0.00,0.00,-15.60,1.50,179.00,0,1,0,96,90,-51624,14262,46129,2971.50,42,WP,1,0,0,0,0,0,0,1764602129974,3707,3740,3750,3869,3711,3739,18,,,,,,,0,0,0,156.00,15.00,1790.00,0.00,0.00,-143.00,14,196.00,24.00,16.18,-24.00,0.00,0.00,0,,,100,99,20,2,0,0,1,1,0,,,,,0.0,0.0,0.0,0.0,0.0,0.0,0
-22.959760,-67.786918,19.60,0.00,2.70,1.92,19.60,19.60,3.50,1.92,12086,2025-12-01 15:15:30.076,2025-12-01 12:15:30.076,17,0,0,46.129,-22.959743,-67.786920,-2.70,0.00,0.00,-15.70,1.20,179.00,0,1,0,96,90,-51624,14262,46129,2971.50,42,WP,1,0,0,0,0,0,0,1764602130075,3707,3740,3750,3869,3711,3739,18,,,,,,,0,0,0,157.00,12.00,1790.00,0.00,0.00,-143.00,14,196.00,27.00,19.22,-27.00,0.00,0.00,0,,,100,99,20,2,0,0,1,1,0,,,,,0.0,0.0,0.0,0.0,0.0,0.0,0
-22.959764,-67.786918,19.60,0.00,2.90,2.27,19.60,19.60,3.50,2.27,12189,2025-12-01 15:15:30.178,2025-12-01 12:15:30.179,17,0,0,46.129,-22.959743,-67.786920,-2.90,0.00,0.00,-15.80,1.20,178.90,0,1,0,96,90,-51624,14262,46129,2971.50,42,WP,1,0,0,0,0,0,0,1764602130178,3707,3740,3750,3869,3711,3739,18,,,,,,,0,0,0,158.00,12.00,1789.00,0.00,0.00,-134.00,14,196.00,29.00,22.68,-29.00,0.00,0.00,0,,,100,99,20,2,0,0,1,1,0,,,,,0.0,0.0,0.0,0.0,0.0,0.0,0
-22.959767,-67.786918,19.60,0.00,3.20,2.62,19.60,19.60,3.50,2.62,12297,2025-12-01 15:15:30.287,2025-12-01 12:15:30.287,17,0,0,46.129,-22.959743,-67.786920,-3.20,0.00,0.00,-15.90,1.00,178.80,0,1,0,96,90,-51624,14262,46129,2971.50,42,WP,1,0,0,0,0,0,0,1764602130286,3707,3740,3750,3869,3711,3739,18,,,,,,,0,0,0,159.00,10.00,1788.00,0.00,0.00,-130.00,14,196.00,32.00,26.20,-32.00,0.00,0.00,0,,,100,99,20,2,0,0,1,1,0,,,,,0.0,0.0,0.0,0.0,0.0,0.0,0
-22.959770,-67.786918,19.60,0.00,3.40,3.01,19.60,19.60,3.50,3.01,12388,2025-12-01 15:15:30.378,2025-12-01 12:15:30.378,17,0,0,46.129,-22.959743,-67.786920,-3.40,0.00,0.00,-16.00,1.30,178.80,0,1,0,96,90,-51624,14262,46129,2971.50,42,WP,1,0,0,0,0,0,0,1764602130377,3707,3740,3750,3869,3711,3739,18,,,,,,,0,0,0,160.00,13.00,1788.00,0.00,0.00,-126.00,14,196.00,34.00,30.05,-34.00,0.00,0.00,0,,,100,99,20,2,0,0,1,1,0,,,,,0.0,0.0,0.0,0.0,0.0,0.0,0
-22.959774,-67.786918,19.60,0.00,3.70,3.40,19.60,19.60,3.70,3.40,12494,2025-12-01 15:15:30.484,2025-12-01 12:15:30.484,17,0,0,46.129,-22.959743,-67.786920,-3.70,0.00,0.00,-16.30,1.40,178.70,0,1,0,96,90,-51624,14262,46129,2971.50,42,WP,1,0,0,0,0,0,0,1764602130483,3707,3740,3750,3869,3711,3739,18,,,,,,,0,0,0,163.00,14.00,1787.00,0.00,0.00,-126.00,14,196.00,37.00,34.02,-37.00,0.00,0.00,0,,,100,99,20,2,0,0,1,1,0,,,,,0.0,0.0,0.0,0.0,0.0,0.0,0
-22.959778,-67.786918,19.60,0.00,3.90,3.84,19.60,19.60,3.90,3.84,12596,2025-12-01 15:15:30.586,2025-12-01 12:15:30.586,17,0,0,45.841,-22.959743,-67.786920,-3.90,0.00,0.00,-16.40,1.60,178.70,0,1,0,96,90,-55669,14262,45841,2971.50,42,WP,1,0,0,0,0,0,0,1764602130585,3707,3740,3750,3869,3711,3739,18,,,,,,,0,0,0,164.00,16.00,1787.00,0.00,0.00,-119.00,14,196.00,39.00,38.44,-39.00,0.00,0.00,0,,,100,99,20,2,0,0,1,1,0,,,,,0.0,0.0,0.0,0.0,0.0,0.0,0
-22.959782,-67.786918,19.60,0.00,4.20,4.30,19.60,19.60,4.20,4.30,12695,2025-12-01 15:15:30.685,2025-12-01 12:15:30.685,17,0,0,45.841,-22.959743,-67.786920,-4.20,0.00,0.00,-16.40,1.80,178.70,0,1,0,96,90,-55669,14262,45841,2971.50,42,WP,1,0,0,0,0,0,0,1764602130684,3707,3740,3750,3869,3711,3739,18,,,,,,,0,0,0,164.00,18.00,1787.00,0.00,0.00,-117.00,14,196.00,42.00,43.00,-42.00,0.00,0.00,0,,,100,98,20,2,0,0,1,1,0,,,,,0.0,0.0,0.0,0.0,0.0,0.0,0
-22.959787,-67.786918,19.60,0.00,4.50,4.83,19.60,19.60,4.50,4.83,12798,2025-12-01 15:15:30.787,2025-12-01 12:15:30.787,17,0,0,45.841,-22.959743,-67.786920,-4.50,0.00,0.00,-16.50,2.10,178.60,0,1,0,96,90,-55669,14262,45841,2971.50,42,WP,1,0,0,0,0,0,0,1764602130787,3707,3740,3750,3869,3711,3739,18,,,,,,,0,0,0,165.00,21.00,1786.00,0.00,0.00,-114.00,14,196.00,45.00,48.33,-45.00,0.00,0.00,0,,,100,98,20,2,0,0,1,1,0,,,,,0.0,0.0,0.0,0.0,0.0,0.0,0
-22.959797,-67.786918,19.60,0.00,5.00,5.95,19.60,19.60,5.00,5.95,12994,2025-12-01 15:15:30.983,2025-12-01 12:15:30.983,17,0,0,45.841,-22.959743,-67.786920,-5.00,0.00,0.00,-16.40,2.20,178.70,0,1,0,96,90,-55669,14262,45841,2971.50,42,WP,1,0,0,0,0,0,0,1764602130983,3707,3740,3750,3869,3711,3739,18,,,,,,,0,0,0,164.00,22.00,1787.00,1.00,0.00,-110.00,14,196.00,50.00,59.50,-50.00,0.00,0.00,0,,,100,98,20,2,0,0,1,1,0,,,,,0.0,0.0,0.0,0.0,0.0,0.0,0
-22.959802,-67.786918,19.50,0.00,5.30,6.53,19.60,19.60,5.30,6.53,13098,2025-12-01 15:15:31.087,2025-12-01 12:15:31.087,17,0,0,45.841,-22.959743,-67.786920,-5.30,0.00,0.00,-15.90,2.30,178.90,0,1,0,96,90,-55669,14262,45841,2971.50,42,WP,1,0,0,0,0,0,0,1764602131087,3707,3740,3750,3869,3711,3739,18,,,,,,,0,0,0,159.00,23.00,1789.00,1.00,0.00,-109.00,14,195.00,53.00,65.31,-53.00,0.00,0.00,0,,,100,98,20,2,0,0,1,1,0,,,,,0.0,0.0,0.0,0.0,0.0,0.0,0
-22.959808,-67.786918,19.50,0.00,5.50,7.18,19.60,19.60,5.50,7.18,13197,2025-12-01 15:15:31.186,2025-12-01 12:15:31.186,16,0,0,45.841,-22.959743,-67.786920,-5.50,0.00,0.00,-15.30,2.60,178.90,0,1,0,96,90,-55669,14262,45841,2971.50,42,WP,1,0,0,0,0,0,0,1764602131186,3707,3740,3750,3869,3711,3739,18,,,,,,,0,0,0,153.00,26.00,1789.00,1.00,0.00,-108.00,14,195.00,55.00,71.80,-55.00,0.00,0.00,0,,,100,99,20,2,0,0,1,1,0,,,,,0.0,0.0,0.0,0.0,0.0,0.0,0
-22.959814,-67.786918,19.50,0.00,5.70,7.82,19.60,19.60,5.70,7.82,13296,2025-12-01 15:15:31.285,2025-12-01 12:15:31.286,16,0,0,45.841,-22.959743,-67.786920,-5.70,0.00,0.00,-14.90,2.70,179.00,0,1,0,96,90,-55669,14262,45841,2971.50,42,WP,1,0,0,0,0,0,0,1764602131285,3707,3740,3750,3869,3711,3739,18,,,,,,,0,0,0,149.00,27.00,1790.00,1.00,0.00,-107.00,14,195.00,57.00,78.17,-57.00,0.00,0.00,0,,,100,99,20,2,0,0,1,1,0,,,,,0.0,0.0,0.0,0.0,0.0,0.0,0
-22.959820,-67.786918,19.50,0.00,6.00,8.51,19.60,19.60,6.00,8.51,13392,2025-12-01 15:15:31.382,2025-12-01 12:15:31.382,16,0,0,45.841,-22.959743,-67.786920,-6.00,0.00,0.00,-14.40,2.80,179.00,0,1,0,96,90,-55669,14262,45841,2971.50,42,WP,1,0,0,0,0,0,0,1764602131381,3707,3740,3750,3869,3711,3739,18,,,,,,,0,0,0,144.00,28.00,1790.00,2.00,0.00,-105.00,14,195.00,60.00,85.05,-60.00,0.00,0.00,0,,,100,99,20,2,0,0,1,1,0,,,,,0.0,0.0,0.0,0.0,0.0,0.0,0
-22.959826,-67.786918,19.50,0.00,6.20,9.18,19.60,19.60,6.20,9.18,13496,2025-12-01 15:15:31.485,2025-12-01 12:15:31.485,16,0,0,45.841,-22.959743,-67.786920,-6.20,0.00,0.00,-14.10,2.80,179.00,0,1,0,96,90,-55669,14262,45841,2971.50,42,WP,1,0,0,0,0,0,0,1764602131485,3707,3740,3750,3869,3711,3739,18,,,,,,,0,0,0,141.00,28.00,1790.00,2.00,0.00,-104.00,14,195.00,62.00,91.81,-62.00,0.00,0.00,0,,,100,99,20,2,0,0,1,1,0,,,,,0.0,0.0,0.0,0.0,0.0,0.0,0
-22.959832,-67.786918,19.50,0.00,6.40,9.89,19.60,19.60,6.40,9.89,13600,2025-12-01 15:15:31.590,2025-12-01 12:15:31.590,16,0,0,45.841,-22.959743,-67.786920,-6.40,0.00,0.00,-14.10,2.70,179.00,0,1,0,96,90,-55669,14262,45841,2971.50,42,WP,1,0,0,0,0,0,0,1764602131589,3707,3740,3750,3869,3711,3739,18,,,,,,,0,0,0,141.00,27.00,1790.00,3.00,0.00,-102.00,14,195.00,64.00,98.93,-64.00,0.00,0.00,0,,,100,99,20,2,0,0,1,1,0,,,,,0.0,0.0,0.0,0.0,0.0,0.0,0
-22.959839,-67.786918,19.50,0.00,6.60,10.60,19.60,19.60,6.60,10.60,13699,2025-12-01 15:15:31.689,2025-12-01 12:15:31.689,16,0,0,45.841,-22.959743,-67.786920,-6.60,0.00,0.00,-13.90,2.50,179.00,0,1,0,96,90,-55669,14262,45841,2971.50,42,WP,1,0,0,0,0,0,0,1764602131688,3707,3740,3750,3869,3711,3739,18,,,,,,,0,0,0,139.00,25.00,1790.00,3.00,0.00,-101.00,14,195.00,66.00,106.00,-66.00,0.00,0.00,0,,,100,98,20,2,0,0,1,1,0,,,,,0.0,0.0,0.0,0.0,0.0,0.0,0
-22.959845,-67.786918,19.50,0.00,6.80,11.33,19.60,19.60,6.80,11.33,13801,2025-12-01 15:15:31.790,2025-12-01 12:15:31.790,16,0,0,45.841,-22.959743,-67.786920,-6.80,0.00,0.00,-13.80,2.50,179.00,0,1,0,96,90,-55669,14262,45841,2971.50,42,WP,1,0,0,0,0,0,0,1764602131790,3707,3740,3750,3869,3711,3739,18,,,,,,,0,0,0,138.00,25.00,1790.00,3.00,0.00,-100.00,14,195.00,68.00,113.33,-68.00,0.00,0.00,0,,,100,98,20,2,0,0,1,1,0,,,,,0.0,0.0,0.0,0.0,0.0,0.0,0
-22.959859,-67.786918,19.50,0.00,7.20,12.83,19.60,19.60,7.20,12.83,14000,2025-12-01 15:15:31.989,2025-12-01 12:15:31.989,16,0,0,45.841,-22.959743,-67.786920,-7.20,-0.10,0.00,-14.00,2.60,179.00,0,1,0,96,90,-55669,14262,45841,2971.50,42,WP,1,0,0,0,0,0,0,1764602131989,3707,3740,3750,3869,3711,3739,18,,,,,,,0,0,0,140.00,26.00,1790.00,2.00,0.00,-96.00,14,195.00,72.01,128.35,-72.00,-1.00,0.00,0,,,100,98,20,2,0,0,1,1,0,,,,,0.0,0.0,0.0,0.0,0.0,0.0,0
-22.959866,-67.786918,19.50,0.00,7.40,13.60,19.60,19.60,7.40,13.60,14103,2025-12-01 15:15:32.093,2025-12-01 12:15:32.093,16,0,0,45.841,-22.959743,-67.786920,-7.40,-0.10,0.00,-14.00,2.50,179.00,0,1,0,96,90,-55669,14262,45841,2971.50,42,WP,1,0,0,0,0,0,0,1764602132092,3707,3740,3750,3869,3711,3739,18,,,,,,,0,0,0,140.00,25.00,1790.00,3.00,0.00,-94.00,14,195.00,74.01,136.05,-74.00,-1.00,0.00,0,,,100,98,20,2,0,0,1,1,0,,,,,0.0,0.0,0.0,0.0,0.0,0.0,0
-22.959873,-67.786918,19.50,0.00,7.60,14.43,19.60,19.60,7.60,14.43,14204,2025-12-01 15:15:32.194,2025-12-01 12:15:32.194,16,0,0,45.841,-22.959743,-67.786920,-7.60,-0.10,0.00,-14.20,2.60,179.00,0,1,0,96,90,-55669,14262,45841,2971.50,42,WP,1,0,0,0,0,0,0,1764602132193,3707,3740,3750,3869,3711,3739,18,,,,,,,0,0,0,142.00,26.00,1790.00,2.00,0.00,-92.00,14,195.00,76.01,144.29,-76.00,-1.00,0.00,0,,,100,99,20,2,0,0,1,1,0,,,,,0.0,0.0,0.0,0.0,0.0,0.0,0
-22.959881,-67.786918,19.50,0.00,7.80,15.25,19.60,19.60,7.80,15.25,14305,2025-12-01 15:15:32.294,2025-12-01 12:15:32.294,16,0,0,45.841,-22.959743,-67.786920,-7.80,-0.10,0.00,-14.30,2.40,179.00,0,1,0,96,90,-55669,14262,45841,2971.50,42,WP,1,0,0,0,0,0,0,1764602132294,3707,3740,3750,3869,3711,3739,18,,,,,,,0,0,0,143.00,24.00,1790.00,2.00,0.00,-91.00,14,195.00,78.01,152.45,-78.00,-1.00,0.00,0,,,100,99,20,2,0,0,1,1,0,,,,,0.0,0.0,0.0,0.0,0.0,0.0,0
-22.959896,-67.786919,19.50,0.00,8.20,16.93,19.60,19.60,8.20,16.93,14508,2025-12-01 15:15:32.498,2025-12-01 12:15:32.498,16,0,0,45.841,-22.959743,-67.786920,-8.20,-0.10,0.00,-14.30,2.40,179.00,0,1,0,96,90,-55669,14262,45841,2971.50,42,WP,1,0,0,0,0,0,0,1764602132497,3707,3740,3750,3869,3711,3739,18,,,,,,,0,0,0,143.00,24.00,1790.00,1.00,0.00,-88.00,14,195.00,82.01,169.31,-82.00,-1.00,0.00,0,,,100,99,20,2,0,0,1,1,0,,,,,0.0,0.0,0.0,0.0,0.0,0.0,0
-22.959904,-67.786919,19.50,0.00,8.30,17.84,19.60,19.60,8.30,17.84,14611,2025-12-01 15:15:32.601,2025-12-01 12:15:32.601,16,0,0,45.083,-22.959743,-67.786920,-8.30,-0.20,0.00,-14.40,2.40,179.00,0,1,0,96,90,-60760,14262,45083,2981.50,42,WP,1,0,0,0,0,0,0,1764602132600,3707,3740,3750,3869,3711,3739,18,,,,,,,0,0,0,144.00,24.00,1790.00,1.00,0.00,-86.00,14,195.00,83.02,178.44,-83.00,-2.00,0.00,0,,,100,99,20,2,0,0,1,1,0,,,,,0.0,0.0,0.0,0.0,0.0,0.0,0
-22.959921,-67.786919,19.50,0.00,8.60,19.65,19.60,19.60,8.60,19.65,14809,2025-12-01 15:15:32.799,2025-12-01 12:15:32.799,16,0,0,45.083,-22.959743,-67.786920,-8.60,-0.20,0.00,-12.10,1.90,179.00,0,1,0,96,90,-60760,14262,45083,2981.50,42,WP,1,0,0,0,0,0,0,1764602132798,3707,3740,3750,3869,3711,3739,18,,,,,,,0,0,0,121.00,19.00,1790.00,2.00,0.00,-84.00,14,195.00,86.02,196.54,-86.00,-2.00,0.00,0,,,100,99,20,2,0,0,1,1,0,,,,,0.0,0.0,0.0,0.0,0.0,0.0,0
-22.959929,-67.786920,19.50,0.00,8.80,20.55,19.60,19.60,8.80,20.55,14914,2025-12-01 15:15:32.903,2025-12-01 12:15:32.903,16,0,0,45.083,-22.959743,-67.786920,-8.80,-0.20,-0.10,-10.10,1.60,179.00,0,1,0,96,90,-60760,14262,45083,2981.50,42,WP,1,0,0,0,0,0,0,1764602132903,3707,3740,3750,3869,3711,3739,18,,,,,,,0,0,0,101.00,16.00,1790.00,2.00,0.00,-81.00,14,195.00,88.03,205.55,-88.00,-2.00,-1.00,0,,,100,99,20,2,0,0,1,1,0,,,,,0.0,0.0,0.0,0.0,0.0,0.0,0
-22.959937,-67.786920,19.50,0.00,8.90,21.51,19.60,19.60,8.90,21.51,15006,2025-12-01 15:15:32.995,2025-12-01 12:15:32.995,16,0,0,45.083,-22.959743,-67.786920,-8.90,-0.20,-0.10,-8.10,1.40,179.10,0,1,0,96,90,-60760,14262,45083,2981.50,42,WP,1,0,0,0,0,0,0,1764602132995,3707,3740,3750,3869,3711,3739,18,,,,,,,0,0,0,81.00,14.00,1791.00,2.00,0.00,-79.00,14,195.00,89.03,215.05,-89.00,-2.00,-1.00,0,,,100,99,20,2,0,0,1,1,0,,,,,0.0,0.0,0.0,0.0,0.0,0.0,0
-22.959946,-67.786920,19.50,0.00,8.90,22.44,19.60,19.60,8.90,22.44,15109,2025-12-01 15:15:33.099,2025-12-01 12:15:33.099,16,0,0,45.083,-22.959743,-67.786920,-8.90,-0.20,-0.10,-6.20,1.40,179.10,0,1,0,96,90,-60760,14262,45083,2981.50,42,WP,1,0,0,0,0,0,0,1764602133098,3707,3740,3750,3869,3711,3739,18,,,,,,,0,0,0,62.00,14.00,1791.00,2.00,0.00,-78.00,14,195.00,89.03,224.38,-89.00,-2.00,-1.00,0,,,100,99,20,2,0,0,1,1,0,,,,,0.0,0.0,0.0,0.0,0.0,0.0,0
-22.959954,-67.786920,19.50,0.00,8.90,23.39,19.60,19.60,8.90,23.39,15213,2025-12-01 15:15:33.203,2025-12-01 12:15:33.203,16,0,0,45.083,-22.959743,-67.786920,-8.90,-0.20,-0.10,-4.70,1.20,179.00,0,1,0,96,90,-60760,14262,45083,2981.50,42,WP,1,0,0,0,0,0,0,1764602133202,3707,3740,3750,3869,3711,3739,18,,,,,,,0,0,0,47.00,12.00,1790.00,2.00,0.00,-76.00,14,195.00,89.03,233.89,-89.00,-2.00,-1.00,0,,,100,98,20,2,0,0,1,1,0,,,,,0.0,0.0,0.0,0.0,0.0,0.0,0
