latitude,longitude,altitude(m),ultrasonicHeight(m),speed(mps),distance(m),max_altitude(m),max_ascent(m),max_speed(mps),max_distance(m),time(millisecond),datetime(utc),datetime(local),satellites,pressure(Pa),temperature(F),voltage(v),home_latitude,home_longitude,velocityX(mps),velocityY(mps),velocityZ(mps),pitch(deg),roll(deg),yaw(deg),powerlevel,isflying,istakingphoto,remainPowerPercent,remainLifePercent,currentCurrent,currentElectricity,currentVoltage,batteryTemperature,dischargeCount,flightmode,isMotorsOn,isTakingVideo,Rc_elevator,Rc_aileron,Rc_throttle,Rc_rudder,Rc_gyro,timestamp,Battery_Cell1,Battery_Cell2,Battery_Cell3,Battery_Cell4,Battery_Cell5,Battery_Cell6,Dronetype,AppVersion,Planename,FlyControllerSerialNumber,RemoteSerialNumber,BatterySerialNumber,CENTER_BATTERY.productDate,CENTER_BATTERY.serialNo,CENTER_BATTERY.fullCapacity,CENTER_BATTERY.productDateRaw,pitchRaw,rollRaw,yawRaw,gimbalPitchRaw,gimbalRollRaw,gimbalYawRaw,flyState,altitudeRaw,speedRaw,distanceRaw,velocityXRaw,velocityYRaw,velocityZRaw,data_reuse,App_Tip,App_Warning,downlinkSignalQuality,uplinkSignalQuality,transmissionChannel,rcModeSwitch,rcHome,rcPause,rcTransform,rcJoystickMode,appMode,FlyControllerSerialNumber_legacy,RemoteSerialNumber_legacy,BatterySerialNumber_legacy,Battery2SerialNumber,frontAvoidDist,backAvoidDist,rightAvoidDist,leftAvoidDist,upAvoidDist,downAvoidDist,isBrakingToAvoid
-22.959732,-67.786905,0.40,0.00,0.63,0.21,0.40,0.40,0.63,0.21,3,2025-11-27 18:26:09.807,2025-11-27 19:26:09.807,15,0,0,50.411,-22.959732,-67.786907,0.00,0.20,-0.60,0.90,0.90,161.40,0,1,0,85,88,-2985,12207,50411,3001.50,50,TakeOff,1,0,0,0,0,0,0,1764267969806,4199,4201,4194,4207,4206,4207,18,Litchi_iOS_2.15.7,EIK Matrice 1,0670131556,03LLCA05XT,,,0,14307,0,-9.00,9.00,1614.00,0.00,0.00,0.00,11,4.00,6.32,2.08,0.00,2.00,-6.00,0,,,100,100,13,2,0,0,1,1,0,(null),(null),(null),(null),0.0,0.0,0.0,0.0,0.0,0.0,0
-22.959732,-67.786904,0.50,0.00,0.55,0.24,0.50,0.50,0.63,0.24,112,2025-11-27 18:26:09.915,2025-11-27 19:26:09.915,15,0,0,50.411,-22.959732,-67.786907,-0.10,0.20,-0.50,1.00,1.20,161.40,0,1,0,85,88,-2985,12207,50411,3001.50,50,TakeOff,1,0,0,0,0,0,0,1764267969915,4199,4201,4194,4207,4206,4207,18,,,,,,,0,0,0,-10.00,12.00,1614.00,0.00,0.00,0.00,11,5.00,5.48,2.44,-1.00,2.00,-5.00,0,,,100,100,13,2,0,0,1,1,0,,,,,0.0,0.0,0.0,0.0,0.0,0.0,0
-22.959733,-67.786904,0.50,0.00,0.55,0.27,0.50,0.50,0.63,0.27,198,2025-11-27 18:26:10.002,2025-11-27 19:26:10.002,15,0,0,50.411,-22.959732,-67.786907,-0.10,0.20,-0.50,1.30,1.50,161.40,0,1,0,85,88,-2985,12207,50411,3001.50,50,TakeOff,1,0,0,0,0,0,0,1764267970001,4199,4201,4194,4207,4206,4207,18,,,,,,,0,0,0,-13.00,15.00,1614.00,0.00,0.00,0.00,11,5.00,5.48,2.75,-1.00,2.00,-5.00,0,,,100,100,13,2,0,0,1,1,0,,,,,0.0,0.0,0.0,0.0,0.0,0.0,0
-22.959733,-67.786904,0.60,0.00,0.55,0.31,0.60,0.60,0.63,0.31,303,2025-11-27 18:26:10.106,2025-11-27 19:26:10.106,15,0,0,50.411,-22.959732,-67.786907,-0.10,0.20,-0.50,1.70,1.70,161.40,0,1,0,85,88,-2985,12207,50411,3001.50,50,TakeOff,1,0,0,0,0,0,0,1764267970106,4199,4201,4194,4207,4206,4207,18,,,,,,,0,0,0,-17.00,17.00,1614.00,0.00,0.00,0.00,11,6.00,5.48,3.07,-1.00,2.00,-5.00,0,,,100,100,13,2,0,0,1,1,0,,,,,0.0,0.0,0.0,0.0,0.0,0.0,0
-22.959733,-67.786904,0.60,0.00,0.45,0.34,0.60,0.60,0.63,0.34,400,2025-11-27 18:26:10.203,2025-11-27 19:26:10.203,15,0,0,50.411,-22.959732,-67.786907,0.00,0.20,-0.40,2.20,1.90,161.50,0,1,0,85,88,-2985,12207,50411,3001.50,50,TakeOff,1,0,0,0,0,0,0,1764267970203,4199,4201,4194,4207,4206,4207,18,,,,,,,0,0,0,-22.00,19.00,1615.00,0.00,0.00,0.00,11,6.00,4.47,3.36,0.00,2.00,-4.00,0,,,100,100,13,2,0,0,1,1,0,,,,,0.0,0.0,0.0,0.0,0.0,0.0,0
-22.959733,-67.786903,0.70,0.00,0.45,0.36,0.70,0.70,0.63,0.36,509,2025-11-27 18:26:10.312,2025-11-27 19:26:10.312,16,0,0,50.411,-22.959732,-67.786907,0.00,0.20,-0.40,2.40,2.10,161.50,0,1,0,85,88,-2985,12207,50411,3001.50,50,TakeOff,1,0,0,0,0,0,0,1764267970312,4199,4201,4194,4207,4206,4207,18,,,,,,,0,0,0,-24.00,21.00,1615.00,0.00,0.00,0.00,11,7.00,4.47,3.64,0.00,2.00,-4.00,0,,,100,100,13,2,0,0,1,1,0,,,,,0.0,0.0,0.0,0.0,0.0,0.0,0
-22.959733,-67.786903,0.70,0.00,0.41,0.39,0.70,0.70,0.63,0.39,613,2025-11-27 18:26:10.416,2025-11-27 19:26:10.417,16,0,0,50.411,-22.959732,-67.786907,0.00,0.10,-0.40,2.50,2.30,161.40,0,1,0,85,88,-2985,12207,50411,3001.50,50,TakeOff,1,0,0,0,0,0,0,1764267970416,4199,4201,4194,4207,4206,4207,18,,,,,,,0,0,0,-25.00,23.00,1614.00,0.00,0.00,0.00,11,7.00,4.12,3.88,0.00,1.00,-4.00,0,,,100,100,13,2,0,0,1,1,0,,,,,0.0,0.0,0.0,0.0,0.0,0.0,0
-22.959733,-67.786903,0.70,0.00,0.32,0.41,0.70,0.70,0.63,0.41,707,2025-11-27 18:26:10.510,2025-11-27 19:26:10.510,16,0,0,50.411,-22.959732,-67.786907,0.00,0.10,-0.30,2.10,2.40,161.30,0,1,0,85,88,-2985,12207,50411,3001.50,50,TakeOff,1,0,0,0,0,0,0,1764267970510,4199,4201,4194,4207,4206,4207,18,,,,,,,0,0,0,-21.00,24.00,1613.00,0.00,0.00,0.00,11,7.00,3.16,4.09,0.00,1.00,-3.00,0,,,100,100,13,2,0,0,1,1,0,,,,,0.0,0.0,0.0,0.0,0.0,0.0,0
-22.959733,-67.786903,0.80,0.00,0.32,0.43,0.80,0.80,0.63,0.43,812,2025-11-27 18:26:10.615,2025-11-27 19:26:10.615,16,0,0,50.411,-22.959732,-67.786907,0.00,0.10,-0.30,1.80,2.30,161.30,0,1,0,85,88,-2985,12207,50411,3001.50,50,TakeOff,1,0,0,0,0,0,0,1764267970615,4199,4201,4194,4207,4206,4207,18,,,,,,,0,0,0,-18.00,23.00,1613.00,0.00,0.00,0.00,11,8.00,3.16,4.28,0.00,1.00,-3.00,0,,,100,100,13,2,0,0,1,1,0,,,,,0.0,0.0,0.0,0.0,0.0,0.0,0
-22.959733,-67.786903,0.80,0.00,0.32,0.44,0.80,0.80,0.63,0.44,916,2025-11-27 18:26:10.720,2025-11-27 19:26:10.720,16,0,0,50.411,-22.959732,-67.786907,0.00,0.10,-0.30,1.70,2.20,161.30,0,1,0,85,88,-2985,12207,50411,3001.50,50,TakeOff,1,0,0,0,0,0,0,1764267970719,4199,4201,4194,4207,4206,4207,18,,,,,,,0,0,0,-17.00,22.00,1613.00,0.00,0.00,0.00,11,8.00,3.16,4.39,0.00,1.00,-3.00,0,,,100,100,13,2,0,0,1,1,0,,,,,0.0,0.0,0.0,0.0,0.0,0.0,0
-22.959733,-67.786903,0.90,0.00,0.41,0.45,0.90,0.90,0.63,0.45,1013,2025-11-27 18:26:10.817,2025-11-27 19:26:10.817,16,0,0,50.411,-22.959732,-67.786907,0.00,0.10,-0.40,1.70,2.40,161.40,0,1,0,85,88,-2985,12207,50411,3001.50,50,TakeOff,1,0,0,0,0,0,0,1764267970816,4199,4201,4194,4207,4206,4207,18,,,,,,,0,0,0,-17.00,24.00,1614.00,0.00,0.00,0.00,11,9.00,4.12,4.48,0.00,1.00,-4.00,0,,,100,100,13,2,0,0,1,1,0,,,,,0.0,0.0,0.0,0.0,0.0,0.0,0
-22.959733,-67.786903,0.90,0.00,0.40,0.45,0.90,0.90,0.63,0.45,1104,2025-11-27 18:26:10.907,2025-11-27 19:26:10.908,16,0,0,50.411,-22.959732,-67.786907,0.00,0.00,-0.40,1.60,2.70,161.40,0,1,0,85,88,-2985,12207,50411,3001.50,50,TakeOff,1,0,0,0,0,0,0,1764267970907,4199,4201,4194,4207,4206,4207,18,,,,,,,0,0,0,-16.00,27.00,1614.00,0.00,0.00,0.00,11,9.00,4.00,4.52,0.00,0.00,-4.00,0,,,100,100,13,2,0,0,1,1,0,,,,,0.0,0.0,0.0,0.0,0.0,0.0,0
-22.959733,-67.786903,0.90,0.00,0.40,0.46,0.90,0.90,0.63,0.46,1212,2025-11-27 18:26:11.015,2025-11-27 19:26:11.016,16,0,0,50.411,-22.959732,-67.786907,0.00,0.00,-0.40,1.70,2.80,161.50,0,1,0,85,88,-2985,12207,50411,3001.50,50,TakeOff,1,0,0,0,0,0,0,1764267971015,4199,4201,4194,4207,4206,4207,18,,,,,,,0,0,0,-17.00,28.00,1615.00,0.00,0.00,0.00,11,9.00,4.00,4.58,0.00,0.00,-4.00,0,,,100,99,13,2,0,0,1,1,0,,,,,0.0,0.0,0.0,0.0,0.0,0.0,0
-22.959733,-67.786903,1.00,0.00,0.40,0.46,1.00,1.00,0.63,0.46,1311,2025-11-27 18:26:11.114,2025-11-27 19:26:11.114,16,0,0,50.411,-22.959732,-67.786907,0.00,0.00,-0.40,2.10,2.80,161.50,0,1,0,85,88,-2985,12207,50411,3001.50,50,TakeOff,1,0,0,0,0,0,0,1764267971114,4199,4201,4194,4207,4206,4207,18,,,,,,,0,0,0,-21.00,28.00,1615.00,0.00,0.00,0.00,11,10.00,4.00,4.57,0.00,0.00,-4.00,0,,,100,99,13,2,0,0,1,1,0,,,,,0.0,0.0,0.0,0.0,0.0,0.0,0
-22.959733,-67.786903,1.00,0.00,0.40,0.45,1.00,1.00,0.63,0.46,1412,2025-11-27 18:26:11.215,2025-11-27 19:26:11.215,16,0,0,50.411,-22.959732,-67.786907,0.00,0.00,-0.40,2.40,2.50,161.40,0,1,0,85,88,-2985,12207,50411,3001.50,50,TakeOff,1,0,0,0,0,0,0,1764267971215,4199,4201,4194,4207,4206,4207,18,,,,,,,0,0,0,-24.00,25.00,1614.00,0.00,0.00,0.00,11,10.00,4.00,4.53,0.00,0.00,-4.00,0,,,100,99,13,2,0,0,1,1,0,,,,,0.0,0.0,0.0,0.0,0.0,0.0,0
-22.959733,-67.786903,1.10,0.00,0.40,0.44,1.10,1.10,0.63,0.46,1508,2025-11-27 18:26:11.312,2025-11-27 19:26:11.312,16,0,0,50.411,-22.959732,-67.786907,0.00,0.00,-0.40,2.60,1.80,161.30,0,1,0,85,88,-2985,12207,50411,3001.50,50,WP,1,0,0,0,0,0,0,1764267971311,4199,4201,4194,4207,4206,4207,18,,,,,,,0,0,0,-26.00,18.00,1613.00,0.00,0.00,0.00,14,11.00,4.00,4.42,0.00,0.00,-4.00,0,,,100,99,13,2,0,0,1,1,0,,,,,0.0,0.0,0.0,0.0,0.0,0.0,0
-22.959733,-67.786903,1.10,0.00,0.30,0.43,1.10,1.10,0.63,0.46,1613,2025-11-27 18:26:11.416,2025-11-27 19:26:11.416,16,0,0,50.411,-22.959732,-67.786907,0.00,0.00,-0.30,2.00,1.20,161.20,0,1,0,85,88,-2985,12207,50411,3001.50,50,WP,1,0,0,0,0,0,0,1764267971416,4199,4201,4194,4207,4206,4207,18,,,,,,,0,0,0,-20.00,12.00,1612.00,0.00,0.00,0.00,14,11.00,3.00,4.32,0.00,0.00,-3.00,0,,,100,99,13,2,0,0,1,1,0,,,,,0.0,0.0,0.0,0.0,0.0,0.0,0
-22.959733,-67.786903,1.10,0.00,0.20,0.42,1.10,1.10,0.63,0.46,1712,2025-11-27 18:26:11.515,2025-11-27 19:26:11.516,16,0,0,50.411,-22.959732,-67.786907,0.00,0.00,-0.20,0.50,0.20,161.10,0,1,0,85,88,-2985,12207,50411,3001.50,50,WP,1,0,0,0,0,0,0,1764267971515,4199,4201,4194,4207,4206,4207,18,,,,,,,0,0,0,-5.00,2.00,1611.00,0.00,0.00,0.00,14,11.00,2.00,4.23,0.00,0.00,-2.00,0,,,100,99,13,2,0,0,1,1,0,,,,,0.0,0.0,0.0,0.0,0.0,0.0,0
-22.959733,-67.786903,1.20,0.00,0.30,0.42,1.20,1.20,0.63,0.46,1813,2025-11-27 18:26:11.617,2025-11-27 19:26:11.617,16,0,0,50.411,-22.959732,-67.786907,0.00,0.00,-0.30,0.00,0.40,161.00,0,1,0,85,88,-2985,12207,50411,3001.50,50,WP,1,0,0,0,0,0,0,1764267971616,4199,4201,4194,4207,4206,4207,18,,,,,,,0,0,0,-0.00,4.00,1610.00,0.00,0.00,0.00,14,12.00,3.00,4.17,0.00,0.00,-3.00,0,,,100,99,13,2,0,0,1,1,0,,,,,0.0,0.0,0.0,0.0,0.0,0.0,0
-22.959733,-67.786903,1.20,0.00,0.30,0.41,1.20,1.20,0.63,0.46,1916,2025-11-27 18:26:11.720,2025-11-27 19:26:11.720,16,0,0,49.730,-22.959732,-67.786907,0.00,0.00,-0.30,-0.30,0.60,161.00,0,1,0,85,88,-31947,12207,49730,3001.50,50,WP,1,0,0,0,0,0,0,1764267971719,4199,4201,4194,4207,4206,4207,18,,,,,,,0,0,0,3.00,6.00,1610.00,0.00,0.00,0.00,14,12.00,3.00,4.14,0.00,0.00,-3.00,0,,,100,99,13,2,0,0,1,1,0,,,,,0.0,0.0,0.0,0.0,0.0,0.0,0
-22.959733,-67.786903,1.20,0.00,0.40,0.41,1.20,1.20,0.63,0.46,2013,2025-11-27 18:26:11.816,2025-11-27 19:26:11.816,16,0,0,49.730,-22.959732,-67.786907,0.00,0.00,-0.40,-0.20,0.70,160.90,0,1,0,85,88,-31947,12207,49730,3001.50,50,WP,1,0,0,0,0,0,0,1764267971816,4199,4201,4194,4207,4206,4207,18,,,,,,,0,0,0,2.00,7.00,1609.00,0.00,0.00,0.00,14,12.00,4.00,4.13,0.00,0.00,-4.00,0,,,100,99,13,2,0,0,1,1,0,,,,,0.0,0.0,0.0,0.0,0.0,0.0,0
-22.959733,-67.786903,1.30,0.00,0.50,0.42,1.30,1.30,0.63,0.46,2114,2025-11-27 18:26:11.918,2025-11-27 19:26:11.918,16,0,0,49.730,-22.959732,-67.786907,0.00,0.00,-0.50,-0.40,0.40,160.80,0,1,0,85,88,-31947,12207,49730,3001.50,50,WP,1,0,0,0,0,0,0,1764267971917,4199,4201,4194,4207,4206,4207,18,,,,,,,0,0,0,4.00,4.00,1608.00,0.00,0.00,0.00,14,13.00,5.00,4.18,0.00,0.00,-5.00,0,,,100,99,13,2,0,0,1,1,0,,,,,0.0,0.0,0.0,0.0,0.0,0.0,0
-22.959733,-67.786903,1.30,0.00,0.71,0.42,1.30,1.30,0.71,0.46,2215,2025-11-27 18:26:12.018,2025-11-27 19:26:12.018,16,0,0,49.730,-22.959732,-67.786907,0.00,0.10,-0.70,-0.40,0.30,160.90,0,1,0,85,88,-31947,12207,49730,3001.50,50,WP,1,0,0,0,0,0,0,1764267972018,4199,4201,4194,4207,4206,4207,18,,,,,,,0,0,0,4.00,3.00,1609.00,0.00,0.00,0.00,14,13.00,7.07,4.25,0.00,1.00,-7.00,0,,,100,99,13,2,0,0,1,1,0,,,,,0.0,0.0,0.0,0.0,0.0,0.0,0
-22.959733,-67.786902,1.40,0.00,1.00,0.44,1.40,1.40,1.00,0.46,2318,2025-11-27 18:26:12.121,2025-11-27 19:26:12.121,16,0,0,49.730,-22.959732,-67.786907,0.00,0.10,-1.00,-0.40,0.40,160.90,0,1,0,85,88,-31947,12207,49730,3001.50,50,WP,1,0,0,0,0,0,0,1764267972121,4199,4201,4194,4207,4206,4207,18,,,,,,,0,0,0,4.00,4.00,1609.00,0.00,0.00,0.00,14,14.00,10.05,4.40,0.00,1.00,-10.00,0,,,100,99,13,2,0,0,1,1,0,,,,,0.0,0.0,0.0,0.0,0.0,0.0,0
-22.959732,-67.786902,1.50,0.00,1.20,0.46,1.50,1.50,1.20,0.46,2415,2025-11-27 18:26:12.218,2025-11-27 19:26:12.218,16,0,0,49.730,-22.959732,-67.786907,0.00,0.10,-1.20,-0.40,0.80,161.00,0,1,0,85,88,-31947,12207,49730,3001.50,50,WP,1,0,0,0,0,0,0,1764267972218,4199,4201,4194,4207,4206,4207,18,,,,,,,0,0,0,4.00,8.00,1610.00,0.00,0.00,0.00,14,15.00,12.04,4.55,0.00,1.00,-12.00,0,,,100,99,13,2,0,0,1,1,0,,,,,0.0,0.0,0.0,0.0,0.0,0.0,0
-22.959732,-67.786902,1.70,0.00,1.50,0.47,1.70,1.70,1.50,0.47,2517,2025-11-27 18:26:12.321,2025-11-27 19:26:12.321,16,0,0,49.730,-22.959732,-67.786907,0.00,0.10,-1.50,-0.20,1.40,161.20,0,1,0,85,88,-31947,12207,49730,3001.50,50,WP,1,0,0,0,0,0,0,1764267972320,4199,4201,4194,4207,4206,4207,18,,,,,,,0,0,0,2.00,14.00,1612.00,0.00,0.00,0.00,14,17.00,15.03,4.74,0.00,1.00,-15.00,0,,,100,99,13,2,0,0,1,1,0,,,,,0.0,0.0,0.0,0.0,0.0,0.0,0
-22.959732,-67.786902,1.80,0.00,1.80,0.49,1.80,1.80,1.80,0.49,2621,2025-11-27 18:26:12.424,2025-11-27 19:26:12.424,16,0,0,49.730,-22.959732,-67.786907,0.00,0.10,-1.80,0.30,1.90,161.20,0,1,0,85,88,-31947,12207,49730,3001.50,50,WP,1,0,0,0,0,0,0,1764267972424,4199,4201,4194,4207,4206,4207,18,,,,,,,0,0,0,-3.00,19.00,1612.00,0.00,0.00,0.00,14,18.00,18.03,4.89,0.00,1.00,-18.00,0,,,100,99,13,2,0,0,1,1,0,,,,,0.0,0.0,0.0,0.0,0.0,0.0,0
-22.959732,-67.786902,2.00,0.00,2.10,0.51,2.00,2.00,2.10,0.51,2728,2025-11-27 18:26:12.532,2025-11-27 19:26:12.532,16,0,0,49.730,-22.959732,-67.786907,0.00,0.10,-2.10,0.40,2.00,161.10,0,1,0,85,88,-31947,12207,49730,3001.50,50,WP,1,0,0,0,0,0,0,1764267972531,4199,4201,4194,4207,4206,4207,18,,,,,,,0,0,0,-4.00,20.00,1611.00,0.00,0.00,0.00,14,20.00,21.02,5.08,0.00,1.00,-21.00,0,,,100,100,13,2,0,0,1,1,0,,,,,0.0,0.0,0.0,0.0,0.0,0.0,0
-22.959732,-67.786902,2.30,0.00,2.40,0.52,2.30,2.30,2.40,0.52,2830,2025-11-27 18:26:12.633,2025-11-27 19:26:12.633,16,0,0,49.730,-22.959732,-67.786907,0.00,0.10,-2.40,0.00,1.90,161.10,0,1,0,85,88,-31947,12207,49730,3001.50,50,WP,1,0,0,0,0,0,0,1764267972633,4199,4201,4194,4207,4206,4207,18,,,,,,,0,0,0,-0.00,19.00,1611.00,0.00,0.00,0.00,14,23.00,24.02,5.25,0.00,1.00,-24.00,0,,,100,100,13,2,0,0,1,1,0,,,,,0.0,0.0,0.0,0.0,0.0,0.0,0
-22.959732,-67.786901,2.50,0.00,2.60,0.54,2.50,2.50,2.60,0.54,2920,2025-11-27 18:26:12.723,2025-11-27 19:26:12.723,16,0,0,49.730,-22.959732,-67.786907,0.00,0.10,-2.60,-0.70,2.30,161.20,0,1,0,85,88,-31947,12207,49730,3001.50,50,WP,1,0,0,0,0,0,0,1764267972723,4199,4201,4194,4207,4206,4207,18,,,,,,,0,0,0,7.00,23.00,1612.00,0.00,0.00,0.00,14,25.00,26.02,5.38,0.00,1.00,-26.00,0,,,100,100,13,2,0,0,1,1,0,,,,,0.0,0.0,0.0,0.0,0.0,0.0,0
-22.959732,-67.786901,2.80,0.00,2.80,0.55,2.80,2.80,2.80,0.55,3026,2025-11-27 18:26:12.830,2025-11-27 19:26:12.830,16,0,0,49.730,-22.959732,-67.786907,0.00,0.00,-2.80,-1.00,2.40,161.20,0,1,0,85,88,-31947,12207,49730,3001.50,50,WP,1,0,0,0,0,0,0,1764267972829,4199,4201,4194,4207,4206,4207,18,,,,,,,0,0,0,10.00,24.00,1612.00,0.00,0.00,0.00,14,28.00,28.00,5.49,0.00,0.00,-28.00,0,,,100,100,13,2,0,0,1,1,0,,,,,0.0,0.0,0.0,0.0,0.0,0.0,0
-22.959732,-67.786901,3.00,0.00,3.00,0.55,3.00,3.00,3.00,0.55,3129,2025-11-27 18:26:12.932,2025-11-27 19:26:12.932,16,0,0,49.730,-22.959732,-67.786907,0.00,0.00,-3.00,-1.00,2.40,161.30,0,1,0,85,88,-31947,12207,49730,3001.50,50,WP,1,0,0,0,0,0,0,1764267972932,4199,4201,4194,4207,4206,4207,18,,,,,,,0,0,0,10.00,24.00,1613.00,0.00,0.00,0.00,14,30.00,30.00,5.52,0.00,0.00,-30.00,0,,,100,100,13,2,0,0,1,1,0,,,,,0.0,0.0,0.0,0.0,0.0,0.0,0
-22.959732,-67.786901,3.30,0.00,3.20,0.56,3.30,3.30,3.20,0.56,3221,2025-11-27 18:26:13.025,2025-11-27 19:26:13.025,16,0,0,49.730,-22.959732,-67.786907,0.00,0.00,-3.20,-0.60,2.50,161.30,0,1,0,85,88,-31947,12207,49730,3001.50,50,WP,1,0,0,0,0,0,0,1764267973024,4199,4201,4194,4207,4206,4207,18,,,,,,,0,0,0,6.00,25.00,1613.00,0.00,0.00,0.00,14,33.00,32.00,5.56,0.00,0.00,-32.00,0,,,100,100,13,2,0,0,1,1,0,,,,,0.0,0.0,0.0,0.0,0.0,0.0,0
-22.959732,-67.786901,3.60,0.00,3.30,0.56,3.60,3.60,3.30,0.56,3325,2025-11-27 18:26:13.129,2025-11-27 19:26:13.129,16,0,0,49.730,-22.959732,-67.786907,0.00,0.00,-3.30,0.00,2.70,161.40,0,1,0,85,88,-31947,12207,49730,3001.50,50,WP,1,0,0,0,0,0,0,1764267973128,4199,4201,4194,4207,4206,4207,18,,,,,,,0,0,0,-0.00,27.00,1614.00,0.00,0.00,0.00,14,36.00,33.00,5.56,0.00,0.00,-33.00,0,,,100,100,13,2,0,0,1,1,0,,,,,0.0,0.0,0.0,0.0,0.0,0.0,0
-22.959732,-67.786901,3.90,0.00,3.30,0.56,3.90,3.90,3.30,0.56,3429,2025-11-27 18:26:13.232,2025-11-27 19:26:13.233,16,0,0,49.730,-22.959732,-67.786907,0.00,0.00,-3.30,0.60,2.90,161.60,0,1,0,85,88,-31947,12207,49730,3001.50,50,WP,1,0,0,0,0,0,0,1764267973232,4199,4201,4194,4207,4206,4207,18,,,,,,,0,0,0,-6.00,29.00,1616.00,0.00,0.00,0.00,14,39.00,33.00,5.57,0.00,0.00,-33.00,0,,,100,100,13,2,0,0,1,1,0,,,,,0.0,0.0,0.0,0.0,0.0,0.0,0
-22.959732,-67.786901,4.30,0.00,3.30,0.54,4.30,4.30,3.30,0.56,3525,2025-11-27 18:26:13.329,2025-11-27 19:26:13.329,16,0,0,49.730,-22.959732,-67.786907,0.00,-0.10,-3.30,1.30,2.80,161.80,0,1,0,85,88,-31947,12207,49730,3001.50,50,WP,1,0,0,0,0,0,0,1764267973328,4199,4201,4194,4207,4206,4207,18,,,,,,,0,0,0,-13.00,28.00,1618.00,0.00,0.00,0.00,14,43.00,33.02,5.43,0.00,-1.00,-33.00,0,,,100,100,13,2,0,0,1,1,0,,,,,0.0,0.0,0.0,0.0,0.0,0.0,0
-22.959732,-67.786902,4.60,0.00,3.30,0.53,4.60,4.60,3.30,0.56,3626,2025-11-27 18:26:13.430,2025-11-27 19:26:13.430,16,0,0,49.730,-22.959732,-67.786907,0.10,-0.10,-3.30,1.70,2.50,161.80,0,1,0,85,88,-31947,12207,49730,3001.50,50,WP,1,0,0,0,0,0,0,1764267973429,4199,4201,4194,4207,4206,4207,18,,,,,,,0,0,0,-17.00,25.00,1618.00,0.00,0.00,0.00,14,46.00,33.03,5.28,1.00,-1.00,-33.00,0,,,100,100,13,2,0,0,1,1,0,,,,,0.0,0.0,0.0,0.0,0.0,0.0,0
-22.959732,-67.786902,4.90,0.00,3.31,0.49,4.90,4.90,3.31,0.56,3723,2025-11-27 18:26:13.526,2025-11-27 19:26:13.526,16,0,0,49.730,-22.959732,-67.786907,0.10,-0.20,-3.30,1.30,2.30,161.70,0,1,0,85,88,-31947,12207,49730,3001.50,50,WP,1,0,0,0,0,0,0,1764267973526,4199,4201,4194,4207,4206,4207,18,,,,,,,0,0,0,-13.00,23.00,1617.00,0.00,0.00,0.00,14,49.00,33.08,4.93,1.00,-2.00,-33.00,0,,,100,100,13,2,0,0,1,1,0,,,,,0.0,0.0,0.0,0.0,0.0,0.0,0
-22.959732,-67.786902,5.20,0.00,3.21,0.46,5.20,5.20,3.31,0.56,3828,2025-11-27 18:26:13.632,2025-11-27 19:26:13.632,16,0,0,49.730,-22.959732,-67.786907,0.10,-0.20,-3.20,0.30,1.70,161.50,0,1,0,85,88,-31947,12207,49730,3001.50,50,WP,1,0,0,0,0,0,0,1764267973631,4199,4201,4194,4207,4206,4207,18,,,,,,,0,0,0,-3.00,17.00,1615.00,0.00,0.00,0.00,14,52.00,32.08,4.61,1.00,-2.00,-32.00,0,,,100,100,13,2,0,0,1,1,0,,,,,0.0,0.0,0.0,0.0,0.0,0.0,0
-22.959732,-67.786903,5.50,0.00,3.21,0.41,5.50,5.50,3.31,0.56,3930,2025-11-27 18:26:13.733,2025-11-27 19:26:13.733,16,0,0,47.845,-22.959732,-67.786907,0.20,-0.20,-3.20,-0.70,0.60,161.40,0,1,0,85,88,-35311,12207,47845,3001.50,50,WP,1,0,0,0,0,0,0,1764267973733,4199,4201,4194,4207,4206,4207,18,,,,,,,0,0,0,7.00,6.00,1614.00,0.00,0.00,0.00,14,55.00,32.12,4.13,2.00,-2.00,-32.00,0,,,100,100,13,2,0,0,1,1,0,,,,,0.0,0.0,0.0,0.0,0.0,0.0,0
-22.959731,-67.786903,5.80,0.00,3.21,0.38,5.80,5.80,3.31,0.56,4027,2025-11-27 18:26:13.831,2025-11-27 19:26:13.831,16,0,0,47.845,-22.959732,-67.786907,0.20,-0.20,-3.20,-1.90,0.00,161.30,0,1,0,85,88,-35311,12207,47845,3001.50,50,WP,1,0,0,0,0,0,0,1764267973830,4199,4201,4194,4207,4206,4207,18,,,,,,,0,0,0,19.00,0.00,1613.00,0.00,0.00,0.00,14,58.00,32.12,3.77,2.00,-2.00,-32.00,0,,,100,100,13,2,0,0,1,1,0,,,,,0.0,0.0,0.0,0.0,0.0,0.0,0
-22.959731,-67.786903,6.10,0.00,3.11,0.34,6.10,6.10,3.31,0.56,4130,2025-11-27 18:26:13.933,2025-11-27 19:26:13.933,16,0,0,47.845,-22.959732,-67.786907,0.10,-0.20,-3.10,-2.70,-0.30,161.30,0,1,0,85,88,-35311,12207,47845,3001.50,50,WP,1,0,0,0,0,0,0,1764267973933,4199,4201,4194,4207,4206,4207,18,,,,,,,0,0,0,27.00,-3.00,1613.00,0.00,0.00,0.00,14,61.00,31.08,3.37,1.00,-2.00,-31.00,0,,,100,100,13,2,0,0,1,1,0,,,,,0.0,0.0,0.0,0.0,0.0,0.0,0
-22.959731,-67.786904,6.40,0.00,3.10,0.31,6.40,6.40,3.31,0.56,4231,2025-11-27 18:26:14.035,2025-11-27 19:26:14.035,16,0,0,47.845,-22.959732,-67.786907,0.10,-0.10,-3.10,-3.00,-0.50,161.30,0,1,0,85,88,-35311,12207,47845,3001.50,50,WP,1,0,0,0,0,0,0,1764267974034,4199,4201,4194,4207,4206,4207,18,,,,,,,0,0,0,30.00,-5.00,1613.00,0.00,0.00,0.00,14,64.00,31.03,3.13,1.00,-1.00,-31.00,0,,,100,100,13,2,0,0,1,1,0,,,,,0.0,0.0,0.0,0.0,0.0,0.0,0
-22.959731,-67.786904,6.70,0.00,3.10,0.29,6.70,6.70,3.31,0.56,4330,2025-11-27 18:26:14.134,2025-11-27 19:26:14.134,16,0,0,47.845,-22.959732,-67.786907,0.10,-0.10,-3.10,-3.20,-0.60,161.20,0,1,0,85,88,-35311,12207,47845,3001.50,50,WP,1,0,0,0,0,0,0,1764267974133,4199,4201,4194,4207,4206,4207,18,,,,,,,0,0,0,32.00,-6.00,1612.00,0.00,0.00,0.00,14,67.00,31.03,2.92,1.00,-1.00,-31.00,0,,,100,100,13,2,0,0,1,1,0,,,,,0.0,0.0,0.0,0.0,0.0,0.0,0
-22.959731,-67.786904,7.00,0.00,3.10,0.29,7.00,7.00,3.31,0.56,4432,2025-11-27 18:26:14.235,2025-11-27 19:26:14.235,16,0,0,47.845,-22.959732,-67.786907,0.10,0.00,-3.10,-3.20,-0.50,161.30,0,1,0,85,88,-35311,12207,47845,3001.50,50,WP,1,0,0,0,0,0,0,1764267974235,4199,4201,4194,4207,4206,4207,18,,,,,,,0,0,0,32.00,-5.00,1613.00,0.00,0.00,0.00,14,70.00,31.02,2.86,1.00,0.00,-31.00,0,,,100,100,13,2,0,0,1,1,0,,,,,0.0,0.0,0.0,0.0,0.0,0.0,0
-22.959730,-67.786904,7.40,0.00,3.10,0.28,7.40,7.40,3.31,0.56,4530,2025-11-27 18:26:14.333,2025-11-27 19:26:14.333,16,0,0,47.845,-22.959732,-67.786907,0.00,0.00,-3.10,-2.80,-0.10,161.30,0,1,0,85,88,-35311,12207,47845,3001.50,50,WP,1,0,0,0,0,0,0,1764267974333,4199,4201,4194,4207,4206,4207,18,,,,,,,0,0,0,28.00,-1.00,1613.00,0.00,0.00,0.00,14,74.00,31.00,2.84,0.00,0.00,-31.00,0,,,100,100,13,2,0,0,1,1,0,,,,,0.0,0.0,0.0,0.0,0.0,0.0,0
-22.959730,-67.786904,7.60,0.00,3.10,0.29,7.60,7.60,3.31,0.56,4632,2025-11-27 18:26:14.436,2025-11-27 19:26:14.436,16,0,0,47.845,-22.959732,-67.786907,0.00,0.00,-3.10,-2.30,0.10,161.30,0,1,0,85,88,-35311,12207,47845,3001.50,50,WP,1,0,0,0,0,0,0,1764267974435,4199,4201,4194,4207,4206,4207,18,,,,,,,0,0,0,23.00,1.00,1613.00,0.00,0.00,0.00,14,76.00,31.00,2.86,0.00,0.00,-31.00,0,,,100,100,13,2,0,0,1,1,0,,,,,0.0,0.0,0.0,0.0,0.0,0.0,0
-22.959730,-67.786904,8.00,0.00,3.10,0.29,8.00,8.00,3.31,0.56,4733,2025-11-27 18:26:14.537,2025-11-27 19:26:14.537,16,0,0,47.845,-22.959732,-67.786907,0.00,0.00,-3.10,-2.00,0.40,161.30,0,1,0,85,88,-35311,12207,47845,3001.50,50,WP,1,0,0,0,0,0,0,1764267974536,4199,4201,4194,4207,4206,4207,18,,,,,,,0,0,0,20.00,4.00,1613.00,0.00,0.00,0.00,14,80.00,31.00,2.91,0.00,0.00,-31.00,0,,,100,100,13,2,0,0,1,1,0,,,,,0.0,0.0,0.0,0.0,0.0,0.0,0
-22.959730,-67.786904,8.20,0.00,3.10,0.30,8.20,8.20,3.31,0.56,4844,2025-11-27 18:26:14.648,2025-11-27 19:26:14.648,16,0,0,47.845,-22.959732,-67.786907,0.00,0.00,-3.10,-2.20,0.60,161.30,0,1,0,85,88,-35311,12207,47845,3001.50,50,WP,1,0,0,0,0,0,0,1764267974647,4199,4201,4194,4207,4206,4207,18,,,,,,,0,0,0,22.00,6.00,1613.00,0.00,0.00,0.00,14,82.00,31.00,2.98,0.00,0.00,-31.00,0,,,100,100,13,2,0,0,1,1,0,,,,,0.0,0.0,0.0,0.0,0.0,0.0,0
-22.959730,-67.786904,8.60,0.00,3.10,0.31,8.60,8.60,3.31,0.56,4939,2025-11-27 18:26:14.743,2025-11-27 19:26:14.743,16,0,0,47.845,-22.959732,-67.786907,0.00,0.10,-3.10,-2.10,0.60,161.30,0,1,0,85,88,-35311,12207,47845,3001.50,50,WP,1,0,0,0,0,0,0,1764267974742,4199,4201,4194,4207,4206,4207,18,,,,,,,0,0,0,21.00,6.00,1613.00,0.00,0.00,0.00,14,86.00,31.02,3.08,0.00,1.00,-31.00,0,,,100,100,13,2,0,0,1,1,0,,,,,0.0,0.0,0.0,0.0,0.0,0.0,0
-22.959730,-67.786904,8.90,0.00,3.10,0.32,8.90,8.90,3.31,0.56,5045,2025-11-27 18:26:14.848,2025-11-27 19:26:14.849,16,0,0,47.845,-22.959732,-67.786907,0.00,0.10,-3.10,-1.50,1.10,161.30,0,1,0,85,88,-35311,12207,47845,3001.50,50,WP,1,0,0,0,0,0,0,1764267974848,3859,3884,3875,3894,3872,3879,18,,,,,,,0,0,0,15.00,11.00,1613.00,0.00,0.00,0.00,14,89.00,31.02,3.21,0.00,1.00,-31.00,0,,,100,100,13,2,0,0,1,1,0,,,,,0.0,0.0,0.0,0.0,0.0,0.0,0
-22.959730,-67.786904,9.20,0.00,3.20,0.33,9.20,9.20,3.31,0.56,5141,2025-11-27 18:26:14.945,2025-11-27 19:26:14.945,16,0,0,47.845,-22.959732,-67.786907,0.00,0.10,-3.20,-1.20,1.70,161.30,0,1,0,85,88,-35311,12207,47845,3001.50,50,WP,1,0,0,0,0,0,0,1764267974944,3859,3884,3875,3894,3872,3879,18,,,,,,,0,0,0,12.00,17.00,1613.00,0.00,0.00,0.00,14,92.00,32.02,3.34,0.00,1.00,-32.00,0,,,100,100,13,2,0,0,1,1,0,,,,,0.0,0.0,0.0,0.0,0.0,0.0,0
-22.959730,-67.786904,9.50,0.00,3.20,0.35,9.50,9.50,3.31,0.56,5244,2025-11-27 18:26:15.048,2025-11-27 19:26:15.048,16,0,0,47.845,-22.959732,-67.786907,0.00,0.10,-3.20,-0.90,2.00,161.30,0,1,0,85,88,-35311,12207,47845,3001.50,50,WP,1,0,0,0,0,0,0,1764267975047,3859,3884,3875,3894,3872,3879,18,,,,,,,0,0,0,9.00,20.00,1613.00,0.00,0.00,0.00,14,95.00,32.02,3.48,0.00,1.00,-32.00,0,,,100,100,13,2,0,0,1,1,0,,,,,0.0,0.0,0.0,0.0,0.0,0.0,0
-22.959730,-67.786903,9.90,0.00,3.20,0.36,9.90,9.90,3.31,0.56,5345,2025-11-27 18:26:15.149,2025-11-27 19:26:15.149,16,0,0,47.845,-22.959732,-67.786907,0.00,0.10,-3.20,-0.80,2.40,161.30,0,1,0,85,88,-35311,12207,47845,3001.50,50,WP,1,0,0,0,0,0,0,1764267975148,3859,3884,3875,3894,3872,3879,18,,,,,,,0,0,0,8.00,24.00,1613.00,0.00,0.00,0.00,14,99.00,32.02,3.56,0.00,1.00,-32.00,0,,,100,100,13,2,0,0,1,1,0,,,,,0.0,0.0,0.0,0.0,0.0,0.0,0
-22.959730,-67.786903,10.20,0.00,3.20,0.36,10.20,10.20,3.31,0.56,5439,2025-11-27 18:26:15.243,2025-11-27 19:26:15.243,16,0,0,47.845,-22.959732,-67.786907,0.00,0.00,-3.20,-0.90,2.70,161.30,0,1,0,85,88,-35311,12207,47845,3001.50,50,WP,1,0,0,0,0,0,0,1764267975242,3859,3884,3875,3894,3872,3879,18,,,,,,,0,0,0,9.00,27.00,1613.00,0.00,0.00,0.00,14,102.00,32.00,3.64,0.00,0.00,-32.00,0,,,100,100,13,2,0,0,1,1,0,,,,,0.0,0.0,0.0,0.0,0.0,0.0,0
-22.959730,-67.786903,10.50,0.00,3.10,0.36,10.50,10.50,3.31,0.56,5544,2025-11-27 18:26:15.348,2025-11-27 19:26:15.348,16,0,0,47.845,-22.959732,-67.786907,0.00,0.00,-3.10,-1.00,2.80,161.30,0,1,0,85,88,-35311,12207,47845,3001.50,50,WP,1,0,0,0,0,0,0,1764267975347,3859,3884,3875,3894,3872,3879,18,,,,,,,0,0,0,10.00,28.00,1613.00,0.00,0.00,0.00,14,105.00,31.00,3.64,0.00,0.00,-31.00,0,,,100,100,13,2,0,0,1,1,0,,,,,0.0,0.0,0.0,0.0,0.0,0.0,0
-22.959730,-67.786903,10.80,0.00,3.10,0.37,10.80,10.80,3.31,0.56,5638,2025-11-27 18:26:15.442,2025-11-27 19:26:15.442,16,0,0,47.845,-22.959732,-67.786907,0.00,0.00,-3.10,-1.20,2.60,161.30,0,1,0,85,88,-35311,12207,47845,3001.50,50,WP,1,0,0,0,0,0,0,1764267975441,3859,3884,3875,3894,3872,3879,18,,,,,,,0,0,0,12.00,26.00,1613.00,0.00,0.00,0.00,14,108.00,31.00,3.66,0.00,0.00,-31.00,0,,,100,100,13,2,0,0,1,1,0,,,,,0.0,0.0,0.0,0.0,0.0,0.0,0
-22.959730,-67.786904,11.10,0.00,3.10,0.36,11.10,11.10,3.31,0.56,5743,2025-11-27 18:26:15.547,2025-11-27 19:26:15.547,16,0,0,47.845,-22.959732,-67.786907,0.00,0.00,-3.10,-1.40,2.50,161.30,0,1,0,85,88,-35311,12207,47845,3001.50,50,WP,1,0,0,0,0,0,0,1764267975546,3859,3884,3875,3894,3872,3879,18,,,,,,,0,0,0,14.00,25.00,1613.00,0.00,0.00,0.00,14,111.00,31.00,3.57,0.00,0.00,-31.00,0,,,100,100,13,2,0,0,1,1,0,,,,,0.0,0.0,0.0,0.0,0.0,0.0,0
-22.959730,-67.786904,11.40,0.00,3.10,0.35,11.40,11.40,3.31,0.56,5845,2025-11-27 18:26:15.648,2025-11-27 19:26:15.648,16,0,0,47.845,-22.959732,-67.786907,0.00,0.00,-3.10,-1.50,2.10,161.30,0,1,0,85,88,-35311,12207,47845,3001.50,50,WP,1,0,0,0,0,0,0,1764267975648,3859,3884,3875,3894,3872,3879,18,,,,,,,0,0,0,15.00,21.00,1613.00,0.00,0.00,0.00,14,114.00,31.00,3.51,0.00,0.00,-31.00,0,,,100,100,13,2,0,0,1,1,0,,,,,0.0,0.0,0.0,0.0,0.0,0.0,0
-22.959730,-67.786904,11.70,0.00,3.10,0.34,11.70,11.70,3.31,0.56,5943,2025-11-27 18:26:15.747,2025-11-27 19:26:15.747,16,0,0,47.008,-22.959732,-67.786907,0.00,0.00,-3.10,-1.60,1.70,161.30,0,1,0,85,88,-38995,12207,47008,3001.50,50,WP,1,0,0,0,0,0,0,1764267975746,3859,3884,3875,3894,3872,3879,18,,,,,,,0,0,0,16.00,17.00,1613.00,0.00,0.00,0.00,14,117.00,31.00,3.41,0.00,0.00,-31.00,0,,,100,100,13,2,0,0,1,1,0,,,,,0.0,0.0,0.0,0.0,0.0,0.0,0
-22.959730,-67.786904,12.00,0.00,3.10,0.34,12.00,12.00,3.31,0.56,6042,2025-11-27 18:26:15.845,2025-11-27 19:26:15.845,16,0,0,47.008,-22.959732,-67.786907,0.00,0.00,-3.10,-1.40,1.40,161.30,0,1,0,85,88,-38995,12207,47008,3001.50,50,WP,1,0,0,0,0,0,0,1764267975845,3859,3884,3875,3894,3872,3879,18,,,,,,,0,0,0,14.00,14.00,1613.00,0.00,0.00,0.00,14,120.00,31.00,3.39,0.00,0.00,-31.00,0,,,100,100,13,2,0,0,1,1,0,,,,,0.0,0.0,0.0,0.0,0.0,0.0,0
-22.959730,-67.786904,12.40,0.00,3.10,0.33,12.40,12.40,3.31,0.56,6145,2025-11-27 18:26:15.949,2025-11-27 19:26:15.949,16,0,0,47.008,-22.959732,-67.786907,0.00,0.00,-3.10,-1.40,1.30,161.30,0,1,0,85,88,-38995,12207,47008,3001.50,50,WP,1,0,0,0,0,0,0,1764267975948,3859,3884,3875,3894,3872,3879,18,,,,,,,0,0,0,14.00,13.00,1613.00,0.00,0.00,0.00,14,124.00,31.00,3.31,0.00,0.00,-31.00,0,,,100,100,13,2,0,0,1,1,0,,,,,0.0,0.0,0.0,0.0,0.0,0.0,0
-22.959730,-67.786904,12.70,0.00,3.10,0.33,12.70,12.70,3.31,0.56,6247,2025-11-27 18:26:16.050,2025-11-27 19:26:16.051,16,0,0,47.008,-22.959732,-67.786907,0.00,0.00,-3.10,-1.30,1.00,161.20,0,1,0,85,88,-38995,12207,47008,3001.50,50,WP,1,0,0,0,0,0,0,1764267976050,3859,3884,3875,3894,3872,3879,18,,,,,,,0,0,0,13.00,10.00,1612.00,0.00,0.00,0.00,14,127.00,31.00,3.27,0.00,0.00,-31.00,0,,,100,100,13,2,0,0,1,1,0,,,,,0.0,0.0,0.0,0.0,0.0,0.0,0
-22.959730,-67.786904,13.00,0.00,3.10,0.32,13.00,13.00,3.31,0.56,6346,2025-11-27 18:26:16.150,2025-11-27 19:26:16.150,16,0,0,47.008,-22.959732,-67.786907,0.00,0.00,-3.10,-1.00,0.80,161.20,0,1,0,85,88,-38995,12207,47008,3001.50,50,WP,1,0,0,0,0,0,0,1764267976149,3859,3884,3875,3894,3872,3879,18,,,,,,,0,0,0,10.00,8.00,1612.00,0.00,0.00,0.00,14,130.00,31.00,3.19,0.00,0.00,-31.00,0,,,100,100,13,2,0,0,1,1,0,,,,,0.0,0.0,0.0,0.0,0.0,0.0,0
-22.959731,-67.786904,13.30,0.00,3.10,0.32,13.30,13.30,3.31,0.56,6445,2025-11-27 18:26:16.248,2025-11-27 19:26:16.248,16,0,0,47.008,-22.959732,-67.786907,-0.10,0.00,-3.10,-1.00,0.80,161.20,0,1,0,85,88,-38995,12207,47008,3001.50,50,WP,1,0,0,0,0,0,0,1764267976248,3859,3884,3875,3894,3872,3879,18,,,,,,,0,0,0,10.00,8.00,1612.00,0.00,0.00,0.00,14,133.00,31.02,3.18,-1.00,0.00,-31.00,0,,,100,100,13,2,0,0,1,1,0,,,,,0.0,0.0,0.0,0.0,0.0,0.0,0
-22.959731,-67.786904,13.60,0.00,3.10,0.32,13.60,13.60,3.31,0.56,6548,2025-11-27 18:26:16.352,2025-11-27 19:26:16.352,16,0,0,47.008,-22.959732,-67.786907,-0.10,0.10,-3.10,-1.10,1.20,161.20,0,1,0,85,88,-38995,12207,47008,3001.50,50,WP,1,0,0,0,0,0,0,1764267976351,3859,3884,3875,3894,3872,3879,18,,,,,,,0,0,0,11.00,12.00,1612.00,0.00,0.00,0.00,14,136.00,31.03,3.15,-1.00,1.00,-31.00,0,,,100,100,13,2,0,0,1,1,0,,,,,0.0,0.0,0.0,0.0,0.0,0.0,0
-22.959731,-67.786904,13.90,0.00,3.00,0.32,13.90,13.90,3.31,0.56,6645,2025-11-27 18:26:16.448,2025-11-27 19:26:16.449,16,0,0,47.008,-22.959732,-67.786907,-0.10,0.10,-3.00,-1.30,1.60,161.20,0,1,0,85,88,-38995,12207,47008,3001.50,50,WP,1,0,0,0,0,0,0,1764267976448,3859,3884,3875,3894,3872,3879,18,,,,,,,0,0,0,13.00,16.00,1612.00,0.00,0.00,0.00,14,139.00,30.03,3.20,-1.00,1.00,-30.00,0,,,100,100,13,2,0,0,1,1,0,,,,,0.0,0.0,0.0,0.0,0.0,0.0,0
-22.959731,-67.786904,14.20,0.00,3.00,0.33,14.20,14.20,3.31,0.56,6750,2025-11-27 18:26:16.554,2025-11-27 19:26:16.554,16,0,0,47.008,-22.959732,-67.786907,-0.10,0.10,-3.00,-1.00,1.90,161.20,0,1,0,85,88,-38995,12207,47008,3001.50,50,WP,1,0,0,0,0,0,0,1764267976553,3859,3884,3875,3894,3872,3879,18,,,,,,,0,0,0,10.00,19.00,1612.00,0.00,0.00,0.00,14,142.00,30.03,3.27,-1.00,1.00,-30.00,0,,,100,96,13,2,0,0,1,1,0,,,,,0.0,0.0,0.0,0.0,0.0,0.0,0
-22.959731,-67.786903,14.50,0.00,3.00,0.34,14.50,14.50,3.31,0.56,6852,2025-11-27 18:26:16.656,2025-11-27 19:26:16.656,16,0,0,47.008,-22.959732,-67.786907,-0.10,0.10,-3.00,-0.70,2.20,161.30,0,1,0,85,88,-38995,12207,47008,3001.50,50,WP,1,0,0,0,0,0,0,1764267976655,3859,3884,3875,3894,3872,3879,18,,,,,,,0,0,0,7.00,22.00,1613.00,0.00,0.00,0.00,14,145.00,30.03,3.39,-1.00,1.00,-30.00,0,,,100,96,13,2,0,0,1,1,0,,,,,0.0,0.0,0.0,0.0,0.0,0.0,0
-22.959731,-67.786903,14.80,0.00,3.00,0.35,14.80,14.80,3.31,0.56,6952,2025-11-27 18:26:16.756,2025-11-27 19:26:16.756,16,0,0,47.008,-22.959732,-67.786907,-0.10,0.10,-3.00,-0.10,2.40,161.30,0,1,0,85,88,-38995,12207,47008,3001.50,50,WP,1,0,0,0,0,0,0,1764267976755,3859,3884,3875,3894,3872,3879,18,,,,,,,0,0,0,1.00,24.00,1613.00,0.00,0.00,0.00,14,148.00,30.03,3.49,-1.00,1.00,-30.00,0,,,100,96,13,2,0,0,1,1,0,,,,,0.0,0.0,0.0,0.0,0.0,0.0,0
-22.959731,-67.786903,15.10,0.00,3.00,0.36,15.10,15.10,3.31,0.56,7049,2025-11-27 18:26:16.852,2025-11-27 19:26:16.852,16,0,0,47.008,-22.959732,-67.786907,-0.10,0.10,-3.00,0.30,2.50,161.40,0,1,0,85,88,-38995,12207,47008,3001.50,50,WP,1,0,0,0,0,0,0,1764267976852,3859,3884,3875,3894,3872,3879,18,,,,,,,0,0,0,-3.00,25.00,1614.00,0.00,0.00,0.00,14,151.00,30.03,3.62,-1.00,1.00,-30.00,0,,,100,96,13,2,0,0,1,1,0,,,,,0.0,0.0,0.0,0.0,0.0,0.0,0
-22.959732,-67.786903,15.40,0.00,3.00,0.37,15.40,15.40,3.31,0.56,7160,2025-11-27 18:26:16.963,2025-11-27 19:26:16.963,16,0,0,47.008,-22.959732,-67.786907,-0.10,0.10,-3.00,0.50,2.70,161.40,0,1,0,85,88,-38995,12207,47008,3001.50,50,WP,1,0,0,0,0,0,0,1764267976963,3859,3884,3875,3894,3872,3879,18,,,,,,,0,0,0,-5.00,27.00,1614.00,0.00,0.00,0.00,14,154.00,30.03,3.70,-1.00,1.00,-30.00,0,,,100,96,13,2,0,0,1,1,0,,,,,0.0,0.0,0.0,0.0,0.0,0.0,0
-22.959732,-67.786903,15.70,0.00,2.90,0.38,15.70,15.70,3.31,0.56,7253,2025-11-27 18:26:17.056,2025-11-27 19:26:17.056,16,0,0,47.008,-22.959732,-67.786907,-0.10,0.10,-2.90,0.50,2.80,161.40,0,1,0,85,88,-38995,12207,47008,3001.50,50,WP,1,0,0,0,0,0,0,1764267977056,3859,3884,3875,3894,3872,3879,18,,,,,,,0,0,0,-5.00,28.00,1614.00,0.00,0.00,0.00,14,157.00,29.03,3.83,-1.00,1.00,-29.00,0,,,100,95,13,2,0,0,1,1,0,,,,,0.0,0.0,0.0,0.0,0.0,0.0,0
-22.959732,-67.786903,16.00,0.00,2.70,0.39,16.00,16.00,3.31,0.56,7359,2025-11-27 18:26:17.163,2025-11-27 19:26:17.163,16,0,0,47.008,-22.959732,-67.786907,-0.10,0.10,-2.70,0.30,3.00,161.30,0,1,0,85,88,-38995,12207,47008,3001.50,50,WP,1,0,0,0,0,0,0,1764267977162,3859,3884,3875,3894,3872,3879,18,,,,,,,0,0,0,-3.00,30.00,1613.00,0.00,0.00,0.00,14,160.00,27.04,3.94,-1.00,1.00,-27.00,0,,,100,95,13,2,0,0,1,1,0,,,,,0.0,0.0,0.0,0.0,0.0,0.0,0
-22.959732,-67.786903,16.30,0.00,2.60,0.41,16.30,16.30,3.31,0.56,7453,2025-11-27 18:26:17.256,2025-11-27 19:26:17.257,16,0,0,47.008,-22.959732,-67.786907,-0.10,0.10,-2.60,0.20,3.10,161.30,0,1,0,85,88,-38995,12207,47008,3001.50,50,WP,1,0,0,0,0,0,0,1764267977256,3859,3884,3875,3894,3872,3879,18,,,,,,,0,0,0,-2.00,31.00,1613.00,0.00,0.00,0.00,14,163.00,26.04,4.09,-1.00,1.00,-26.00,0,,,100,95,13,2,0,0,1,1,0,,,,,0.0,0.0,0.0,0.0,0.0,0.0,0
-22.959732,-67.786903,16.50,0.00,2.40,0.42,16.50,16.50,3.31,0.56,7561,2025-11-27 18:26:17.364,2025-11-27 19:26:17.364,16,0,0,47.008,-22.959732,-67.786907,-0.10,0.00,-2.40,0.00,3.30,161.30,0,1,0,85,88,-38995,12207,47008,3001.50,50,WP,1,0,0,0,0,0,0,1764267977364,3859,3884,3875,3894,3872,3879,18,,,,,,,0,0,0,-0.00,33.00,1613.00,0.00,0.00,0.00,14,165.00,24.02,4.18,-1.00,0.00,-24.00,0,,,100,95,13,2,0,0,1,1,0,,,,,0.0,0.0,0.0,0.0,0.0,0.0,0
-22.959732,-67.786903,16.70,0.00,2.20,0.43,16.70,16.70,3.31,0.56,7657,2025-11-27 18:26:17.461,2025-11-27 19:26:17.461,16,0,0,47.008,-22.959732,-67.786907,-0.10,0.00,-2.20,0.00,3.30,161.30,0,1,0,85,88,-38995,12207,47008,3001.50,50,WP,1,0,0,0,0,0,0,1764267977460,3859,3884,3875,3894,3872,3879,18,,,,,,,0,0,0,-0.00,33.00,1613.00,0.00,0.00,0.00,14,167.00,22.02,4.28,-1.00,0.00,-22.00,0,,,100,95,13,2,0,0,1,1,0,,,,,0.0,0.0,0.0,0.0,0.0,0.0,0
-22.959732,-67.786903,17.00,0.00,2.10,0.44,17.00,17.00,3.31,0.56,7756,2025-11-27 18:26:17.559,2025-11-27 19:26:17.559,16,0,0,47.008,-22.959732,-67.786907,-0.10,0.00,-2.10,0.00,3.20,161.30,0,1,0,85,88,-38995,12207,47008,3001.50,50,WP,1,0,0,0,0,0,0,1764267977559,3859,3884,3875,3894,3872,3879,18,,,,,,,0,0,0,-0.00,32.00,1613.00,0.00,0.00,0.00,14,170.00,21.02,4.35,-1.00,0.00,-21.00,0,,,100,95,13,2,0,0,1,1,0,,,,,0.0,0.0,0.0,0.0,0.0,0.0,0
-22.959733,-67.786902,17.10,0.00,1.90,0.44,17.10,17.10,3.31,0.56,7858,2025-11-27 18:26:17.662,2025-11-27 19:26:17.662,16,0,0,47.008,-22.959732,-67.786907,-0.10,0.00,-1.90,0.20,3.00,161.30,0,1,0,85,88,-38995,12207,47008,3001.50,50,WP,1,0,0,0,0,0,0,1764267977661,3859,3884,3875,3894,3872,3879,18,,,,,,,0,0,0,-2.00,30.00,1613.00,0.00,0.00,0.00,14,171.00,19.03,4.43,-1.00,0.00,-19.00,0,,,100,95,13,2,0,0,1,1,0,,,,,0.0,0.0,0.0,0.0,0.0,0.0,0
-22.959733,-67.786902,17.30,0.00,1.80,0.45,17.30,17.30,3.31,0.56,7961,2025-11-27 18:26:17.765,2025-11-27 19:26:17.765,16,0,0,47.020,-22.959732,-67.786907,-0.10,0.00,-1.80,0.50,2.70,161.30,0,1,0,84,88,-41273,12111,47020,3001.50,50,WP,1,0,0,0,0,0,0,1764267977764,3859,3884,3875,3894,3872,3879,18,,,,,,,0,0,0,-5.00,27.00,1613.00,0.00,0.00,0.00,14,173.00,18.03,4.49,-1.00,0.00,-18.00,0,,,100,95,13,2,0,0,1,1,0,,,,,0.0,0.0,0.0,0.0,0.0,0.0,0
-22.959733,-67.786902,17.50,0.00,1.70,0.46,17.50,17.50,3.31,0.56,8062,2025-11-27 18:26:17.866,2025-11-27 19:26:17.866,16,0,0,47.020,-22.959732,-67.786907,-0.10,0.00,-1.70,0.60,2.50,161.30,0,1,0,84,88,-41273,12111,47020,3001.50,50,WP,1,0,0,0,0,0,0,1764267977865,3859,3884,3875,3894,3872,3879,18,,,,,,,0,0,0,-6.00,25.00,1613.00,0.00,0.00,0.00,14,175.00,17.03,4.57,-1.00,0.00,-17.00,0,,,100,95,13,2,0,0,1,1,0,,,,,0.0,0.0,0.0,0.0,0.0,0.0,0
-22.959733,-67.786902,17.70,0.00,1.60,0.46,17.70,17.70,3.31,0.56,8159,2025-11-27 18:26:17.963,2025-11-27 19:26:17.963,16,0,0,47.020,-22.959732,-67.786907,-0.10,0.00,-1.60,0.80,2.50,161.30,0,1,0,84,88,-41273,12111,47020,3001.50,50,WP,1,0,0,0,0,0,0,1764267977962,3859,3884,3875,3894,3872,3879,18,,,,,,,0,0,0,-8.00,25.00,1613.00,0.00,0.00,0.00,14,177.00,16.03,4.64,-1.00,0.00,-16.00,0,,,100,95,13,2,0,0,1,1,0,,,,,0.0,0.0,0.0,0.0,0.0,0.0,0
-22.959733,-67.786902,17.80,0.00,1.50,0.47,17.80,17.80,3.31,0.56,8262,2025-11-27 18:26:18.066,2025-11-27 19:26:18.066,16,0,0,47.020,-22.959732,-67.786907,-0.10,0.00,-1.50,0.90,2.60,161.30,0,1,0,84,88,-41273,12111,47020,3001.50,50,WP,1,0,0,0,0,0,0,1764267978065,3859,3884,3875,3894,3872,3879,18,,,,,,,0,0,0,-9.00,26.00,1613.00,0.00,0.00,0.00,14,178.00,15.03,4.72,-1.00,0.00,-15.00,0,,,100,99,13,2,0,0,1,1,0,,,,,0.0,0.0,0.0,0.0,0.0,0.0,0
-22.959733,-67.786902,18.00,0.00,1.40,0.48,18.00,18.00,3.31,0.56,8364,2025-11-27 18:26:18.168,2025-11-27 19:26:18.168,16,0,0,47.020,-22.959732,-67.786907,-0.10,0.00,-1.40,0.90,2.70,161.30,0,1,0,84,88,-41273,12111,47020,3001.50,50,WP,1,0,0,0,0,0,0,1764267978167,3859,3884,3875,3894,3872,3879,18,,,,,,,0,0,0,-9.00,27.00,1613.00,0.00,0.00,0.00,14,180.00,14.04,4.80,-1.00,0.00,-14.00,0,,,100,99,13,2,0,0,1,1,0,,,,,0.0,0.0,0.0,0.0,0.0,0.0,0
-22.959733,-67.786902,18.10,0.00,1.40,0.49,18.10,18.10,3.31,0.56,8461,2025-11-27 18:26:18.265,2025-11-27 19:26:18.265,16,0,0,47.020,-22.959732,-67.786907,0.00,0.00,-1.40,0.90,2.90,161.30,0,1,0,84,88,-41273,12111,47020,3001.50,50,WP,1,0,0,0,0,0,0,1764267978264,3859,3884,3875,3894,3872,3879,18,,,,,,,0,0,0,-9.00,29.00,1613.00,0.00,0.00,0.00,14,181.00,14.00,4.87,0.00,0.00,-14.00,0,,,100,99,13,2,0,0,1,1,0,,,,,0.0,0.0,0.0,0.0,0.0,0.0,0
-22.959733,-67.786902,18.30,0.00,1.40,0.49,18.30,18.30,3.31,0.56,8564,2025-11-27 18:26:18.367,2025-11-27 19:26:18.367,16,0,0,47.020,-22.959732,-67.786907,0.00,0.00,-1.40,1.00,3.00,161.40,0,1,0,84,88,-41273,12111,47020,3001.50,50,WP,1,0,0,0,0,0,0,1764267978367,3859,3884,3875,3894,3872,3879,18,,,,,,,0,0,0,-10.00,30.00,1614.00,0.00,0.00,0.00,14,183.00,14.00,4.90,0.00,0.00,-14.00,0,,,100,99,13,2,0,0,1,1,0,,,,,0.0,0.0,0.0,0.0,0.0,0.0,0
-22.959733,-67.786902,18.40,0.00,1.30,0.49,18.40,18.40,3.31,0.56,8666,2025-11-27 18:26:18.470,2025-11-27 19:26:18.470,16,0,0,47.020,-22.959732,-67.786907,0.00,0.00,-1.30,1.00,3.00,161.30,0,1,0,84,88,-41273,12111,47020,3001.50,50,WP,1,0,0,0,0,0,0,1764267978469,3859,3884,3875,3894,3872,3879,18,,,,,,,0,0,0,-10.00,30.00,1613.00,0.00,0.00,0.00,14,184.00,13.00,4.90,0.00,0.00,-13.00,0,,,100,99,13,2,0,0,1,1,0,,,,,0.0,0.0,0.0,0.0,0.0,0.0,0
-22.959733,-67.786902,18.60,0.00,1.30,0.49,18.60,18.60,3.31,0.56,8767,2025-11-27 18:26:18.571,2025-11-27 19:26:18.571,16,0,0,47.020,-22.959732,-67.786907,0.00,0.00,-1.30,0.60,2.90,161.30,0,1,0,84,88,-41273,12111,47020,3001.50,50,WP,1,0,0,0,0,0,0,1764267978570,3859,3884,3875,3894,3872,3879,18,,,,,,,0,0,0,-6.00,29.00,1613.00,0.00,0.00,0.00,14,186.00,13.00,4.85,0.00,0.00,-13.00,0,,,100,99,13,2,0,0,1,1,0,,,,,0.0,0.0,0.0,0.0,0.0,0.0,0
-22.959733,-67.786902,18.70,0.00,1.20,0.48,18.70,18.70,3.31,0.56,8868,2025-11-27 18:26:18.671,2025-11-27 19:26:18.672,16,0,0,47.020,-22.959732,-67.786907,0.00,0.00,-1.20,0.30,2.60,161.30,0,1,0,84,88,-41273,12111,47020,3001.50,50,WP,1,0,0,0,0,0,0,1764267978671,3859,3884,3875,3894,3872,3879,18,,,,,,,0,0,0,-3.00,26.00,1613.00,0.00,0.00,0.00,14,187.00,12.00,4.83,0.00,0.00,-12.00,0,,,100,99,13,2,0,0,1,1,0,,,,,0.0,0.0,0.0,0.0,0.0,0.0,0
-22.959733,-67.786902,18.90,0.00,1.20,0.48,18.90,18.90,3.31,0.56,8967,2025-11-27 18:26:18.771,2025-11-27 19:26:18.771,16,0,0,47.020,-22.959732,-67.786907,0.00,0.00,-1.20,0.10,2.40,161.30,0,1,0,84,88,-41273,12111,47020,3001.50,50,WP,1,0,0,0,0,0,0,1764267978770,3859,3884,3875,3894,3872,3879,18,,,,,,,0,0,0,-1.00,24.00,1613.00,0.00,0.00,0.00,14,189.00,12.00,4.78,0.00,0.00,-12.00,0,,,100,99,13,2,0,0,1,1,0,,,,,0.0,0.0,0.0,0.0,0.0,0.0,0
-22.959733,-67.786902,19.00,0.00,1.10,0.47,19.00,19.00,3.31,0.56,9066,2025-11-27 18:26:18.870,2025-11-27 19:26:18.870,16,0,0,47.020,-22.959732,-67.786907,0.00,0.00,-1.10,0.00,2.20,161.30,0,1,0,84,88,-41273,12111,47020,3001.50,50,WP,1,0,0,0,0,0,0,1764267978869,3859,3884,3875,3894,3872,3879,18,,,,,,,0,0,0,-0.00,22.00,1613.00,0.00,0.00,0.00,14,190.00,11.00,4.74,0.00,0.00,-11.00,0,,,100,99,13,2,0,0,1,1,0,,,,,0.0,0.0,0.0,0.0,0.0,0.0,0
-22.959733,-67.786902,19.10,0.00,1.00,0.47,19.10,19.10,3.31,0.56,9174,2025-11-27 18:26:18.977,2025-11-27 19:26:18.977,16,0,0,47.020,-22.959732,-67.786907,0.00,0.00,-1.00,0.00,2.10,161.30,0,1,0,84,88,-41273,12111,47020,3001.50,50,WP,1,0,0,0,0,0,0,1764267978977,3859,3884,3875,3894,3872,3879,18,,,,,,,0,0,0,-0.00,21.00,1613.00,0.00,0.00,0.00,14,191.00,10.00,4.72,0.00,0.00,-10.00,0,,,100,99,13,2,0,0,1,1,0,,,,,0.0,0.0,0.0,0.0,0.0,0.0,0
-22.959733,-67.786902,19.20,0.00,1.00,0.47,19.20,19.20,3.31,0.56,9269,2025-11-27 18:26:19.072,2025-11-27 19:26:19.072,16,0,0,47.020,-22.959732,-67.786907,0.00,0.00,-1.00,0.10,2.10,161.30,0,1,0,84,88,-41273,12111,47020,3001.50,50,WP,1,0,0,0,0,0,0,1764267979072,3859,3884,3875,3894,3872,3879,18,,,,,,,0,0,0,-1.00,21.00,1613.00,0.00,0.00,0.00,14,192.00,10.00,4.72,0.00,0.00,-10.00,0,,,100,100,13,2,0,0,1,1,0,,,,,0.0,0.0,0.0,0.0,0.0,0.0,0
-22.959733,-67.786902,19.30,0.00,1.00,0.48,19.30,19.30,3.31,0.56,9374,2025-11-27 18:26:19.178,2025-11-27 19:26:19.178,16,0,0,47.020,-22.959732,-67.786907,0.00,0.00,-1.00,0.30,2.10,161.30,0,1,0,84,88,-41273,12111,47020,3001.50,50,WP,1,0,0,0,0,0,0,1764267979177,3859,3884,3875,3894,3872,3879,18,,,,,,,0,0,0,-3.00,21.00,1613.00,0.00,0.00,0.00,14,193.00,10.00,4.76,0.00,0.00,-10.00,0,,,100,100,13,2,0,0,1,1,0,,,,,0.0,0.0,0.0,0.0,0.0,0.0,0
-22.959733,-67.786902,19.40,0.00,0.80,0.48,19.40,19.40,3.31,0.56,9380,2025-11-27 18:26:19.184,2025-11-27 19:26:19.184,16,0,0,47.020,-22.959732,-67.786907,0.00,0.00,-0.80,0.10,2.00,162.70,0,1,0,84,88,-41273,12111,47020,3001.50,50,WP,1,0,0,0,0,0,0,1764267979183,3859,3884,3875,3894,3872,3879,18,,,,,,,0,0,0,-1.00,20.00,1627.00,0.00,0.00,0.00,14,194.00,8.00,4.80,0.00,0.00,-8.00,0,,,100,100,13,2,0,0,1,1,0,,,,,0.0,0.0,0.0,0.0,0.0,0.0,0
-22.959734,-67.786902,19.50,0.00,0.60,0.49,19.50,19.50,3.31,0.56,9575,2025-11-27 18:26:19.378,2025-11-27 19:26:19.378,16,0,0,47.020,-22.959732,-67.786907,0.00,0.00,-0.60,-0.40,1.20,166.60,0,1,0,84,88,-41273,12111,47020,3001.50,50,WP,1,0,0,0,0,0,0,1764267979378,3859,3884,3875,3894,3872,3879,18,,,,,,,0,0,0,4.00,12.00,1666.00,0.00,0.00,0.00,14,195.00,6.00,4.87,0.00,0.00,-6.00,0,,,100,100,13,2,0,0,1,1,0,,,,,0.0,0.0,0.0,0.0,0.0,0.0,0
-22.959734,-67.786902,19.60,0.00,0.40,0.49,19.60,19.60,3.31,0.56,9579,2025-11-27 18:26:19.382,2025-11-27 19:26:19.382,16,0,0,47.020,-22.959732,-67.786907,0.00,0.00,-0.40,-0.70,1.00,170.90,0,1,0,84,88,-41273,12111,47020,3001.50,50,WP,1,0,0,0,0,0,0,1764267979382,3859,3884,3875,3894,3872,3879,18,,,,,,,0,0,0,7.00,10.00,1709.00,0.00,0.00,0.00,14,196.00,4.00,4.94,0.00,0.00,-4.00,0,,,100,100,13,2,0,0,1,1,0,,,,,0.0,0.0,0.0,0.0,0.0,0.0,0
-22.959734,-67.786902,19.60,0.00,0.14,0.51,19.60,19.60,3.31,0.56,9678,2025-11-27 18:26:19.482,2025-11-27 19:26:19.482,16,0,0,47.020,-22.959732,-67.786907,0.00,0.10,-0.10,-0.60,2.00,173.80,0,1,0,84,88,-41273,12111,47020,3001.50,50,WP,1,0,0,0,0,0,0,1764267979481,3859,3884,3875,3894,3872,3879,18,,,,,,,0,0,0,6.00,20.00,1738.00,0.00,0.00,0.00,14,196.00,1.41,5.08,0.00,1.00,-1.00,0,,,100,100,13,2,0,0,1,1,0,,,,,0.0,0.0,0.0,0.0,0.0,0.0,0
-22.959734,-67.786902,19.60,0.00,0.10,0.52,19.60,19.60,3.31,0.56,9771,2025-11-27 18:26:19.575,2025-11-27 19:26:19.575,16,0,0,47.020,-22.959732,-67.786907,0.00,0.10,0.00,-0.30,3.20,176.00,0,1,0,84,88,-41273,12111,47020,3001.50,50,WP,1,0,0,0,0,0,0,1764267979574,3859,3884,3875,3894,3872,3879,18,,,,,,,0,0,0,3.00,32.00,1760.00,0.00,0.00,0.00,14,196.00,1.00,5.21,0.00,1.00,0.00,0,,,100,100,13,2,0,0,1,1,0,,,,,0.0,0.0,0.0,0.0,0.0,0.0,0
-22.959734,-67.786902,19.60,0.00,0.00,0.54,19.60,19.60,3.31,0.56,9877,2025-11-27 18:26:19.680,2025-11-27 19:26:19.680,16,0,0,47.020,-22.959732,-67.786907,0.00,0.00,0.00,0.00,3.90,176.90,0,1,0,84,88,-41273,12111,47020,3001.50,50,WP,1,0,0,0,0,0,0,1764267979680,3859,3884,3875,3894,3872,3879,18,,,,,,,0,0,0,-0.00,39.00,1769.00,0.00,0.00,0.00,14,196.00,0.00,5.36,0.00,0.00,0.00,0,,,100,100,13,2,0,0,1,1,0,,,,,0.0,0.0,0.0,0.0,0.0,0.0,0
-22.959734,-67.786902,19.60,0.00,0.00,0.55,19.60,19.60,3.31,0.56,9976,2025-11-27 18:26:19.779,2025-11-27 19:26:19.779,16,0,0,47.020,-22.959732,-67.786907,0.00,0.00,0.00,-1.10,4.30,177.20,0,1,0,84,88,-41273,12111,47020,3001.50,50,WP,1,0,0,0,0,0,0,1764267979779,3859,3884,3875,3894,3872,3879,18,,,,,,,0,0,0,11.00,43.00,1772.00,0.00,0.00,0.00,14,196.00,0.00,5.46,0.00,0.00,0.00,0,,,100,100,13,2,0,0,1,1,0,,,,,0.0,0.0,0.0,0.0,0.0,0.0,0
-22.959734,-67.786902,19.50,0.00,0.10,0.56,19.60,19.60,3.31,0.56,10174,2025-11-27 18:26:19.977,2025-11-27 19:26:19.977,16,0,0,47.154,-22.959732,-67.786907,0.00,0.00,0.10,-3.20,4.10,177.20,0,1,0,84,88,-38166,12111,47154,3001.50,50,WP,1,0,0,0,0,0,0,1764267979977,3859,3884,3875,3894,3872,3879,18,,,,,,,0,0,0,32.00,41.00,1772.00,0.00,0.00,0.00,14,195.00,1.00,5.57,0.00,0.00,1.00,0,,,100,100,13,2,0,0,1,1,0,,,,,0.0,0.0,0.0,0.0,0.0,0.0,0
-22.959734,-67.786902,19.50,0.00,0.14,0.57,19.60,19.60,3.31,0.57,10278,2025-11-27 18:26:20.081,2025-11-27 19:26:20.081,16,0,0,47.154,-22.959732,-67.786907,-0.10,0.00,0.10,-5.50,3.50,177.30,0,1,0,84,88,-38166,12111,47154,3001.50,50,WP,1,0,0,0,0,0,0,1764267980081,3859,3884,3875,3894,3872,3879,18,,,,,,,0,0,0,55.00,35.00,1773.00,0.00,0.00,0.00,14,195.00,1.41,5.66,-1.00,0.00,1.00,0,,,100,100,13,2,0,0,1,1,0,,,,,0.0,0.0,0.0,0.0,0.0,0.0,0
-22.959734,-67.786902,19.50,0.00,0.10,0.58,19.60,19.60,3.31,0.58,10285,2025-11-27 18:26:20.088,2025-11-27 19:26:20.088,16,0,0,47.154,-22.959732,-67.786907,-0.10,0.00,0.00,-7.80,3.10,177.30,0,1,0,84,88,-38166,12111,47154,3001.50,50,WP,1,0,0,0,0,0,0,1764267980088,3859,3884,3875,3894,3872,3879,18,,,,,,,0,0,0,78.00,31.00,1773.00,0.00,0.00,0.00,14,195.00,1.00,5.79,-1.00,0.00,0.00,0,,,100,100,13,2,0,0,1,1,0,,,,,0.0,0.0,0.0,0.0,0.0,0.0,0
-22.959734,-67.786902,19.60,0.00,0.30,0.60,19.60,19.60,3.31,0.60,10379,2025-11-27 18:26:20.183,2025-11-27 19:26:20.183,16,0,0,47.154,-22.959732,-67.786907,-0.30,0.00,0.00,-9.80,3.00,177.20,0,1,0,84,88,-38166,12111,47154,3001.50,50,WP,1,0,0,0,0,0,0,1764267980182,3859,3884,3875,3894,3872,3879,18,,,,,,,0,0,0,98.00,30.00,1772.00,0.00,0.00,0.00,14,196.00,3.00,5.95,-3.00,0.00,0.00,0,,,100,100,13,2,0,0,1,1,0,,,,,0.0,0.0,0.0,0.0,0.0,0.0,0
-22.959735,-67.786902,19.60,0.00,0.40,0.62,19.60,19.60,3.31,0.62,10480,2025-11-27 18:26:20.283,2025-11-27 19:26:20.283,16,0,0,47.154,-22.959732,-67.786907,-0.40,0.00,0.00,-11.40,3.00,177.20,0,1,0,84,88,-38166,12111,47154,3001.50,50,WP,1,0,0,0,0,0,0,1764267980283,3859,3884,3875,3894,3872,3879,18,,,,,,,0,0,0,114.00,30.00,1772.00,0.00,0.00,0.00,14,196.00,4.00,6.22,-4.00,0.00,0.00,0,,,100,100,13,2,0,0,1,1,0,,,,,0.0,0.0,0.0,0.0,0.0,0.0,0
-22.959735,-67.786902,19.60,0.00,0.60,0.66,19.60,19.60,3.31,0.66,10579,2025-11-27 18:26:20.382,2025-11-27 19:26:20.382,16,0,0,47.154,-22.959732,-67.786907,-0.60,0.00,0.00,-12.70,3.10,177.10,0,1,0,84,88,-38166,12111,47154,3001.50,50,WP,1,0,0,0,0,0,0,1764267980382,3859,3884,3875,3894,3872,3879,18,,,,,,,0,0,0,127.00,31.00,1771.00,0.00,0.00,0.00,14,196.00,6.00,6.56,-6.00,0.00,0.00,0,,,100,100,13,2,0,0,1,1,0,,,,,0.0,0.0,0.0,0.0,0.0,0.0,0
-22.959736,-67.786902,19.60,0.00,0.80,0.72,19.60,19.60,3.31,0.72,10682,2025-11-27 18:26:20.485,2025-11-27 19:26:20.486,16,0,0,47.154,-22.959732,-67.786907,-0.80,0.00,0.00,-13.80,2.90,177.10,0,1,0,84,88,-38166,12111,47154,3001.50,50,WP,1,0,0,0,0,0,0,1764267980485,3859,3884,3875,3894,3872,3879,18,,,,,,,0,0,0,138.00,29.00,1771.00,0.00,0.00,0.00,14,196.00,8.00,7.19,-8.00,0.00,0.00,0,,,100,100,13,2,0,0,1,1,0,,,,,0.0,0.0,0.0,0.0,0.0,0.0,0
-22.959737,-67.786902,19.60,0.00,1.00,0.80,19.60,19.60,3.31,0.80,10782,2025-11-27 18:26:20.586,2025-11-27 19:26:20.586,16,0,0,47.154,-22.959732,-67.786907,-1.00,0.00,0.00,-14.50,2.60,177.10,0,1,0,84,88,-38166,12111,47154,3001.50,50,WP,1,0,0,0,0,0,0,1764267980585,3859,3884,3875,3894,3872,3879,18,,,,,,,0,0,0,145.00,26.00,1771.00,0.00,0.00,0.00,14,196.00,10.00,7.96,-10.00,0.00,0.00,0,,,100,100,13,2,0,0,1,1,0,,,,,0.0,0.0,0.0,0.0,0.0,0.0,0
-22.959739,-67.786902,19.60,0.00,1.30,0.93,19.60,19.60,3.31,0.93,10880,2025-11-27 18:26:20.684,2025-11-27 19:26:20.684,16,0,0,47.154,-22.959732,-67.786907,-1.30,0.00,0.00,-15.00,2.50,177.10,0,1,0,84,88,-38166,12111,47154,3001.50,50,WP,1,0,0,0,0,0,0,1764267980683,3859,3884,3875,3894,3872,3879,18,,,,,,,0,0,0,150.00,25.00,1771.00,0.00,0.00,0.00,14,196.00,13.00,9.26,-13.00,0.00,0.00,0,,,100,100,13,2,0,0,1,1,0,,,,,0.0,0.0,0.0,0.0,0.0,0.0,0
-22.959740,-67.786902,19.60,0.00,1.50,1.07,19.60,19.60,3.31,1.07,10984,2025-11-27 18:26:20.788,2025-11-27 19:26:20.788,16,0,0,47.154,-22.959732,-67.786907,-1.50,0.00,0.00,-15.10,2.80,177.20,0,1,0,84,88,-38166,12111,47154,3001.50,50,WP,1,0,0,0,0,0,0,1764267980787,3859,3884,3875,3894,3872,3879,18,,,,,,,0,0,0,151.00,28.00,1772.00,0.00,0.00,0.00,14,196.00,15.00,10.75,-15.00,0.00,0.00,0,,,100,100,13,2,0,0,1,1,0,,,,,0.0,0.0,0.0,0.0,0.0,0.0,0
-22.959742,-67.786902,19.60,0.00,1.70,1.26,19.60,19.60,3.31,1.26,11084,2025-11-27 18:26:20.888,2025-11-27 19:26:20.888,16,0,0,47.154,-22.959732,-67.786907,-1.70,0.00,0.00,-15.20,2.90,177.20,0,1,0,84,88,-38166,12111,47154,3001.50,50,WP,1,0,0,0,0,0,0,1764267980887,3859,3884,3875,3894,3872,3879,18,,,,,,,0,0,0,152.00,29.00,1772.00,0.00,0.00,0.00,14,196.00,17.00,12.62,-17.00,0.00,0.00,0,,,100,100,13,2,0,0,1,1,0,,,,,0.0,0.0,0.0,0.0,0.0,0.0,0
-22.959744,-67.786902,19.60,0.00,2.00,1.47,19.60,19.60,3.31,1.47,11282,2025-11-27 18:26:21.086,2025-11-27 19:26:21.086,16,0,0,47.154,-22.959732,-67.786907,-2.00,0.00,0.00,-15.20,3.20,177.20,0,1,0,84,88,-38166,12111,47154,3001.50,50,WP,1,0,0,0,0,0,0,1764267981085,3859,3884,3875,3894,3872,3879,18,,,,,,,0,0,0,152.00,32.00,1772.00,0.00,0.00,0.00,14,196.00,20.00,14.73,-20.00,0.00,0.00,0,,,100,100,13,2,0,0,1,1,0,,,,,0.0,0.0,0.0,0.0,0.0,0.0,0
-22.959747,-67.786902,19.60,0.00,2.20,1.75,19.60,19.60,3.31,1.75,11292,2025-11-27 18:26:21.095,2025-11-27 19:26:21.095,15,0,0,47.154,-22.959732,-67.786907,-2.20,0.00,0.00,-15.30,2.90,177.10,0,1,0,84,88,-38166,12111,47154,3001.50,50,WP,1,0,0,0,0,0,0,1764267981095,3859,3884,3875,3894,3872,3879,18,,,,,,,0,0,0,153.00,29.00,1771.00,0.00,0.00,0.00,14,196.00,22.00,17.50,-22.00,0.00,0.00,0,,,100,100,13,2,0,0,1,1,0,,,,,0.0,0.0,0.0,0.0,0.0,0.0,0
-22.959749,-67.786902,19.60,0.00,2.40,2.01,19.60,19.60,3.31,2.01,11395,2025-11-27 18:26:21.198,2025-11-27 19:26:21.198,15,0,0,47.154,-22.959732,-67.786907,-2.40,0.00,0.00,-15.00,3.00,177.10,0,1,0,84,88,-38166,12111,47154,3001.50,50,WP,1,0,0,0,0,0,0,1764267981198,3859,3884,3875,3894,3872,3879,18,,,,,,,0,0,0,150.00,30.00,1771.00,0.00,0.00,0.00,14,196.00,24.00,20.09,-24.00,0.00,0.00,0,,,100,100,13,2,0,0,1,1,0,,,,,0.0,0.0,0.0,0.0,0.0,0.0,0
-22.959752,-67.786902,19.60,0.00,2.70,2.34,19.60,19.60,3.31,2.34,11489,2025-11-27 18:26:21.293,2025-11-27 19:26:21.293,15,0,0,47.154,-22.959732,-67.786907,-2.70,0.00,0.00,-15.20,3.20,177.00,0,1,0,84,88,-38166,12111,47154,3001.50,50,WP,1,0,0,0,0,0,0,1764267981292,3859,3884,3875,3894,3872,3879,18,,,,,,,0,0,0,152.00,32.00,1770.00,0.00,0.00,0.00,14,196.00,27.00,23.43,-27.00,0.00,0.00,0,,,100,100,13,2,0,0,1,1,0,,,,,0.0,0.0,0.0,0.0,0.0,0.0,0
-22.959755,-67.786902,19.60,0.00,2.90,2.65,19.60,19.60,3.31,2.65,11591,2025-11-27 18:26:21.394,2025-11-27 19:26:21.394,15,0,0,47.154,-22.959732,-67.786907,-2.90,0.00,0.00,-15.40,3.30,177.00,0,1,0,84,88,-38166,12111,47154,3001.50,50,WP,1,0,0,0,0,0,0,1764267981394,3859,3884,3875,3894,3872,3879,18,,,,,,,0,0,0,154.00,33.00,1770.00,0.00,0.00,0.00,14,196.00,29.00,26.53,-29.00,0.00,0.00,0,,,100,100,13,2,0,0,1,1,0,,,,,0.0,0.0,0.0,0.0,0.0,0.0,0
-22.959759,-67.786902,19.60,0.00,3.10,3.04,19.60,19.60,3.31,3.04,11695,2025-11-27 18:26:21.499,2025-11-27 19:26:21.499,15,0,0,47.154,-22.959732,-67.786907,-3.10,0.00,0.00,-15.40,3.00,177.10,0,1,0,84,88,-38166,12111,47154,3001.50,50,WP,1,0,0,0,0,0,0,1764267981498,3859,3884,3875,3894,3872,3879,18,,,,,,,0,0,0,154.00,30.00,1771.00,0.00,0.00,0.00,14,196.00,31.00,30.38,-31.00,0.00,0.00,0,,,100,100,13,2,0,0,1,1,0,,,,,0.0,0.0,0.0,0.0,0.0,0.0,0
-22.959762,-67.786902,19.60,0.00,3.30,3.39,19.60,19.60,3.31,3.39,11790,2025-11-27 18:26:21.593,2025-11-27 19:26:21.593,15,0,0,47.154,-22.959732,-67.786907,-3.30,0.00,0.00,-15.60,3.00,177.10,0,1,0,84,88,-38166,12111,47154,3001.50,50,WP,1,0,0,0,0,0,0,1764267981593,3859,3884,3875,3894,3872,3879,18,,,,,,,0,0,0,156.00,30.00,1771.00,0.00,0.00,0.00,14,196.00,33.00,33.92,-33.00,0.00,0.00,0,,,100,100,13,2,0,0,1,1,0,,,,,0.0,0.0,0.0,0.0,0.0,0.0,0
-22.959766,-67.786902,19.60,0.00,3.50,3.83,19.60,19.60,3.50,3.83,11895,2025-11-27 18:26:21.698,2025-11-27 19:26:21.698,15,0,0,47.154,-22.959732,-67.786907,-3.50,0.00,0.00,-15.60,2.90,177.10,0,1,0,84,88,-38166,12111,47154,3001.50,50,WP,1,0,0,0,0,0,0,1764267981698,3859,3884,3875,3894,3872,3879,18,,,,,,,0,0,0,156.00,29.00,1771.00,0.00,0.00,0.00,14,196.00,35.00,38.29,-35.00,0.00,0.00,0,,,100,100,13,2,0,0,1,1,0,,,,,0.0,0.0,0.0,0.0,0.0,0.0,0
-22.959770,-67.786901,19.60,0.00,3.80,4.25,19.60,19.60,3.80,4.25,11990,2025-11-27 18:26:21.793,2025-11-27 19:26:21.793,15,0,0,47.154,-22.959732,-67.786907,-3.80,0.00,0.00,-15.60,2.70,177.10,0,1,0,84,88,-38166,12111,47154,3001.50,50,WP,1,0,0,0,0,0,0,1764267981793,3859,3884,3875,3894,3872,3879,18,,,,,,,0,0,0,156.00,27.00,1771.00,0.00,0.00,0.00,14,196.00,38.00,42.54,-38.00,0.00,0.00,0,,,100,100,13,2,0,0,1,1,0,,,,,0.0,0.0,0.0,0.0,0.0,0.0,0
-22.959774,-67.786901,19.60,0.00,4.00,4.72,19.60,19.60,4.00,4.72,12094,2025-11-27 18:26:21.898,2025-11-27 19:26:21.898,15,0,0,47.338,-22.959732,-67.786907,-4.00,0.00,0.00,-15.80,2.70,177.00,0,1,0,84,88,-32586,12064,47338,3001.50,50,WP,1,0,0,0,0,0,0,1764267981897,3859,3884,3875,3894,3872,3879,18,,,,,,,0,0,0,158.00,27.00,1770.00,0.00,0.00,0.00,14,196.00,40.00,47.22,-40.00,0.00,0.00,0,,,100,100,13,2,0,0,1,1,0,,,,,0.0,0.0,0.0,0.0,0.0,0.0,0
-22.959778,-67.786901,19.60,0.00,4.20,5.20,19.60,19.60,4.20,5.20,12291,2025-11-27 18:26:22.095,2025-11-27 19:26:22.095,15,0,0,47.338,-22.959732,-67.786907,-4.20,0.00,0.00,-15.70,2.70,177.00,0,1,0,84,88,-32586,12064,47338,3001.50,50,WP,1,0,0,0,0,0,0,1764267982094,3859,3884,3875,3894,3872,3879,18,,,,,,,0,0,0,157.00,27.00,1770.00,0.00,0.00,0.00,14,196.00,42.00,51.95,-42.00,0.00,0.00,0,,,100,100,13,2,0,0,1,1,0,,,,,0.0,0.0,0.0,0.0,0.0,0.0,0
-22.959783,-67.786901,19.60,0.00,4.40,5.69,19.60,19.60,4.40,5.69,12297,2025-11-27 18:26:22.100,2025-11-27 19:26:22.101,14,0,0,47.338,-22.959732,-67.786907,-4.40,0.00,0.00,-15.70,3.00,177.00,0,1,0,84,88,-32586,12064,47338,3001.50,50,WP,1,0,0,0,0,0,0,1764267982100,3859,3884,3875,3894,3872,3879,18,,,,,,,0,0,0,157.00,30.00,1770.00,0.00,0.00,0.00,14,196.00,44.00,56.90,-44.00,0.00,0.00,0,,,100,100,13,2,0,0,1,1,0,,,,,0.0,0.0,0.0,0.0,0.0,0.0,0
-22.959787,-67.786901,19.60,0.00,4.70,6.21,19.60,19.60,4.70,6.21,12394,2025-11-27 18:26:22.198,2025-11-27 19:26:22.198,14,0,0,47.338,-22.959732,-67.786907,-4.70,0.00,0.10,-15.90,2.90,177.00,0,1,0,84,88,-32586,12064,47338,3001.50,50,WP,1,0,0,0,0,0,0,1764267982197,3859,3884,3875,3894,3872,3879,18,,,,,,,0,0,0,159.00,29.00,1770.00,0.00,0.00,0.00,14,196.00,47.01,62.12,-47.00,0.00,1.00,0,,,100,100,13,2,0,0,1,1,0,,,,,0.0,0.0,0.0,0.0,0.0,0.0,0
-22.959793,-67.786901,19.60,0.00,5.00,6.81,19.60,19.60,5.00,6.81,12494,2025-11-27 18:26:22.297,2025-11-27 19:26:22.297,14,0,0,47.338,-22.959732,-67.786907,-5.00,0.00,0.00,-15.50,2.70,177.00,0,1,0,84,88,-32586,12064,47338,3001.50,50,WP,1,0,0,0,0,0,0,1764267982297,3859,3884,3875,3894,3872,3879,18,,,,,,,0,0,0,155.00,27.00,1770.00,0.00,0.00,0.00,14,196.00,50.00,68.14,-50.00,0.00,0.00,0,,,100,100,13,2,0,0,1,1,0,,,,,0.0,0.0,0.0,0.0,0.0,0.0,0
-22.959798,-67.786901,19.60,0.00,5.20,7.36,19.60,19.60,5.20,7.36,12591,2025-11-27 18:26:22.394,2025-11-27 19:26:22.394,14,0,0,47.338,-22.959732,-67.786907,-5.20,0.00,0.00,-14.80,2.80,177.10,0,1,0,84,88,-32586,12064,47338,3001.50,50,WP,1,0,0,0,0,0,0,1764267982394,3859,3884,3875,3894,3872,3879,18,,,,,,,0,0,0,148.00,28.00,1771.00,0.00,0.00,0.00,14,196.00,52.00,73.63,-52.00,0.00,0.00,0,,,100,100,13,2,0,0,1,1,0,,,,,0.0,0.0,0.0,0.0,0.0,0.0,0
-22.959804,-67.786901,19.60,0.00,5.50,8.03,19.60,19.60,5.50,8.03,12694,2025-11-27 18:26:22.497,2025-11-27 19:26:22.497,14,0,0,47.338,-22.959732,-67.786907,-5.50,0.00,0.00,-14.70,3.10,177.00,0,1,0,84,88,-32586,12064,47338,3001.50,50,WP,1,0,0,0,0,0,0,1764267982497,3859,3884,3875,3894,3872,3879,18,,,,,,,0,0,0,147.00,31.00,1770.00,0.00,0.00,0.00,14,196.00,55.00,80.31,-55.00,0.00,0.00,0,,,100,100,13,2,0,0,1,1,0,,,,,0.0,0.0,0.0,0.0,0.0,0.0,0
-22.959809,-67.786901,19.60,0.00,5.70,8.63,19.60,19.60,5.70,8.63,12796,2025-11-27 18:26:22.600,2025-11-27 19:26:22.600,14,0,0,47.338,-22.959732,-67.786907,-5.70,0.00,0.00,-14.50,3.30,177.10,0,1,0,84,88,-32586,12064,47338,3001.50,50,WP,1,0,0,0,0,0,0,1764267982599,3859,3884,3875,3894,3872,3879,18,,,,,,,0,0,0,145.00,33.00,1771.00,0.00,0.00,0.00,14,196.00,57.00,86.32,-57.00,0.00,0.00,0,,,100,100,13,2,0,0,1,1,0,,,,,0.0,0.0,0.0,0.0,0.0,0.0,0
-22.959816,-67.786901,19.60,0.00,5.90,9.34,19.60,19.60,5.90,9.34,12897,2025-11-27 18:26:22.700,2025-11-27 19:26:22.700,14,0,0,47.338,-22.959732,-67.786907,-5.90,0.00,0.00,-14.00,3.00,177.00,0,1,0,84,88,-32586,12064,47338,3001.50,50,WP,1,0,0,0,0,0,0,1764267982700,3859,3884,3875,3894,3872,3879,18,,,,,,,0,0,0,140.00,30.00,1770.00,0.00,0.00,0.00,14,196.00,59.00,93.39,-59.00,0.00,0.00,0,,,100,100,13,2,0,0,1,1,0,,,,,0.0,0.0,0.0,0.0,0.0,0.0,0
-22.959822,-67.786901,19.60,0.00,6.20,10.00,19.60,19.60,6.20,10.00,12994,2025-11-27 18:26:22.797,2025-11-27 19:26:22.797,14,0,0,47.338,-22.959732,-67.786907,-6.20,0.00,0.00,-13.80,2.90,177.00,0,1,0,84,88,-32586,12064,47338,3001.50,50,WP,1,0,0,0,0,0,0,1764267982797,3859,3884,3875,3894,3872,3879,18,,,,,,,0,0,0,138.00,29.00,1770.00,0.00,0.00,0.00,14,196.00,62.00,100.04,-62.00,0.00,0.00,0,,,100,100,13,2,0,0,1,1,0,,,,,0.0,0.0,0.0,0.0,0.0,0.0,0
-22.959828,-67.786901,19.60,0.00,6.40,10.69,19.60,19.60,6.40,10.69,13095,2025-11-27 18:26:22.899,2025-11-27 19:26:22.899,14,0,0,47.338,-22.959732,-67.786907,-6.40,0.00,0.00,-13.60,3.00,177.00,0,1,0,84,88,-32586,12064,47338,3001.50,50,WP,1,0,0,0,0,0,0,1764267982898,3859,3884,3875,3894,3872,3879,18,,,,,,,0,0,0,136.00,30.00,1770.00,0.00,0.00,0.00,14,196.00,64.00,106.86,-64.00,0.00,0.00,0,,,100,100,13,2,0,0,1,1,0,,,,,0.0,0.0,0.0,0.0,0.0,0.0,0
-22.959834,-67.786901,19.60,0.00,6.60,11.39,19.60,19.60,6.60,11.39,13197,2025-11-27 18:26:23.000,2025-11-27 19:26:23.000,14,0,0,47.338,-22.959732,-67.786907,-6.60,0.00,0.00,-13.50,3.00,177.10,0,1,0,84,88,-32586,12064,47338,3001.50,50,WP,1,0,0,0,0,0,0,1764267983000,3859,3884,3875,3894,3872,3879,18,,,,,,,0,0,0,135.00,30.00,1771.00,0.00,0.00,0.00,14,196.00,66.00,113.94,-66.00,0.00,0.00,0,,,100,100,13,2,0,0,1,1,0,,,,,0.0,0.0,0.0,0.0,0.0,0.0,0
-22.959841,-67.786900,19.60,0.00,6.80,12.18,19.60,19.60,6.80,12.18,13298,2025-11-27 18:26:23.102,2025-11-27 19:26:23.102,14,0,0,47.338,-22.959732,-67.786907,-6.80,0.00,0.00,-13.50,2.90,177.00,0,1,0,84,88,-32586,12064,47338,3001.50,50,WP,1,0,0,0,0,0,0,1764267983101,3859,3884,3875,3894,3872,3879,18,,,,,,,0,0,0,135.00,29.00,1770.00,0.00,0.00,0.00,14,196.00,68.00,121.76,-68.00,0.00,0.00,0,,,100,100,13,2,0,0,1,1,0,,,,,0.0,0.0,0.0,0.0,0.0,0.0,0
