latitude,longitude,altitude(m),ultrasonicHeight(m),speed(mps),distance(m),max_altitude(m),max_ascent(m),max_speed(mps),max_distance(m),time(millisecond),datetime(utc),datetime(local),satellites,pressure(Pa),temperature(F),voltage(v),home_latitude,home_longitude,velocityX(mps),velocityY(mps),velocityZ(mps),pitch(deg),roll(deg),yaw(deg),powerlevel,isflying,istakingphoto,remainPowerPercent,remainLifePercent,currentCurrent,currentElectricity,currentVoltage,batteryTemperature,dischargeCount,flightmode,isMotorsOn,isTakingVideo,Rc_elevator,Rc_aileron,Rc_throttle,Rc_rudder,Rc_gyro,timestamp,Battery_Cell1,Battery_Cell2,Battery_Cell3,Battery_Cell4,Battery_Cell5,Battery_Cell6,Dronetype,AppVersion,Planename,FlyControllerSerialNumber,RemoteSerialNumber,BatterySerialNumber,CENTER_BATTERY.productDate,CENTER_BATTERY.serialNo,CENTER_BATTERY.fullCapacity,CENTER_BATTERY.productDateRaw,pitchRaw,rollRaw,yawRaw,gimbalPitchRaw,gimbalRollRaw,gimbalYawRaw,flyState,altitudeRaw,speedRaw,distanceRaw,velocityXRaw,velocityYRaw,velocityZRaw,data_reuse,App_Tip,App_Warning,downlinkSignalQuality,uplinkSignalQuality,transmissionChannel,rcModeSwitch,rcHome,rcPause,rcTransform,rcJoystickMode,appMode,FlyControllerSerialNumber_legacy,RemoteSerialNumber_legacy,BatterySerialNumber_legacy,Battery2SerialNumber,frontAvoidDist,backAvoidDist,rightAvoidDist,leftAvoidDist,upAvoidDist,downAvoidDist,isBrakingToAvoid
-22.959762,-67.786895,0.50,0.00,0.81,0.39,0.50,0.50,0.81,0.39,2,2025-11-29 19:13:18.958,2025-11-29 16:13:18.958,15,0,0,51.852,-22.959762,-67.786899,0.00,0.40,-0.70,3.10,0.60,94.00,0,1,0,100,88,-1146,14269,51852,2901.50,49,TakeOff,1,0,0,0,0,0,0,1764443598957,4322,4306,4319,4310,4325,4323,18,Litchi_iOS_2.15.7,EIK Matrice 1,0670131556,03LLCA05XT,,,0,14269,0,-31.00,6.00,940.00,0.00,-6.00,7.00,11,5.00,8.06,3.86,0.00,4.00,-7.00,0,,,100,100,18,2,0,0,1,1,0,(null),(null),(null),(null),0.0,0.0,0.0,0.0,0.0,0.0,0
-22.959762,-67.786895,0.60,0.00,0.67,0.43,0.60,0.60,0.81,0.43,103,2025-11-29 19:13:19.059,2025-11-29 16:13:19.059,15,0,0,51.852,-22.959762,-67.786899,0.00,0.30,-0.60,3.60,0.50,94.00,0,1,0,100,88,-1146,14269,51852,2901.50,49,TakeOff,1,0,0,0,0,0,0,1764443599058,4322,4306,4319,4310,4325,4323,18,,,,,,,0,0,0,-36.00,5.00,940.00,0.00,-6.00,8.00,11,6.00,6.71,4.32,0.00,3.00,-6.00,0,,,100,99,18,2,0,0,1,1,0,,,,,0.0,0.0,0.0,0.0,0.0,0.0,0
-22.959762,-67.786894,0.60,0.00,0.68,0.48,0.60,0.60,0.81,0.48,205,2025-11-29 19:13:19.160,2025-11-29 16:13:19.160,15,0,0,51.852,-22.959762,-67.786899,-0.10,0.30,-0.60,3.80,0.30,94.00,0,1,0,100,88,-1146,14269,51852,2901.50,49,TakeOff,1,0,0,0,0,0,0,1764443599160,4322,4306,4319,4310,4325,4323,18,,,,,,,0,0,0,-38.00,3.00,940.00,0.00,-6.00,8.00,11,6.00,6.78,4.79,-1.00,3.00,-6.00,0,,,100,99,18,2,0,0,1,1,0,,,,,0.0,0.0,0.0,0.0,0.0,0.0,0
-22.959763,-67.786894,0.70,0.00,0.59,0.52,0.70,0.70,0.81,0.52,303,2025-11-29 19:13:19.259,2025-11-29 16:13:19.259,15,0,0,51.852,-22.959762,-67.786899,-0.10,0.30,-0.50,3.50,-0.20,93.80,0,1,0,100,88,-1146,14269,51852,2901.50,49,TakeOff,1,0,0,0,0,0,0,1764443599258,4322,4306,4319,4310,4325,4323,18,,,,,,,0,0,0,-35.00,-2.00,938.00,0.00,-6.00,9.00,11,7.00,5.92,5.23,-1.00,3.00,-5.00,0,,,100,99,18,2,0,0,1,1,0,,,,,0.0,0.0,0.0,0.0,0.0,0.0,0
-22.959763,-67.786894,0.70,0.00,0.46,0.55,0.70,0.70,0.81,0.55,406,2025-11-29 19:13:19.361,2025-11-29 16:13:19.361,15,0,0,51.852,-22.959762,-67.786899,-0.10,0.20,-0.40,2.90,-0.70,93.70,0,1,0,100,88,-1146,14269,51852,2901.50,49,TakeOff,1,0,0,0,0,0,0,1764443599361,4322,4306,4319,4310,4325,4323,18,,,,,,,0,0,0,-29.00,-7.00,937.00,0.00,-6.00,10.00,11,7.00,4.58,5.55,-1.00,2.00,-4.00,0,,,100,99,18,2,0,0,1,1,0,,,,,0.0,0.0,0.0,0.0,0.0,0.0,0
-22.959763,-67.786894,0.80,0.00,0.46,0.59,0.80,0.80,0.81,0.59,505,2025-11-29 19:13:19.461,2025-11-29 16:13:19.461,15,0,0,51.852,-22.959762,-67.786899,-0.10,0.20,-0.40,2.30,-1.10,93.80,0,1,0,100,88,-1146,14269,51852,2901.50,49,TakeOff,1,0,0,0,0,0,0,1764443599460,4322,4306,4319,4310,4325,4323,18,,,,,,,0,0,0,-23.00,-11.00,938.00,0.00,-6.00,11.00,11,8.00,4.58,5.86,-1.00,2.00,-4.00,0,,,100,99,18,2,0,0,1,1,0,,,,,0.0,0.0,0.0,0.0,0.0,0.0,0
-22.959763,-67.786893,0.80,0.00,0.37,0.61,0.80,0.80,0.81,0.61,605,2025-11-29 19:13:19.561,2025-11-29 16:13:19.561,15,0,0,51.852,-22.959762,-67.786899,-0.10,0.20,-0.30,2.10,-1.50,93.90,0,1,0,100,88,-1146,14269,51852,2901.50,49,TakeOff,1,0,0,0,0,0,0,1764443599560,4322,4306,4319,4310,4325,4323,18,,,,,,,0,0,0,-21.00,-15.00,939.00,0.00,-6.00,11.00,11,8.00,3.74,6.14,-1.00,2.00,-3.00,0,,,100,99,18,2,0,0,1,1,0,,,,,0.0,0.0,0.0,0.0,0.0,0.0,0
-22.959764,-67.786893,0.80,0.00,0.30,0.64,0.80,0.80,0.81,0.64,707,2025-11-29 19:13:19.663,2025-11-29 16:13:19.663,15,0,0,51.852,-22.959762,-67.786899,-0.10,0.20,-0.20,1.80,-2.00,94.00,0,1,0,100,88,-1146,14269,51852,2901.50,49,TakeOff,1,0,0,0,0,0,0,1764443599662,4322,4306,4319,4310,4325,4323,18,,,,,,,0,0,0,-18.00,-20.00,940.00,0.00,-6.00,9.00,11,8.00,3.00,6.45,-1.00,2.00,-2.00,0,,,100,99,18,2,0,0,1,1,0,,,,,0.0,0.0,0.0,0.0,0.0,0.0,0
-22.959764,-67.786893,0.80,0.00,0.32,0.70,0.80,0.80,0.81,0.70,908,2025-11-29 19:13:19.864,2025-11-29 16:13:19.864,15,0,0,51.379,-22.959762,-67.786899,0.00,0.30,-0.10,2.00,-2.30,94.00,0,1,0,100,88,-29060,14269,51379,2901.50,49,TakeOff,1,0,0,0,0,0,0,1764443599863,4322,4306,4319,4310,4325,4323,18,,,,,,,0,0,0,-20.00,-23.00,940.00,0.00,-6.00,8.00,11,8.00,3.16,6.97,0.00,3.00,-1.00,0,,,100,99,18,2,0,0,1,1,0,,,,,0.0,0.0,0.0,0.0,0.0,0.0,0
-22.959764,-67.786893,0.80,0.00,0.28,0.72,0.80,0.80,0.81,0.72,1010,2025-11-29 19:13:19.966,2025-11-29 16:13:19.966,15,0,0,51.379,-22.959762,-67.786899,0.00,0.20,-0.20,2.70,-1.80,93.90,0,1,0,100,88,-29060,14269,51379,2901.50,49,TakeOff,1,0,0,0,0,0,0,1764443599965,4322,4306,4319,4310,4325,4323,18,,,,,,,0,0,0,-27.00,-18.00,939.00,0.00,-6.00,8.00,11,8.00,2.83,7.19,0.00,2.00,-2.00,0,,,100,99,18,2,0,0,1,1,0,,,,,0.0,0.0,0.0,0.0,0.0,0.0,0
-22.959764,-67.786892,0.80,0.00,0.28,0.74,0.80,0.80,0.81,0.74,1111,2025-11-29 19:13:20.066,2025-11-29 16:13:20.066,15,0,0,51.379,-22.959762,-67.786899,0.00,0.20,-0.20,3.50,-0.70,94.00,0,1,0,100,88,-29060,14269,51379,2901.50,49,TakeOff,1,0,0,0,0,0,0,1764443600066,4322,4306,4319,4310,4325,4323,18,,,,,,,0,0,0,-35.00,-7.00,940.00,0.00,-6.00,9.00,11,8.00,2.83,7.42,0.00,2.00,-2.00,0,,,100,99,18,2,0,0,1,1,0,,,,,0.0,0.0,0.0,0.0,0.0,0.0,0
-22.959764,-67.786892,0.80,0.00,0.36,0.76,0.80,0.80,0.81,0.76,1216,2025-11-29 19:13:20.172,2025-11-29 16:13:20.172,15,0,0,51.379,-22.959762,-67.786899,0.00,0.20,-0.30,4.00,0.00,94.20,0,1,0,100,88,-29060,14269,51379,2901.50,49,TakeOff,1,0,0,0,0,0,0,1764443600171,4322,4306,4319,4310,4325,4323,18,,,,,,,0,0,0,-40.00,0.00,942.00,0.00,-6.00,9.00,11,8.00,3.61,7.62,0.00,2.00,-3.00,0,,,100,99,18,2,0,0,1,1,0,,,,,0.0,0.0,0.0,0.0,0.0,0.0,0
-22.959764,-67.786892,0.90,0.00,0.37,0.79,0.90,0.90,0.81,0.79,1319,2025-11-29 19:13:20.275,2025-11-29 16:13:20.275,15,0,0,51.379,-22.959762,-67.786899,-0.10,0.20,-0.30,4.10,0.60,94.30,0,1,0,100,88,-29060,14269,51379,2901.50,49,TakeOff,1,0,0,0,0,0,0,1764443600274,4322,4306,4319,4310,4325,4323,18,,,,,,,0,0,0,-41.00,6.00,943.00,0.00,-6.00,8.00,11,9.00,3.74,7.86,-1.00,2.00,-3.00,0,,,100,99,18,2,0,0,1,1,0,,,,,0.0,0.0,0.0,0.0,0.0,0.0,0
-22.959764,-67.786892,0.90,0.00,0.46,0.81,0.90,0.90,0.81,0.81,1420,2025-11-29 19:13:20.375,2025-11-29 16:13:20.375,15,0,0,51.379,-22.959762,-67.786899,-0.10,0.20,-0.40,3.70,0.50,94.30,0,1,0,100,88,-29060,14269,51379,2901.50,49,TakeOff,1,0,0,0,0,0,0,1764443600375,4322,4306,4319,4310,4325,4323,18,,,,,,,0,0,0,-37.00,5.00,943.00,0.00,-6.00,6.00,11,9.00,4.58,8.08,-1.00,2.00,-4.00,0,,,100,99,18,2,0,0,1,1,0,,,,,0.0,0.0,0.0,0.0,0.0,0.0,0
-22.959764,-67.786891,1.00,0.00,0.46,0.83,1.00,1.00,0.81,0.83,1512,2025-11-29 19:13:20.467,2025-11-29 16:13:20.467,15,0,0,51.379,-22.959762,-67.786899,-0.10,0.20,-0.40,2.80,0.00,94.20,0,1,0,100,88,-29060,14269,51379,2901.50,49,TakeOff,1,0,0,0,0,0,0,1764443600467,4322,4306,4319,4310,4325,4323,18,,,,,,,0,0,0,-28.00,0.00,942.00,0.00,-6.00,5.00,11,10.00,4.58,8.31,-1.00,2.00,-4.00,0,,,100,99,18,2,0,0,1,1,0,,,,,0.0,0.0,0.0,0.0,0.0,0.0,0
-22.959765,-67.786891,1.00,0.00,0.57,0.86,1.00,1.00,0.81,0.86,1617,2025-11-29 19:13:20.572,2025-11-29 16:13:20.572,15,0,0,51.379,-22.959762,-67.786899,-0.20,0.20,-0.50,2.40,-0.90,94.20,0,1,0,100,88,-29060,14269,51379,2901.50,49,TakeOff,1,0,0,0,0,0,0,1764443600572,4322,4306,4319,4310,4325,4323,18,,,,,,,0,0,0,-24.00,-9.00,942.00,0.00,-6.00,6.00,11,10.00,5.74,8.65,-2.00,2.00,-5.00,0,,,100,100,18,2,0,0,1,1,0,,,,,0.0,0.0,0.0,0.0,0.0,0.0,0
-22.959765,-67.786891,1.10,0.00,0.55,0.90,1.10,1.10,0.81,0.90,1720,2025-11-29 19:13:20.676,2025-11-29 16:13:20.676,15,0,0,51.379,-22.959762,-67.786899,-0.10,0.20,-0.50,2.90,-1.60,94.20,0,1,0,100,88,-29060,14269,51379,2901.50,49,WP,1,0,0,0,0,0,0,1764443600675,4322,4306,4319,4310,4325,4323,18,,,,,,,0,0,0,-29.00,-16.00,942.00,0.00,-6.00,7.00,14,11.00,5.48,8.97,-1.00,2.00,-5.00,0,,,100,100,18,2,0,0,1,1,0,,,,,0.0,0.0,0.0,0.0,0.0,0.0,0
-22.959765,-67.786891,1.10,0.00,0.57,0.93,1.10,1.10,0.81,0.93,1814,2025-11-29 19:13:20.769,2025-11-29 16:13:20.769,15,0,0,51.379,-22.959762,-67.786899,-0.20,0.20,-0.50,3.70,-2.10,94.30,0,1,0,100,88,-29060,14269,51379,2901.50,49,WP,1,0,0,0,0,0,0,1764443600769,4322,4306,4319,4310,4325,4323,18,,,,,,,0,0,0,-37.00,-21.00,943.00,0.00,-6.00,6.00,14,11.00,5.74,9.35,-2.00,2.00,-5.00,0,,,100,100,18,2,0,0,1,1,0,,,,,0.0,0.0,0.0,0.0,0.0,0.0,0
-22.959765,-67.786890,1.20,0.00,0.55,0.97,1.20,1.20,0.81,0.97,1916,2025-11-29 19:13:20.871,2025-11-29 16:13:20.872,15,0,0,51.379,-22.959762,-67.786899,-0.10,0.20,-0.50,4.40,-2.40,94.30,0,1,0,100,88,-29060,14269,51379,2901.50,49,WP,1,0,0,0,0,0,0,1764443600871,4322,4306,4319,4310,4325,4323,18,,,,,,,0,0,0,-44.00,-24.00,943.00,0.00,-6.00,6.00,14,12.00,5.48,9.67,-1.00,2.00,-5.00,0,,,100,100,18,2,0,0,1,1,0,,,,,0.0,0.0,0.0,0.0,0.0,0.0,0
-22.959765,-67.786890,1.20,0.00,0.46,1.00,1.20,1.20,0.81,1.00,2021,2025-11-29 19:13:20.976,2025-11-29 16:13:20.976,15,0,0,51.379,-22.959762,-67.786899,-0.10,0.20,-0.40,4.70,-3.00,94.20,0,1,0,100,88,-29060,14269,51379,2901.50,49,WP,1,0,0,0,0,0,0,1764443600976,4322,4306,4319,4310,4325,4323,18,,,,,,,0,0,0,-47.00,-30.00,942.00,0.00,-6.00,6.00,14,12.00,4.58,9.97,-1.00,2.00,-4.00,0,,,100,100,18,2,0,0,1,1,0,,,,,0.0,0.0,0.0,0.0,0.0,0.0,0
-22.959765,-67.786890,1.30,0.00,0.41,1.02,1.30,1.30,0.81,1.02,2116,2025-11-29 19:13:21.072,2025-11-29 16:13:21.072,15,0,0,51.379,-22.959762,-67.786899,0.00,0.10,-0.40,4.70,-3.40,94.20,0,1,0,100,88,-29060,14269,51379,2901.50,49,WP,1,0,0,0,0,0,0,1764443601071,4322,4306,4319,4310,4325,4323,18,,,,,,,0,0,0,-47.00,-34.00,942.00,0.00,-6.00,6.00,14,13.00,4.12,10.19,0.00,1.00,-4.00,0,,,100,100,18,2,0,0,1,1,0,,,,,0.0,0.0,0.0,0.0,0.0,0.0,0
-22.959765,-67.786890,1.30,0.00,0.41,1.03,1.30,1.30,0.81,1.03,2223,2025-11-29 19:13:21.178,2025-11-29 16:13:21.178,15,0,0,51.379,-22.959762,-67.786899,0.00,0.10,-0.40,4.40,-3.20,94.30,0,1,0,100,88,-29060,14269,51379,2901.50,49,WP,1,0,0,0,0,0,0,1764443601178,4322,4306,4319,4310,4325,4323,18,,,,,,,0,0,0,-44.00,-32.00,943.00,0.00,-6.00,6.00,14,13.00,4.12,10.32,0.00,1.00,-4.00,0,,,100,99,18,2,0,0,1,1,0,,,,,0.0,0.0,0.0,0.0,0.0,0.0,0
-22.959765,-67.786890,1.30,0.00,0.51,1.04,1.30,1.30,0.81,1.04,2321,2025-11-29 19:13:21.276,2025-11-29 16:13:21.276,15,0,0,51.379,-22.959762,-67.786899,0.00,0.10,-0.50,3.90,-2.60,94.50,0,1,0,100,88,-29060,14269,51379,2901.50,49,WP,1,0,0,0,0,0,0,1764443601276,4322,4306,4319,4310,4325,4323,18,,,,,,,0,0,0,-39.00,-26.00,945.00,0.00,-6.00,6.00,14,13.00,5.10,10.40,0.00,1.00,-5.00,0,,,100,99,18,2,0,0,1,1,0,,,,,0.0,0.0,0.0,0.0,0.0,0.0,0
-22.959765,-67.786890,1.40,0.00,0.61,1.04,1.40,1.40,0.81,1.04,2417,2025-11-29 19:13:21.373,2025-11-29 16:13:21.373,15,0,0,51.379,-22.959762,-67.786899,0.00,0.10,-0.60,3.50,-1.60,94.60,0,1,0,100,88,-29060,14269,51379,2901.50,49,WP,1,0,0,0,0,0,0,1764443601372,4322,4306,4319,4310,4325,4323,18,,,,,,,0,0,0,-35.00,-16.00,946.00,0.00,-6.00,4.00,14,14.00,6.08,10.40,0.00,1.00,-6.00,0,,,100,99,18,2,0,0,1,1,0,,,,,0.0,0.0,0.0,0.0,0.0,0.0,0
-22.959765,-67.786889,1.40,0.00,0.80,1.04,1.40,1.40,0.81,1.04,2520,2025-11-29 19:13:21.476,2025-11-29 16:13:21.476,15,0,0,51.379,-22.959762,-67.786899,0.00,0.00,-0.80,3.30,-0.70,94.60,0,1,0,100,88,-29060,14269,51379,2901.50,49,WP,1,0,0,0,0,0,0,1764443601475,4322,4306,4319,4310,4325,4323,18,,,,,,,0,0,0,-33.00,-7.00,946.00,0.00,-6.00,2.00,14,14.00,8.00,10.40,0.00,0.00,-8.00,0,,,100,99,18,2,0,0,1,1,0,,,,,0.0,0.0,0.0,0.0,0.0,0.0,0
-22.959765,-67.786889,1.50,0.00,1.00,1.04,1.50,1.50,1.00,1.04,2623,2025-11-29 19:13:21.578,2025-11-29 16:13:21.578,15,0,0,51.379,-22.959762,-67.786899,0.00,0.10,-1.00,2.90,0.40,94.50,0,1,0,100,88,-29060,14269,51379,2901.50,49,WP,1,0,0,0,0,0,0,1764443601578,4322,4306,4319,4310,4325,4323,18,,,,,,,0,0,0,-29.00,4.00,945.00,0.00,-6.00,2.00,14,15.00,10.05,10.42,0.00,1.00,-10.00,0,,,100,99,18,2,0,0,1,1,0,,,,,0.0,0.0,0.0,0.0,0.0,0.0,0
-22.959765,-67.786889,1.70,0.00,1.20,1.05,1.70,1.70,1.20,1.05,2720,2025-11-29 19:13:21.675,2025-11-29 16:13:21.675,15,0,0,51.379,-22.959762,-67.786899,0.00,0.10,-1.20,2.60,1.10,94.50,0,1,0,100,88,-29060,14269,51379,2901.50,49,WP,1,0,0,0,0,0,0,1764443601675,4322,4306,4319,4310,4325,4323,18,,,,,,,0,0,0,-26.00,11.00,945.00,0.00,-6.00,3.00,14,17.00,12.04,10.47,0.00,1.00,-12.00,0,,,100,99,18,2,0,0,1,1,0,,,,,0.0,0.0,0.0,0.0,0.0,0.0,0
-22.959765,-67.786889,1.80,0.00,1.40,1.05,1.80,1.80,1.40,1.05,2824,2025-11-29 19:13:21.779,2025-11-29 16:13:21.779,15,0,0,46.064,-22.959762,-67.786899,0.00,0.10,-1.40,2.70,1.20,94.70,0,1,0,100,88,-53867,14269,46064,2901.50,49,WP,1,0,0,0,0,0,0,1764443601779,4322,4306,4319,4310,4325,4323,18,,,,,,,0,0,0,-27.00,12.00,947.00,0.00,-6.00,4.00,14,18.00,14.04,10.52,0.00,1.00,-14.00,0,,,100,99,18,2,0,0,1,1,0,,,,,0.0,0.0,0.0,0.0,0.0,0.0,0
-22.959765,-67.786889,1.90,0.00,1.60,1.06,1.90,1.90,1.60,1.06,2925,2025-11-29 19:13:21.880,2025-11-29 16:13:21.880,15,0,0,46.064,-22.959762,-67.786899,0.00,0.10,-1.60,2.70,1.10,94.80,0,1,0,100,88,-53867,14269,46064,2901.50,49,WP,1,0,0,0,0,0,0,1764443601880,4322,4306,4319,4310,4325,4323,18,,,,,,,0,0,0,-27.00,11.00,948.00,0.00,-6.00,2.00,14,19.00,16.03,10.58,0.00,1.00,-16.00,0,,,100,99,18,2,0,0,1,1,0,,,,,0.0,0.0,0.0,0.0,0.0,0.0,0
-22.959765,-67.786889,2.30,0.00,2.00,1.09,2.30,2.30,2.00,1.09,3125,2025-11-29 19:13:22.080,2025-11-29 16:13:22.080,15,0,0,46.064,-22.959762,-67.786899,0.00,0.10,-2.00,1.80,0.00,95.10,0,1,0,100,88,-53867,14269,46064,2901.50,49,WP,1,0,0,0,0,0,0,1764443602080,4322,4306,4319,4310,4325,4323,18,,,,,,,0,0,0,-18.00,0.00,951.00,0.00,-6.00,1.00,14,23.00,20.02,10.89,0.00,1.00,-20.00,0,,,100,99,18,2,0,0,1,1,0,,,,,0.0,0.0,0.0,0.0,0.0,0.0,0
-22.959765,-67.786889,2.50,0.00,2.20,1.11,2.50,2.50,2.20,1.11,3236,2025-11-29 19:13:22.191,2025-11-29 16:13:22.191,15,0,0,46.064,-22.959762,-67.786899,-0.10,0.10,-2.20,2.60,-1.20,95.20,0,1,0,100,88,-53867,14269,46064,2901.50,49,WP,1,0,0,0,0,0,0,1764443602191,4322,4306,4319,4310,4325,4323,18,,,,,,,0,0,0,-26.00,-12.00,952.00,0.00,-6.00,-1.00,14,25.00,22.05,11.11,-1.00,1.00,-22.00,0,,,100,97,18,2,0,0,1,1,0,,,,,0.0,0.0,0.0,0.0,0.0,0.0,0
-22.959765,-67.786888,3.00,0.00,2.71,1.17,3.00,3.00,2.71,1.17,3427,2025-11-29 19:13:22.382,2025-11-29 16:13:22.382,15,0,0,46.064,-22.959762,-67.786899,0.00,0.20,-2.70,5.00,-4.70,95.20,0,1,0,100,88,-53867,14269,46064,2901.50,49,WP,1,0,0,0,0,0,0,1764443602382,4322,4306,4319,4310,4325,4323,18,,,,,,,0,0,0,-50.00,-47.00,952.00,0.00,-6.00,-2.00,14,30.00,27.07,11.67,0.00,2.00,-27.00,0,,,100,97,18,2,0,0,1,1,0,,,,,0.0,0.0,0.0,0.0,0.0,0.0,0
-22.959765,-67.786888,3.30,0.00,2.90,1.19,3.30,3.30,2.90,1.19,3536,2025-11-29 19:13:22.492,2025-11-29 16:13:22.492,15,0,0,46.064,-22.959762,-67.786899,0.00,0.10,-2.90,4.50,-4.50,94.90,0,1,0,100,88,-53867,14269,46064,2901.50,49,WP,1,0,0,0,0,0,0,1764443602491,4322,4306,4319,4310,4325,4323,18,,,,,,,0,0,0,-45.00,-45.00,949.00,0.00,-5.00,-3.00,14,33.00,29.02,11.91,0.00,1.00,-29.00,0,,,100,97,18,2,0,0,1,1,0,,,,,0.0,0.0,0.0,0.0,0.0,0.0,0
-22.959765,-67.786888,3.60,0.00,3.00,1.21,3.60,3.60,3.00,1.21,3636,2025-11-29 19:13:22.592,2025-11-29 16:13:22.592,15,0,0,46.064,-22.959762,-67.786899,0.00,0.10,-3.00,3.80,-3.10,94.60,0,1,0,100,88,-53867,14269,46064,2901.50,49,WP,1,0,0,0,0,0,0,1764443602591,4322,4306,4319,4310,4325,4323,18,,,,,,,0,0,0,-38.00,-31.00,946.00,0.00,-6.00,-1.00,14,36.00,30.02,12.09,0.00,1.00,-30.00,0,,,100,97,18,2,0,0,1,1,0,,,,,0.0,0.0,0.0,0.0,0.0,0.0,0
-22.959765,-67.786888,3.90,0.00,3.20,1.23,3.90,3.90,3.20,1.23,3726,2025-11-29 19:13:22.682,2025-11-29 16:13:22.682,15,0,0,46.064,-22.959762,-67.786899,0.10,0.10,-3.20,3.20,-1.00,94.40,0,1,0,100,88,-53867,14269,46064,2901.50,49,WP,1,0,0,0,0,0,0,1764443602681,4322,4306,4319,4310,4325,4323,18,,,,,,,0,0,0,-32.00,-10.00,944.00,0.00,-6.00,1.00,14,39.00,32.03,12.25,1.00,1.00,-32.00,0,,,100,98,18,2,0,0,1,1,0,,,,,0.0,0.0,0.0,0.0,0.0,0.0,0
-22.959765,-67.786888,4.20,0.00,3.30,1.25,4.20,4.20,3.30,1.25,3833,2025-11-29 19:13:22.789,2025-11-29 16:13:22.789,15,0,0,46.064,-22.959762,-67.786899,0.00,0.10,-3.30,3.00,1.30,94.20,0,1,0,100,88,-53867,14269,46064,2901.50,49,WP,1,0,0,0,0,0,0,1764443602788,4322,4306,4319,4310,4325,4323,18,,,,,,,0,0,0,-30.00,13.00,942.00,0.00,-6.00,4.00,14,42.00,33.02,12.45,0.00,1.00,-33.00,0,,,100,98,18,2,0,0,1,1,0,,,,,0.0,0.0,0.0,0.0,0.0,0.0,0
-22.959765,-67.786887,4.50,0.00,3.40,1.27,4.50,4.50,3.40,1.27,3937,2025-11-29 19:13:22.893,2025-11-29 16:13:22.893,15,0,0,46.064,-22.959762,-67.786899,0.00,0.10,-3.40,3.00,2.70,94.00,0,1,0,100,88,-53867,14269,46064,2901.50,49,WP,1,0,0,0,0,0,0,1764443602892,4322,4306,4319,4310,4325,4323,18,,,,,,,0,0,0,-30.00,27.00,940.00,0.00,-6.00,6.00,14,45.00,34.01,12.67,0.00,1.00,-34.00,0,,,100,98,18,2,0,0,1,1,0,,,,,0.0,0.0,0.0,0.0,0.0,0.0,0
-22.959765,-67.786887,4.80,0.00,3.50,1.29,4.80,4.80,3.50,1.29,4033,2025-11-29 19:13:22.988,2025-11-29 16:13:22.988,15,0,0,46.064,-22.959762,-67.786899,-0.10,0.10,-3.50,3.30,2.80,93.90,0,1,0,100,88,-53867,14269,46064,2901.50,49,WP,1,0,0,0,0,0,0,1764443602988,4322,4306,4319,4310,4325,4323,18,,,,,,,0,0,0,-33.00,28.00,939.00,0.00,-6.00,7.00,14,48.00,35.03,12.91,-1.00,1.00,-35.00,0,,,100,98,18,2,0,0,1,1,0,,,,,0.0,0.0,0.0,0.0,0.0,0.0,0
-22.959766,-67.786887,5.50,0.00,3.61,1.34,5.50,5.50,3.61,1.34,4232,2025-11-29 19:13:23.188,2025-11-29 16:13:23.188,15,0,0,46.064,-22.959762,-67.786899,-0.20,0.10,-3.60,4.30,0.40,93.80,0,1,0,100,88,-53867,14269,46064,2901.50,49,WP,1,0,0,0,0,0,0,1764443603187,4322,4306,4319,4310,4325,4323,18,,,,,,,0,0,0,-43.00,4.00,938.00,0.00,-6.00,10.00,14,55.00,36.07,13.44,-2.00,1.00,-36.00,0,,,100,97,18,2,0,0,1,1,0,,,,,0.0,0.0,0.0,0.0,0.0,0.0,0
-22.959766,-67.786886,5.80,0.00,3.62,1.38,5.80,5.80,3.62,1.38,4336,2025-11-29 19:13:23.292,2025-11-29 16:13:23.292,15,0,0,46.064,-22.959762,-67.786899,-0.40,0.10,-3.60,4.80,-1.30,93.70,0,1,0,100,88,-53867,14269,46064,2901.50,49,WP,1,0,0,0,0,0,0,1764443603291,4322,4306,4319,4310,4325,4323,18,,,,,,,0,0,0,-48.00,-13.00,937.00,0.00,-6.00,10.00,14,58.00,36.24,13.77,-4.00,1.00,-36.00,0,,,100,97,18,2,0,0,1,1,0,,,,,0.0,0.0,0.0,0.0,0.0,0.0,0
-22.959766,-67.786886,6.20,0.00,3.52,1.41,6.20,6.20,3.62,1.41,4436,2025-11-29 19:13:23.391,2025-11-29 16:13:23.391,15,0,0,46.064,-22.959762,-67.786899,-0.40,0.10,-3.50,5.30,-3.10,93.70,0,1,0,100,88,-53867,14269,46064,2901.50,49,WP,1,0,0,0,0,0,0,1764443603391,4322,4306,4319,4310,4325,4323,18,,,,,,,0,0,0,-53.00,-31.00,937.00,0.00,-6.00,10.00,14,62.00,35.24,14.13,-4.00,1.00,-35.00,0,,,100,97,18,2,0,0,1,1,0,,,,,0.0,0.0,0.0,0.0,0.0,0.0,0
-22.959767,-67.786886,6.50,0.00,3.51,1.45,6.50,6.50,3.62,1.45,4536,2025-11-29 19:13:23.492,2025-11-29 16:13:23.492,15,0,0,46.064,-22.959762,-67.786899,-0.30,0.10,-3.50,5.90,-4.60,93.70,0,1,0,100,88,-53867,14269,46064,2901.50,49,WP,1,0,0,0,0,0,0,1764443603491,4322,4306,4319,4310,4325,4323,18,,,,,,,0,0,0,-59.00,-46.00,937.00,0.00,-6.00,11.00,14,65.00,35.14,14.49,-3.00,1.00,-35.00,0,,,100,97,18,2,0,0,1,1,0,,,,,0.0,0.0,0.0,0.0,0.0,0.0,0
-22.959767,-67.786886,6.80,0.00,3.51,1.48,6.80,6.80,3.62,1.48,4633,2025-11-29 19:13:23.589,2025-11-29 16:13:23.589,15,0,0,46.064,-22.959762,-67.786899,-0.30,0.10,-3.50,6.30,-5.50,93.70,0,1,0,100,88,-53867,14269,46064,2901.50,49,WP,1,0,0,0,0,0,0,1764443603588,4322,4306,4319,4310,4325,4323,18,,,,,,,0,0,0,-63.00,-55.00,937.00,0.00,-6.00,12.00,14,68.00,35.14,14.80,-3.00,1.00,-35.00,0,,,100,97,18,2,0,0,1,1,0,,,,,0.0,0.0,0.0,0.0,0.0,0.0,0
-22.959767,-67.786886,7.20,0.00,3.41,1.51,7.20,7.20,3.62,1.51,4736,2025-11-29 19:13:23.692,2025-11-29 16:13:23.692,15,0,0,46.064,-22.959762,-67.786899,-0.20,0.10,-3.40,6.60,-5.90,93.70,0,1,0,100,88,-53867,14269,46064,2901.50,49,WP,1,0,0,0,0,0,0,1764443603691,4322,4306,4319,4310,4325,4323,18,,,,,,,0,0,0,-66.00,-59.00,937.00,0.00,-6.00,12.00,14,72.00,34.07,15.07,-2.00,1.00,-34.00,0,,,100,98,18,2,0,0,1,1,0,,,,,0.0,0.0,0.0,0.0,0.0,0.0,0
-22.959768,-67.786886,7.50,0.00,3.30,1.52,7.50,7.50,3.62,1.52,4839,2025-11-29 19:13:23.794,2025-11-29 16:13:23.794,15,0,0,45.171,-22.959762,-67.786899,-0.10,0.10,-3.30,6.60,-5.60,93.70,0,1,0,97,88,-81907,13983,45171,2901.50,49,WP,1,0,0,0,0,0,0,1764443603794,4322,4306,4319,4310,4325,4323,18,,,,,,,0,0,0,-66.00,-56.00,937.00,0.00,-6.00,11.00,14,75.00,33.03,15.22,-1.00,1.00,-33.00,0,,,100,98,18,2,0,0,1,1,0,,,,,0.0,0.0,0.0,0.0,0.0,0.0,0
-22.959768,-67.786886,7.80,0.00,3.30,1.53,7.80,7.80,3.62,1.53,4935,2025-11-29 19:13:23.891,2025-11-29 16:13:23.891,15,0,0,45.171,-22.959762,-67.786899,0.00,0.00,-3.30,6.70,-5.10,93.80,0,1,0,97,88,-81907,13983,45171,2901.50,49,WP,1,0,0,0,0,0,0,1764443603890,4322,4306,4319,4310,4325,4323,18,,,,,,,0,0,0,-67.00,-51.00,938.00,0.00,-6.00,11.00,14,78.00,33.00,15.35,0.00,0.00,-33.00,0,,,100,98,18,2,0,0,1,1,0,,,,,0.0,0.0,0.0,0.0,0.0,0.0,0
-22.959768,-67.786886,8.20,0.00,3.20,1.53,8.20,8.20,3.62,1.53,5040,2025-11-29 19:13:23.995,2025-11-29 16:13:23.995,15,0,0,45.171,-22.959762,-67.786899,0.00,0.00,-3.20,6.70,-3.90,93.90,0,1,0,97,88,-81907,13983,45171,2901.50,49,WP,1,0,0,0,0,0,0,1764443603995,4322,4306,4319,4310,4325,4323,18,,,,,,,0,0,0,-67.00,-39.00,939.00,0.00,-6.00,10.00,14,82.00,32.00,15.27,0.00,0.00,-32.00,0,,,100,98,18,2,0,0,1,1,0,,,,,0.0,0.0,0.0,0.0,0.0,0.0,0
-22.959768,-67.786886,8.50,0.00,3.20,1.52,8.50,8.50,3.62,1.53,5137,2025-11-29 19:13:24.093,2025-11-29 16:13:24.093,15,0,0,45.171,-22.959762,-67.786899,0.00,0.00,-3.20,6.40,-2.90,94.00,0,1,0,97,88,-81907,13983,45171,2901.50,49,WP,1,0,0,0,0,0,0,1764443604092,4322,4306,4319,4310,4325,4323,18,,,,,,,0,0,0,-64.00,-29.00,940.00,0.00,-6.00,9.00,14,85.00,32.00,15.22,0.00,0.00,-32.00,0,,,100,98,18,2,0,0,1,1,0,,,,,0.0,0.0,0.0,0.0,0.0,0.0,0
-22.959767,-67.786886,8.80,0.00,3.20,1.50,8.80,8.80,3.62,1.53,5249,2025-11-29 19:13:24.204,2025-11-29 16:13:24.204,15,0,0,45.171,-22.959762,-67.786899,0.00,0.00,-3.20,5.90,-1.80,94.00,0,1,0,97,88,-81907,13983,45171,2901.50,49,WP,1,0,0,0,0,0,0,1764443604204,4322,4306,4319,4310,4325,4323,18,,,,,,,0,0,0,-59.00,-18.00,940.00,0.00,-6.00,9.00,14,88.00,32.00,14.97,0.00,0.00,-32.00,0,,,100,98,18,2,0,0,1,1,0,,,,,0.0,0.0,0.0,0.0,0.0,0.0,0
-22.959767,-67.786886,9.10,0.00,3.20,1.48,9.10,9.10,3.62,1.53,5339,2025-11-29 19:13:24.294,2025-11-29 16:13:24.294,15,0,0,45.171,-22.959762,-67.786899,0.10,0.00,-3.20,5.60,-1.10,94.00,0,1,0,97,88,-81907,13983,45171,2901.50,49,WP,1,0,0,0,0,0,0,1764443604294,4322,4306,4319,4310,4325,4323,18,,,,,,,0,0,0,-56.00,-11.00,940.00,0.00,-6.00,8.00,14,91.00,32.02,14.81,1.00,0.00,-32.00,0,,,100,98,18,2,0,0,1,1,0,,,,,0.0,0.0,0.0,0.0,0.0,0.0,0
-22.959767,-67.786886,9.40,0.00,3.20,1.45,9.40,9.40,3.62,1.53,5444,2025-11-29 19:13:24.399,2025-11-29 16:13:24.399,15,0,0,45.171,-22.959762,-67.786899,0.10,0.00,-3.20,5.30,-0.70,94.00,0,1,0,97,88,-81907,13983,45171,2901.50,49,WP,1,0,0,0,0,0,0,1764443604399,4322,4306,4319,4310,4325,4323,18,,,,,,,0,0,0,-53.00,-7.00,940.00,0.00,-6.00,8.00,14,94.00,32.02,14.46,1.00,0.00,-32.00,0,,,100,98,18,2,0,0,1,1,0,,,,,0.0,0.0,0.0,0.0,0.0,0.0,0
-22.959767,-67.786886,9.80,0.00,3.20,1.42,9.80,9.80,3.62,1.53,5543,2025-11-29 19:13:24.499,2025-11-29 16:13:24.499,15,0,0,45.171,-22.959762,-67.786899,0.10,-0.10,-3.20,5.20,-0.80,94.00,0,1,0,97,88,-81907,13983,45171,2901.50,49,WP,1,0,0,0,0,0,0,1764443604498,4322,4306,4319,4310,4325,4323,18,,,,,,,0,0,0,-52.00,-8.00,940.00,0.00,-6.00,8.00,14,98.00,32.03,14.18,1.00,-1.00,-32.00,0,,,100,98,18,2,0,0,1,1,0,,,,,0.0,0.0,0.0,0.0,0.0,0.0,0
-22.959767,-67.786887,10.10,0.00,3.30,1.38,10.10,10.10,3.62,1.53,5560,2025-11-29 19:13:24.516,2025-11-29 16:13:24.516,15,0,0,45.171,-22.959762,-67.786899,0.00,-0.10,-3.30,4.70,-1.20,94.00,0,1,0,97,88,-81907,13983,45171,2901.50,49,WP,1,0,0,0,0,0,0,1764443604515,4322,4306,4319,4310,4325,4323,18,,,,,,,0,0,0,-47.00,-12.00,940.00,0.00,-6.00,8.00,14,101.00,33.02,13.78,0.00,-1.00,-33.00,0,,,100,98,18,2,0,0,1,1,0,,,,,0.0,0.0,0.0,0.0,0.0,0.0,0
-22.959766,-67.786887,10.40,0.00,3.30,1.35,10.40,10.40,3.62,1.53,5750,2025-11-29 19:13:24.705,2025-11-29 16:13:24.705,15,0,0,45.171,-22.959762,-67.786899,0.00,-0.10,-3.30,4.20,-1.50,94.00,0,1,0,97,88,-81907,13983,45171,2901.50,49,WP,1,0,0,0,0,0,0,1764443604705,4322,4306,4319,4310,4325,4323,18,,,,,,,0,0,0,-42.00,-15.00,940.00,0.00,-6.00,8.00,14,104.00,33.02,13.51,0.00,-1.00,-33.00,0,,,100,97,18,2,0,0,1,1,0,,,,,0.0,0.0,0.0,0.0,0.0,0.0,0
-22.959766,-67.786887,10.80,0.00,3.30,1.32,10.80,10.80,3.62,1.53,5853,2025-11-29 19:13:24.808,2025-11-29 16:13:24.808,15,0,0,45.171,-22.959762,-67.786899,0.00,-0.10,-3.30,4.00,-1.90,94.10,0,1,0,97,88,-81907,13983,45171,2901.50,49,WP,1,0,0,0,0,0,0,1764443604808,4322,4306,4319,4310,4325,4323,18,,,,,,,0,0,0,-40.00,-19.00,941.00,0.00,-6.00,8.00,14,108.00,33.02,13.15,0.00,-1.00,-33.00,0,,,100,97,18,2,0,0,1,1,0,,,,,0.0,0.0,0.0,0.0,0.0,0.0,0
-22.959766,-67.786887,11.10,0.00,3.20,1.29,11.10,11.10,3.62,1.53,5949,2025-11-29 19:13:24.905,2025-11-29 16:13:24.905,15,0,0,45.171,-22.959762,-67.786899,0.00,-0.10,-3.20,3.90,-1.90,94.10,0,1,0,97,88,-81907,13983,45171,2901.50,49,WP,1,0,0,0,0,0,0,1764443604904,4322,4306,4319,4310,4325,4323,18,,,,,,,0,0,0,-39.00,-19.00,941.00,0.00,-6.00,8.00,14,111.00,32.02,12.90,0.00,-1.00,-32.00,0,,,100,97,18,2,0,0,1,1,0,,,,,0.0,0.0,0.0,0.0,0.0,0.0,0
-22.959766,-67.786888,11.40,0.00,3.20,1.27,11.40,11.40,3.62,1.53,6052,2025-11-29 19:13:25.007,2025-11-29 16:13:25.007,15,0,0,45.171,-22.959762,-67.786899,0.00,-0.10,-3.20,4.10,-1.70,94.10,0,1,0,97,88,-81907,13983,45171,2901.50,49,WP,1,0,0,0,0,0,0,1764443605007,4322,4306,4319,4310,4325,4323,18,,,,,,,0,0,0,-41.00,-17.00,941.00,0.00,-6.00,7.00,14,114.00,32.02,12.67,0.00,-1.00,-32.00,0,,,100,97,18,2,0,0,1,1,0,,,,,0.0,0.0,0.0,0.0,0.0,0.0,0
-22.959766,-67.786888,11.80,0.00,3.10,1.25,11.80,11.80,3.62,1.53,6059,2025-11-29 19:13:25.014,2025-11-29 16:13:25.015,15,0,0,45.171,-22.959762,-67.786899,0.00,0.00,-3.10,4.50,-1.60,94.00,0,1,0,97,88,-81907,13983,45171,2901.50,49,WP,1,0,0,0,0,0,0,1764443605014,4322,4306,4319,4310,4325,4323,18,,,,,,,0,0,0,-45.00,-16.00,940.00,0.00,-6.00,7.00,14,118.00,31.00,12.52,0.00,0.00,-31.00,0,,,100,97,18,2,0,0,1,1,0,,,,,0.0,0.0,0.0,0.0,0.0,0.0,0
-22.959766,-67.786888,12.10,0.00,3.10,1.23,12.10,12.10,3.62,1.53,6250,2025-11-29 19:13:25.206,2025-11-29 16:13:25.206,15,0,0,45.171,-22.959762,-67.786899,0.00,0.00,-3.10,4.80,-1.60,94.00,0,1,0,97,88,-81907,13983,45171,2901.50,49,WP,1,0,0,0,0,0,0,1764443605205,4322,4306,4319,4310,4325,4323,18,,,,,,,0,0,0,-48.00,-16.00,940.00,0.00,-6.00,7.00,14,121.00,31.00,12.33,0.00,0.00,-31.00,0,,,100,98,18,2,0,0,1,1,0,,,,,0.0,0.0,0.0,0.0,0.0,0.0,0
-22.959766,-67.786888,12.40,0.00,3.10,1.22,12.40,12.40,3.62,1.53,6352,2025-11-29 19:13:25.307,2025-11-29 16:13:25.307,15,0,0,45.171,-22.959762,-67.786899,0.00,0.00,-3.10,4.90,-1.40,94.10,0,1,0,97,88,-81907,13983,45171,2901.50,49,WP,1,0,0,0,0,0,0,1764443605307,4322,4306,4319,4310,4325,4323,18,,,,,,,0,0,0,-49.00,-14.00,941.00,0.00,-6.00,8.00,14,124.00,31.00,12.19,0.00,0.00,-31.00,0,,,100,98,18,2,0,0,1,1,0,,,,,0.0,0.0,0.0,0.0,0.0,0.0,0
-22.959766,-67.786888,12.70,0.00,3.10,1.20,12.70,12.70,3.62,1.53,6452,2025-11-29 19:13:25.408,2025-11-29 16:13:25.408,15,0,0,45.171,-22.959762,-67.786899,0.00,0.00,-3.10,4.80,-1.70,94.10,0,1,0,97,88,-81907,13983,45171,2901.50,49,WP,1,0,0,0,0,0,0,1764443605407,4322,4306,4319,4310,4325,4323,18,,,,,,,0,0,0,-48.00,-17.00,941.00,0.00,-6.00,8.00,14,127.00,31.00,12.01,0.00,0.00,-31.00,0,,,100,98,18,2,0,0,1,1,0,,,,,0.0,0.0,0.0,0.0,0.0,0.0,0
-22.959766,-67.786888,13.00,0.00,3.00,1.19,13.00,13.00,3.62,1.53,6548,2025-11-29 19:13:25.503,2025-11-29 16:13:25.503,15,0,0,45.171,-22.959762,-67.786899,0.00,0.00,-3.00,4.70,-1.70,94.10,0,1,0,97,88,-81907,13983,45171,2901.50,49,WP,1,0,0,0,0,0,0,1764443605503,4322,4306,4319,4310,4325,4323,18,,,,,,,0,0,0,-47.00,-17.00,941.00,0.00,-6.00,8.00,14,130.00,30.00,11.88,0.00,0.00,-30.00,0,,,100,98,18,2,0,0,1,1,0,,,,,0.0,0.0,0.0,0.0,0.0,0.0,0
-22.959766,-67.786889,13.40,0.00,3.10,1.17,13.40,13.40,3.62,1.53,6650,2025-11-29 19:13:25.606,2025-11-29 16:13:25.606,15,0,0,45.171,-22.959762,-67.786899,0.00,-0.10,-3.10,4.70,-1.40,94.10,0,1,0,97,88,-81907,13983,45171,2901.50,49,WP,1,0,0,0,0,0,0,1764443605605,4322,4306,4319,4310,4325,4323,18,,,,,,,0,0,0,-47.00,-14.00,941.00,0.00,-6.00,7.00,14,134.00,31.02,11.72,0.00,-1.00,-31.00,0,,,100,98,18,2,0,0,1,1,0,,,,,0.0,0.0,0.0,0.0,0.0,0.0,0
-22.959766,-67.786889,13.70,0.00,3.10,1.16,13.70,13.70,3.62,1.53,6750,2025-11-29 19:13:25.706,2025-11-29 16:13:25.706,15,0,0,43.650,-22.959762,-67.786899,0.00,0.00,-3.10,4.60,-1.10,94.10,0,1,0,97,88,-68347,13983,43650,2901.50,49,WP,1,0,0,0,0,0,0,1764443605705,4322,4306,4319,4310,4325,4323,18,,,,,,,0,0,0,-46.00,-11.00,941.00,0.00,-6.00,7.00,14,137.00,31.00,11.59,0.00,0.00,-31.00,0,,,100,98,18,2,0,0,1,1,0,,,,,0.0,0.0,0.0,0.0,0.0,0.0,0
-22.959766,-67.786889,14.00,0.00,3.10,1.14,14.00,14.00,3.62,1.53,6853,2025-11-29 19:13:25.809,2025-11-29 16:13:25.809,15,0,0,43.650,-22.959762,-67.786899,0.00,0.00,-3.10,4.40,-1.10,94.10,0,1,0,97,88,-68347,13983,43650,2901.50,49,WP,1,0,0,0,0,0,0,1764443605808,4322,4306,4319,4310,4325,4323,18,,,,,,,0,0,0,-44.00,-11.00,941.00,0.00,-6.00,7.00,14,140.00,31.00,11.39,0.00,0.00,-31.00,0,,,100,97,18,2,0,0,1,1,0,,,,,0.0,0.0,0.0,0.0,0.0,0.0,0
-22.959766,-67.786889,14.30,0.00,3.10,1.13,14.30,14.30,3.62,1.53,6953,2025-11-29 19:13:25.908,2025-11-29 16:13:25.908,15,0,0,43.650,-22.959762,-67.786899,0.00,0.00,-3.10,4.30,-1.40,94.00,0,1,0,97,88,-68347,13983,43650,2901.50,49,WP,1,0,0,0,0,0,0,1764443605908,4322,4306,4319,4310,4325,4323,18,,,,,,,0,0,0,-43.00,-14.00,940.00,0.00,-6.00,8.00,14,143.00,31.00,11.28,0.00,0.00,-31.00,0,,,100,97,18,2,0,0,1,1,0,,,,,0.0,0.0,0.0,0.0,0.0,0.0,0
-22.959766,-67.786889,14.60,0.00,3.00,1.11,14.60,14.60,3.62,1.53,6960,2025-11-29 19:13:25.916,2025-11-29 16:13:25.916,15,0,0,43.650,-22.959762,-67.786899,0.00,0.00,-3.00,4.10,-1.80,93.90,0,1,0,97,88,-68347,13983,43650,2901.50,49,WP,1,0,0,0,0,0,0,1764443605915,4322,4306,4319,4310,4325,4323,18,,,,,,,0,0,0,-41.00,-18.00,939.00,0.00,-6.00,8.00,14,146.00,30.00,11.13,0.00,0.00,-30.00,0,,,100,97,18,2,0,0,1,1,0,,,,,0.0,0.0,0.0,0.0,0.0,0.0,0
-22.959766,-67.786889,14.90,0.00,3.00,1.11,14.90,14.90,3.62,1.53,7152,2025-11-29 19:13:26.108,2025-11-29 16:13:26.108,15,0,0,43.650,-22.959762,-67.786899,0.00,0.00,-3.00,4.10,-2.20,93.90,0,1,0,97,88,-68347,13983,43650,2901.50,49,WP,1,0,0,0,0,0,0,1764443606107,4322,4306,4319,4310,4325,4323,18,,,,,,,0,0,0,-41.00,-22.00,939.00,0.00,-6.00,9.00,14,149.00,30.00,11.06,0.00,0.00,-30.00,0,,,100,97,18,2,0,0,1,1,0,,,,,0.0,0.0,0.0,0.0,0.0,0.0,0
-22.959766,-67.786889,15.20,0.00,3.00,1.10,15.20,15.20,3.62,1.53,7159,2025-11-29 19:13:26.114,2025-11-29 16:13:26.114,15,0,0,43.650,-22.959762,-67.786899,0.00,0.00,-3.00,4.30,-2.50,94.00,0,1,0,97,88,-68347,13983,43650,2901.50,49,WP,1,0,0,0,0,0,0,1764443606114,4322,4306,4319,4310,4325,4323,18,,,,,,,0,0,0,-43.00,-25.00,940.00,0.00,-6.00,9.00,14,152.00,30.00,10.96,0.00,0.00,-30.00,0,,,100,97,18,2,0,0,1,1,0,,,,,0.0,0.0,0.0,0.0,0.0,0.0,0
-22.959766,-67.786889,15.50,0.00,2.90,1.09,15.50,15.50,3.62,1.53,7357,2025-11-29 19:13:26.312,2025-11-29 16:13:26.312,15,0,0,43.650,-22.959762,-67.786899,0.00,0.00,-2.90,4.60,-2.60,94.10,0,1,0,97,88,-68347,13983,43650,2901.50,49,WP,1,0,0,0,0,0,0,1764443606312,4322,4306,4319,4310,4325,4323,18,,,,,,,0,0,0,-46.00,-26.00,941.00,0.00,-6.00,8.00,14,155.00,29.00,10.89,0.00,0.00,-29.00,0,,,100,97,18,2,0,0,1,1,0,,,,,0.0,0.0,0.0,0.0,0.0,0.0,0
-22.959766,-67.786890,15.80,0.00,2.80,1.08,15.80,15.80,3.62,1.53,7459,2025-11-29 19:13:26.415,2025-11-29 16:13:26.415,15,0,0,43.650,-22.959762,-67.786899,0.00,0.00,-2.80,4.80,-2.80,94.10,0,1,0,97,88,-68347,13983,43650,2901.50,49,WP,1,0,0,0,0,0,0,1764443606414,4322,4306,4319,4310,4325,4323,18,,,,,,,0,0,0,-48.00,-28.00,941.00,0.00,-6.00,8.00,14,158.00,28.00,10.80,0.00,0.00,-28.00,0,,,100,97,18,2,0,0,1,1,0,,,,,0.0,0.0,0.0,0.0,0.0,0.0,0
-22.959766,-67.786890,16.10,0.00,2.70,1.07,16.10,16.10,3.62,1.53,7559,2025-11-29 19:13:26.514,2025-11-29 16:13:26.514,15,0,0,43.650,-22.959762,-67.786899,0.00,0.00,-2.70,5.40,-2.70,94.00,0,1,0,97,88,-68347,13983,43650,2901.50,49,WP,1,0,0,0,0,0,0,1764443606514,4322,4306,4319,4310,4325,4323,18,,,,,,,0,0,0,-54.00,-27.00,940.00,0.00,-6.00,8.00,14,161.00,27.00,10.74,0.00,0.00,-27.00,0,,,100,97,18,2,0,0,1,1,0,,,,,0.0,0.0,0.0,0.0,0.0,0.0,0
-22.959766,-67.786890,16.30,0.00,2.60,1.06,16.30,16.30,3.62,1.53,7567,2025-11-29 19:13:26.522,2025-11-29 16:13:26.522,15,0,0,43.650,-22.959762,-67.786899,0.00,0.00,-2.60,5.70,-2.50,94.00,0,1,0,97,88,-68347,13983,43650,2901.50,49,WP,1,0,0,0,0,0,0,1764443606522,4322,4306,4319,4310,4325,4323,18,,,,,,,0,0,0,-57.00,-25.00,940.00,0.00,-6.00,8.00,14,163.00,26.00,10.59,0.00,0.00,-26.00,0,,,100,97,18,2,0,0,1,1,0,,,,,0.0,0.0,0.0,0.0,0.0,0.0,0
-22.959766,-67.786890,16.60,0.00,2.40,1.05,16.60,16.60,3.62,1.53,7764,2025-11-29 19:13:26.720,2025-11-29 16:13:26.720,15,0,0,43.650,-22.959762,-67.786899,0.00,0.00,-2.40,5.80,-2.00,94.00,0,1,0,97,88,-68347,13983,43650,2901.50,49,WP,1,0,0,0,0,0,0,1764443606719,4322,4306,4319,4310,4325,4323,18,,,,,,,0,0,0,-58.00,-20.00,940.00,0.00,-6.00,8.00,14,166.00,24.00,10.49,0.00,0.00,-24.00,0,,,100,97,18,2,0,0,1,1,0,,,,,0.0,0.0,0.0,0.0,0.0,0.0,0
-22.959766,-67.786890,17.10,0.00,2.10,1.02,17.10,17.10,3.62,1.53,7869,2025-11-29 19:13:26.824,2025-11-29 16:13:26.825,15,0,0,43.650,-22.959762,-67.786899,0.00,0.00,-2.10,6.40,-1.40,94.00,0,1,0,97,88,-68347,13983,43650,2901.50,49,WP,1,0,0,0,0,0,0,1764443606824,4322,4306,4319,4310,4325,4323,18,,,,,,,0,0,0,-64.00,-14.00,940.00,0.00,-6.00,8.00,14,171.00,21.00,10.18,0.00,0.00,-21.00,0,,,100,97,18,2,0,0,1,1,0,,,,,0.0,0.0,0.0,0.0,0.0,0.0,0
-22.959766,-67.786890,17.30,0.00,2.00,1.00,17.30,17.30,3.62,1.53,8066,2025-11-29 19:13:27.021,2025-11-29 16:13:27.021,15,0,0,43.650,-22.959762,-67.786899,0.00,-0.10,-2.00,6.50,-1.20,94.10,0,1,0,97,88,-68347,13983,43650,2901.50,49,WP,1,0,0,0,0,0,0,1764443607021,4322,4306,4319,4310,4325,4323,18,,,,,,,0,0,0,-65.00,-12.00,941.00,0.00,-6.00,8.00,14,173.00,20.02,9.98,0.00,-1.00,-20.00,0,,,100,97,18,2,0,0,1,1,0,,,,,0.0,0.0,0.0,0.0,0.0,0.0,0
-22.959765,-67.786890,17.50,0.00,1.80,0.98,17.50,17.50,3.62,1.53,8071,2025-11-29 19:13:27.026,2025-11-29 16:13:27.026,15,0,0,43.650,-22.959762,-67.786899,0.00,-0.10,-1.80,6.50,-1.20,94.10,0,1,0,97,88,-68347,13983,43650,2901.50,49,WP,1,0,0,0,0,0,0,1764443607026,4322,4306,4319,4310,4325,4323,18,,,,,,,0,0,0,-65.00,-12.00,941.00,0.00,-6.00,8.00,14,175.00,18.03,9.83,0.00,-1.00,-18.00,0,,,100,97,18,2,0,0,1,1,0,,,,,0.0,0.0,0.0,0.0,0.0,0.0,0
-22.959766,-67.786891,17.70,0.00,1.60,0.96,17.70,17.70,3.62,1.53,8161,2025-11-29 19:13:27.117,2025-11-29 16:13:27.117,15,0,0,43.650,-22.959762,-67.786899,0.00,-0.10,-1.60,6.30,-1.20,94.10,0,1,0,97,88,-68347,13983,43650,2901.50,49,WP,1,0,0,0,0,0,0,1764443607116,4322,4306,4319,4310,4325,4323,18,,,,,,,0,0,0,-63.00,-12.00,941.00,0.00,-6.00,7.00,14,177.00,16.03,9.62,0.00,-1.00,-16.00,0,,,100,97,18,2,0,0,1,1,0,,,,,0.0,0.0,0.0,0.0,0.0,0.0,0
-22.959766,-67.786891,18.00,0.00,1.41,0.92,18.00,18.00,3.62,1.53,8368,2025-11-29 19:13:27.324,2025-11-29 16:13:27.324,15,0,0,43.650,-22.959762,-67.786899,0.00,-0.20,-1.40,5.70,-2.10,94.00,0,1,0,97,88,-68347,13983,43650,2901.50,49,WP,1,0,0,0,0,0,0,1764443607323,4322,4306,4319,4310,4325,4323,18,,,,,,,0,0,0,-57.00,-21.00,940.00,0.00,-6.00,7.00,14,180.00,14.14,9.20,0.00,-2.00,-14.00,0,,,100,99,18,2,0,0,1,1,0,,,,,0.0,0.0,0.0,0.0,0.0,0.0,0
-22.959766,-67.786891,18.10,0.00,1.22,0.90,18.10,18.10,3.62,1.53,8470,2025-11-29 19:13:27.425,2025-11-29 16:13:27.425,15,0,0,43.650,-22.959762,-67.786899,0.00,-0.20,-1.20,5.30,-2.70,93.90,0,1,0,97,88,-68347,13983,43650,2901.50,49,WP,1,0,0,0,0,0,0,1764443607425,3662,3611,3648,3624,3634,3671,18,,,,,,,0,0,0,-53.00,-27.00,939.00,0.00,-6.00,8.00,14,181.00,12.17,9.01,0.00,-2.00,-12.00,0,,,100,99,18,2,0,0,1,1,0,,,,,0.0,0.0,0.0,0.0,0.0,0.0,0
-22.959766,-67.786892,18.30,0.00,1.12,0.87,18.30,18.30,3.62,1.53,8563,2025-11-29 19:13:27.519,2025-11-29 16:13:27.519,15,0,0,43.650,-22.959762,-67.786899,0.00,-0.20,-1.10,4.60,-3.20,93.90,0,1,0,97,88,-68347,13983,43650,2901.50,49,WP,1,0,0,0,0,0,0,1764443607518,3662,3611,3648,3624,3634,3671,18,,,,,,,0,0,0,-46.00,-32.00,939.00,0.00,-6.00,9.00,14,183.00,11.18,8.75,0.00,-2.00,-11.00,0,,,100,99,18,2,0,0,1,1,0,,,,,0.0,0.0,0.0,0.0,0.0,0.0,0
-22.959766,-67.786892,18.40,0.00,1.00,0.86,18.40,18.40,3.62,1.53,8667,2025-11-29 19:13:27.623,2025-11-29 16:13:27.623,15,0,0,43.650,-22.959762,-67.786899,0.00,-0.10,-1.00,3.70,-3.70,94.00,0,1,0,97,88,-68347,13983,43650,2901.50,49,WP,1,0,0,0,0,0,0,1764443607622,3662,3611,3648,3624,3634,3671,18,,,,,,,0,0,0,-37.00,-37.00,940.00,0.00,-6.00,9.00,14,184.00,10.05,8.57,0.00,-1.00,-10.00,0,,,100,99,18,2,0,0,1,1,0,,,,,0.0,0.0,0.0,0.0,0.0,0.0,0
-22.959766,-67.786893,18.50,0.00,1.00,0.83,18.50,18.50,3.62,1.53,8868,2025-11-29 19:13:27.824,2025-11-29 16:13:27.824,15,0,0,43.650,-22.959762,-67.786899,0.00,-0.10,-1.00,2.90,-4.20,94.00,0,1,0,97,88,-68347,13983,43650,2901.50,49,WP,1,0,0,0,0,0,0,1764443607823,3662,3611,3648,3624,3634,3671,18,,,,,,,0,0,0,-29.00,-42.00,940.00,0.00,-6.00,9.00,14,185.00,10.05,8.29,0.00,-1.00,-10.00,0,,,100,99,18,2,0,0,1,1,0,,,,,0.0,0.0,0.0,0.0,0.0,0.0,0
-22.959766,-67.786893,18.60,0.00,1.00,0.81,18.60,18.60,3.62,1.53,8875,2025-11-29 19:13:27.831,2025-11-29 16:13:27.831,15,0,0,43.650,-22.959762,-67.786899,0.00,-0.10,-1.00,2.20,-4.30,94.10,0,1,0,97,88,-68347,13983,43650,2901.50,49,WP,1,0,0,0,0,0,0,1764443607830,3662,3611,3648,3624,3634,3671,18,,,,,,,0,0,0,-22.00,-43.00,941.00,0.00,-6.00,8.00,14,186.00,10.05,8.10,0.00,-1.00,-10.00,0,,,100,99,18,2,0,0,1,1,0,,,,,0.0,0.0,0.0,0.0,0.0,0.0,0
-22.959766,-67.786893,18.70,0.00,1.00,0.79,18.70,18.70,3.62,1.53,8970,2025-11-29 19:13:27.926,2025-11-29 16:13:27.926,15,0,0,43.650,-22.959762,-67.786899,0.00,-0.10,-1.00,1.80,-4.10,94.20,0,1,0,97,88,-68347,13983,43650,2901.50,49,WP,1,0,0,0,0,0,0,1764443607925,3662,3611,3648,3624,3634,3671,18,,,,,,,0,0,0,-18.00,-41.00,942.00,0.00,-6.00,8.00,14,187.00,10.05,7.86,0.00,-1.00,-10.00,0,,,100,99,18,2,0,0,1,1,0,,,,,0.0,0.0,0.0,0.0,0.0,0.0,0
-22.959766,-67.786893,18.80,0.00,1.10,0.77,18.80,18.80,3.62,1.53,9071,2025-11-29 19:13:28.026,2025-11-29 16:13:28.026,15,0,0,43.650,-22.959762,-67.786899,0.10,0.00,-1.10,1.70,-3.60,94.20,0,1,0,97,88,-68347,13983,43650,2901.50,49,WP,1,0,0,0,0,0,0,1764443608026,3662,3611,3648,3624,3634,3671,18,,,,,,,0,0,0,-17.00,-36.00,942.00,0.00,-6.00,7.00,14,188.00,11.05,7.68,1.00,0.00,-11.00,0,,,100,99,18,2,0,0,1,1,0,,,,,0.0,0.0,0.0,0.0,0.0,0.0,0
-22.959766,-67.786893,19.00,0.00,1.10,0.74,19.00,19.00,3.62,1.53,9168,2025-11-29 19:13:28.123,2025-11-29 16:13:28.123,15,0,0,43.877,-22.959762,-67.786899,0.10,0.00,-1.10,1.60,-2.60,94.20,0,1,0,97,88,-62936,13983,43877,2901.50,49,WP,1,0,0,0,0,0,0,1764443608123,3662,3611,3648,3624,3634,3671,18,,,,,,,0,0,0,-16.00,-26.00,942.00,0.00,-6.00,7.00,14,190.00,11.05,7.40,1.00,0.00,-11.00,0,,,100,99,18,2,0,0,1,1,0,,,,,0.0,0.0,0.0,0.0,0.0,0.0,0
-22.959766,-67.786893,19.20,0.00,1.12,0.72,19.20,19.20,3.62,1.53,9283,2025-11-29 19:13:28.238,2025-11-29 16:13:28.239,15,0,0,43.877,-22.959762,-67.786899,0.20,0.00,-1.10,1.90,-1.50,94.30,0,1,0,97,88,-62936,13983,43877,2901.50,49,WP,1,0,0,0,0,0,0,1764443608238,3662,3611,3648,3624,3634,3671,18,,,,,,,0,0,0,-19.00,-15.00,943.00,0.00,-6.00,6.00,14,192.00,11.18,7.20,2.00,0.00,-11.00,0,,,100,99,18,2,0,0,1,1,0,,,,,0.0,0.0,0.0,0.0,0.0,0.0,0
-22.959765,-67.786893,19.30,0.00,1.14,0.70,19.30,19.30,3.62,1.53,9370,2025-11-29 19:13:28.326,2025-11-29 16:13:28.326,15,0,0,43.877,-22.959762,-67.786899,0.30,0.00,-1.10,2.50,-0.30,94.30,0,1,0,97,88,-62936,13983,43877,2901.50,49,WP,1,0,0,0,0,0,0,1764443608325,3662,3611,3648,3624,3634,3671,18,,,,,,,0,0,0,-25.00,-3.00,943.00,0.00,-6.00,6.00,14,193.00,11.40,6.95,3.00,0.00,-11.00,0,,,100,100,18,2,0,0,1,1,0,,,,,0.0,0.0,0.0,0.0,0.0,0.0,0
-22.959765,-67.786893,19.40,0.00,1.02,0.68,19.40,19.40,3.62,1.53,9471,2025-11-29 19:13:28.426,2025-11-29 16:13:28.427,15,0,0,43.877,-22.959762,-67.786899,0.20,0.00,-1.00,3.00,0.70,94.40,0,1,0,97,88,-62936,13983,43877,2901.50,49,WP,1,0,0,0,0,0,0,1764443608426,3662,3611,3648,3624,3634,3671,18,,,,,,,0,0,0,-30.00,7.00,944.00,0.00,-6.00,6.00,14,194.00,10.20,6.81,2.00,0.00,-10.00,0,,,100,100,18,2,0,0,1,1,0,,,,,0.0,0.0,0.0,0.0,0.0,0.0,0
-22.959765,-67.786893,19.50,0.00,0.82,0.67,19.50,19.50,3.62,1.53,9574,2025-11-29 19:13:28.530,2025-11-29 16:13:28.530,15,0,0,43.877,-22.959762,-67.786899,0.20,0.00,-0.80,3.70,0.70,96.40,0,1,0,97,88,-62936,13983,43877,2901.50,49,WP,1,0,0,0,0,0,0,1764443608529,3662,3611,3648,3624,3634,3671,18,,,,,,,0,0,0,-37.00,7.00,964.00,0.00,-6.00,5.00,14,195.00,8.25,6.70,2.00,0.00,-8.00,0,,,100,100,18,2,0,0,1,1,0,,,,,0.0,0.0,0.0,0.0,0.0,0.0,0
-22.959764,-67.786893,19.60,0.00,0.63,0.67,19.60,19.60,3.62,1.53,9674,2025-11-29 19:13:28.630,2025-11-29 16:13:28.630,15,0,0,43.877,-22.959762,-67.786899,0.20,0.00,-0.60,5.00,1.00,101.60,0,1,0,97,88,-62936,13983,43877,2901.50,49,WP,1,0,0,0,0,0,0,1764443608629,3662,3611,3648,3624,3634,3671,18,,,,,,,0,0,0,-50.00,10.00,1016.00,0.00,-6.00,-7.00,14,196.00,6.32,6.66,2.00,0.00,-6.00,0,,,100,100,18,2,0,0,1,1,0,,,,,0.0,0.0,0.0,0.0,0.0,0.0,0
-22.959764,-67.786893,19.60,0.00,0.32,0.66,19.60,19.60,3.62,1.53,9875,2025-11-29 19:13:28.830,2025-11-29 16:13:28.831,15,0,0,43.877,-22.959762,-67.786899,0.10,0.00,-0.30,6.10,1.50,109.20,0,1,0,97,88,-62936,13983,43877,2901.50,49,WP,1,0,0,0,0,0,0,1764443608830,3662,3611,3648,3624,3634,3671,18,,,,,,,0,0,0,-61.00,15.00,1092.00,0.00,-6.00,-41.00,14,196.00,3.16,6.61,1.00,0.00,-3.00,0,,,100,100,18,2,0,0,1,1,0,,,,,0.0,0.0,0.0,0.0,0.0,0.0,0
-22.959764,-67.786893,19.70,0.00,0.14,0.66,19.70,19.70,3.62,1.53,9890,2025-11-29 19:13:28.845,2025-11-29 16:13:28.845,15,0,0,43.877,-22.959762,-67.786899,0.10,0.00,-0.10,6.60,2.00,118.50,0,1,0,97,88,-62936,13983,43877,2901.50,49,WP,1,0,0,0,0,0,0,1764443608845,3662,3611,3648,3624,3634,3671,18,,,,,,,0,0,0,-66.00,20.00,1185.00,0.00,-6.00,-122.00,14,197.00,1.41,6.59,1.00,0.00,-1.00,0,,,100,100,18,2,0,0,1,1,0,,,,,0.0,0.0,0.0,0.0,0.0,0.0,0
-22.959764,-67.786893,19.70,0.00,0.10,0.65,19.70,19.70,3.62,1.53,9974,2025-11-29 19:13:28.930,2025-11-29 16:13:28.930,15,0,0,43.877,-22.959762,-67.786899,0.10,0.00,0.00,6.40,2.10,127.90,0,1,0,97,88,-62936,13983,43877,2901.50,49,WP,1,0,0,0,0,0,0,1764443608929,3662,3611,3648,3624,3634,3671,18,,,,,,,0,0,0,-64.00,21.00,1279.00,0.00,-6.00,-122.00,14,197.00,1.00,6.46,1.00,0.00,0.00,0,,,100,100,18,2,0,0,1,1,0,,,,,0.0,0.0,0.0,0.0,0.0,0.0,0
-22.959764,-67.786893,19.70,0.00,0.10,0.63,19.70,19.70,3.62,1.53,10086,2025-11-29 19:13:29.042,2025-11-29 16:13:29.042,15,0,0,43.877,-22.959762,-67.786899,0.10,0.00,0.00,5.70,1.70,137.30,0,1,0,97,88,-62936,13983,43877,2901.50,49,WP,1,0,0,0,0,0,0,1764443609041,3662,3611,3648,3624,3634,3671,18,,,,,,,0,0,0,-57.00,17.00,1373.00,0.00,-13.00,-236.00,14,197.00,1.00,6.34,1.00,0.00,0.00,0,,,100,100,18,2,0,0,1,1,0,,,,,0.0,0.0,0.0,0.0,0.0,0.0,0
-22.959764,-67.786894,19.70,0.00,0.10,0.62,19.70,19.70,3.62,1.53,10185,2025-11-29 19:13:29.141,2025-11-29 16:13:29.141,15,0,0,43.877,-22.959762,-67.786899,0.10,0.00,0.00,4.90,0.90,146.60,0,1,0,97,88,-62936,13983,43877,2901.50,49,WP,1,0,0,0,0,0,0,1764443609140,3662,3611,3648,3624,3634,3671,18,,,,,,,0,0,0,-49.00,9.00,1466.00,0.00,-14.00,-231.00,14,197.00,1.00,6.16,1.00,0.00,0.00,0,,,100,100,18,2,0,0,1,1,0,,,,,0.0,0.0,0.0,0.0,0.0,0.0,0
-22.959764,-67.786894,19.70,0.00,0.22,0.60,19.70,19.70,3.62,1.53,10283,2025-11-29 19:13:29.238,2025-11-29 16:13:29.238,15,0,0,43.877,-22.959762,-67.786899,0.20,0.00,0.10,4.20,-0.20,155.90,0,1,0,97,88,-62936,13983,43877,2901.50,49,WP,1,0,0,0,0,0,0,1764443609238,3662,3611,3648,3624,3634,3671,18,,,,,,,0,0,0,-42.00,-2.00,1559.00,-1.00,-15.00,-261.00,14,197.00,2.24,6.03,2.00,0.00,1.00,0,,,100,100,18,2,0,0,1,1,0,,,,,0.0,0.0,0.0,0.0,0.0,0.0,0
-22.959764,-67.786894,19.70,0.00,0.22,0.57,19.70,19.70,3.62,1.53,10387,2025-11-29 19:13:29.343,2025-11-29 16:13:29.343,15,0,0,43.877,-22.959762,-67.786899,0.20,0.00,0.10,3.60,-1.00,164.60,0,1,0,97,88,-62936,13983,43877,2901.50,49,WP,1,0,0,0,0,0,0,1764443609342,3662,3611,3648,3624,3634,3671,18,,,,,,,0,0,0,-36.00,-10.00,1646.00,-1.00,-13.00,-248.00,14,197.00,2.24,5.74,2.00,0.00,1.00,0,,,100,100,18,2,0,0,1,1,0,,,,,0.0,0.0,0.0,0.0,0.0,0.0,0
-22.959763,-67.786894,19.70,0.00,0.22,0.56,19.70,19.70,3.62,1.53,10480,2025-11-29 19:13:29.436,2025-11-29 16:13:29.436,15,0,0,43.877,-22.959762,-67.786899,0.20,0.00,0.10,3.00,-1.30,171.10,0,1,0,97,88,-62936,13983,43877,2901.50,49,WP,1,0,0,0,0,0,0,1764443609435,3662,3611,3648,3624,3634,3671,18,,,,,,,0,0,0,-30.00,-13.00,1711.00,-1.00,-13.00,-266.00,14,197.00,2.24,5.57,2.00,0.00,1.00,0,,,100,98,18,2,0,0,1,1,0,,,,,0.0,0.0,0.0,0.0,0.0,0.0,0
-22.959763,-67.786894,19.70,0.00,0.33,0.54,19.70,19.70,3.62,1.53,10586,2025-11-29 19:13:29.541,2025-11-29 16:13:29.541,15,0,0,43.877,-22.959762,-67.786899,0.30,0.10,0.10,2.30,-0.50,175.50,0,1,0,97,88,-62936,13983,43877,2901.50,49,WP,1,0,0,0,0,0,0,1764443609541,3662,3611,3648,3624,3634,3671,18,,,,,,,0,0,0,-23.00,-5.00,1755.00,-1.00,-12.00,-234.00,14,197.00,3.32,5.41,3.00,1.00,1.00,0,,,100,98,18,2,0,0,1,1,0,,,,,0.0,0.0,0.0,0.0,0.0,0.0,0
-22.959763,-67.786894,19.60,0.00,0.37,0.54,19.70,19.70,3.62,1.53,10681,2025-11-29 19:13:29.636,2025-11-29 16:13:29.636,15,0,0,43.877,-22.959762,-67.786899,0.30,0.20,0.10,1.60,0.80,178.40,0,1,0,97,88,-62936,13983,43877,2901.50,49,WP,1,0,0,0,0,0,0,1764443609636,3662,3611,3648,3624,3634,3671,18,,,,,,,0,0,0,-16.00,8.00,1784.00,0.00,-11.00,-211.00,14,196.00,3.74,5.42,3.00,2.00,1.00,0,,,100,98,18,2,0,0,1,1,0,,,,,0.0,0.0,0.0,0.0,0.0,0.0,0
-22.959762,-67.786894,19.60,0.00,0.37,0.55,19.70,19.70,3.62,1.53,10782,2025-11-29 19:13:29.738,2025-11-29 16:13:29.738,15,0,0,43.877,-22.959762,-67.786899,0.30,0.20,0.10,1.00,2.50,179.60,0,1,0,97,88,-62936,13983,43877,2901.50,49,WP,1,0,0,0,0,0,0,1764443609737,3662,3611,3648,3624,3634,3671,18,,,,,,,0,0,0,-10.00,25.00,1796.00,0.00,-10.00,-161.00,14,196.00,3.74,5.51,3.00,2.00,1.00,0,,,100,98,18,2,0,0,1,1,0,,,,,0.0,0.0,0.0,0.0,0.0,0.0,0
-22.959762,-67.786893,19.60,0.00,0.37,0.57,19.70,19.70,3.62,1.53,10886,2025-11-29 19:13:29.841,2025-11-29 16:13:29.842,15,0,0,43.877,-22.959762,-67.786899,0.30,0.20,0.10,0.00,3.60,-179.80,0,1,0,97,88,-62936,13983,43877,2901.50,49,WP,1,0,0,0,0,0,0,1764443609841,3662,3611,3648,3624,3634,3671,18,,,,,,,0,0,0,-0.00,36.00,-1798.00,0.00,-8.00,-113.00,14,196.00,3.74,5.70,3.00,2.00,1.00,0,,,100,98,18,2,0,0,1,1,0,,,,,0.0,0.0,0.0,0.0,0.0,0.0,0
-22.959761,-67.786893,19.60,0.00,0.37,0.60,19.70,19.70,3.62,1.53,10980,2025-11-29 19:13:29.936,2025-11-29 16:13:29.936,15,0,0,43.877,-22.959762,-67.786899,0.30,0.20,0.10,-2.40,4.10,-179.70,0,1,0,97,88,-62936,13983,43877,2901.50,49,WP,1,0,0,0,0,0,0,1764443609935,3662,3611,3648,3624,3634,3671,18,,,,,,,0,0,0,24.00,41.00,-1797.00,0.00,-7.00,-60.00,14,196.00,3.74,5.96,3.00,2.00,1.00,0,,,100,98,18,2,0,0,1,1,0,,,,,0.0,0.0,0.0,0.0,0.0,0.0,0
-22.959761,-67.786893,19.60,0.00,0.28,0.63,19.70,19.70,3.62,1.53,11084,2025-11-29 19:13:30.039,2025-11-29 16:13:30.039,15,0,0,43.877,-22.959762,-67.786899,0.20,0.20,0.00,-5.80,4.20,-179.80,0,1,0,97,88,-62936,13983,43877,2901.50,49,WP,1,0,0,0,0,0,0,1764443610039,3662,3611,3648,3624,3634,3671,18,,,,,,,0,0,0,58.00,42.00,-1798.00,0.00,-6.00,3583.00,14,196.00,2.83,6.25,2.00,2.00,0.00,0,,,100,95,18,2,0,0,1,1,0,,,,,0.0,0.0,0.0,0.0,0.0,0.0,0
-22.959761,-67.786893,19.60,0.00,0.10,0.66,19.70,19.70,3.62,1.53,11187,2025-11-29 19:13:30.142,2025-11-29 16:13:30.142,15,0,0,44.565,-22.959762,-67.786899,0.00,0.10,0.00,-9.30,4.10,-179.90,0,1,0,97,88,-53782,13983,44565,2901.50,49,WP,1,0,0,0,0,0,0,1764443610142,3662,3611,3648,3624,3634,3671,18,,,,,,,0,0,0,93.00,41.00,-1799.00,0.00,-6.00,16.00,14,196.00,1.00,6.57,0.00,1.00,0.00,0,,,100,95,18,2,0,0,1,1,0,,,,,0.0,0.0,0.0,0.0,0.0,0.0,0
-22.959761,-67.786892,19.60,0.00,0.14,0.68,19.70,19.70,3.62,1.53,11286,2025-11-29 19:13:30.241,2025-11-29 16:13:30.242,15,0,0,44.565,-22.959762,-67.786899,-0.10,0.10,0.00,-12.00,3.80,179.90,0,1,0,97,88,-53782,13983,44565,2901.50,49,WP,1,0,0,0,0,0,0,1764443610241,3662,3611,3648,3624,3634,3671,18,,,,,,,0,0,0,120.00,38.00,1799.00,0.00,-6.00,41.00,14,196.00,1.41,6.80,-1.00,1.00,0.00,0,,,100,95,18,2,0,0,1,1,0,,,,,0.0,0.0,0.0,0.0,0.0,0.0,0
-22.959761,-67.786892,19.60,0.00,0.30,0.69,19.70,19.70,3.62,1.53,11383,2025-11-29 19:13:30.339,2025-11-29 16:13:30.339,15,0,0,44.565,-22.959762,-67.786899,-0.30,0.00,0.00,-13.90,3.40,179.80,0,1,0,97,88,-53782,13983,44565,2901.50,49,WP,1,0,0,0,0,0,0,1764443610338,3662,3611,3648,3624,3634,3671,18,,,,,,,0,0,0,139.00,34.00,1798.00,0.00,-6.00,60.00,14,196.00,3.00,6.93,-3.00,0.00,0.00,0,,,100,95,18,2,0,0,1,1,0,,,,,0.0,0.0,0.0,0.0,0.0,0.0,0
-22.959762,-67.786892,19.60,0.00,0.60,0.71,19.70,19.70,3.62,1.53,11487,2025-11-29 19:13:30.442,2025-11-29 16:13:30.442,15,0,0,44.565,-22.959762,-67.786899,-0.60,0.00,0.00,-14.90,3.20,179.80,0,1,0,97,88,-53782,13983,44565,2901.50,49,WP,1,0,0,0,0,0,0,1764443610442,3662,3611,3648,3624,3634,3671,18,,,,,,,0,0,0,149.00,32.00,1798.00,0.00,-6.00,-3522.00,14,196.00,6.00,7.06,-6.00,0.00,0.00,0,,,100,95,18,2,0,0,1,1,0,,,,,0.0,0.0,0.0,0.0,0.0,0.0,0
-22.959763,-67.786892,19.60,0.00,0.90,0.73,19.70,19.70,3.62,1.53,11587,2025-11-29 19:13:30.543,2025-11-29 16:13:30.543,15,0,0,44.565,-22.959762,-67.786899,-0.90,0.00,0.00,-15.10,3.20,179.80,0,1,0,97,88,-53782,13983,44565,2901.50,49,WP,1,0,0,0,0,0,0,1764443610542,3662,3611,3648,3624,3634,3671,18,,,,,,,0,0,0,151.00,32.00,1798.00,0.00,-6.00,-3510.00,14,196.00,9.00,7.27,-9.00,0.00,0.00,0,,,100,95,18,2,0,0,1,1,0,,,,,0.0,0.0,0.0,0.0,0.0,0.0,0
-22.959764,-67.786892,19.60,0.00,1.20,0.77,19.70,19.70,3.62,1.53,11686,2025-11-29 19:13:30.642,2025-11-29 16:13:30.642,15,0,0,44.565,-22.959762,-67.786899,-1.20,0.10,0.00,-14.80,3.60,179.70,0,1,0,97,88,-53782,13983,44565,2901.50,49,WP,1,0,0,0,0,0,0,1764443610641,3662,3611,3648,3624,3634,3671,18,,,,,,,0,0,0,148.00,36.00,1797.00,0.00,-6.00,-3500.00,14,196.00,12.04,7.75,-12.00,1.00,0.00,0,,,100,95,18,2,0,0,1,1,0,,,,,0.0,0.0,0.0,0.0,0.0,0.0,0
-22.959765,-67.786892,19.60,0.00,1.50,0.86,19.70,19.70,3.62,1.53,11788,2025-11-29 19:13:30.744,2025-11-29 16:13:30.744,15,0,0,44.565,-22.959762,-67.786899,-1.50,0.10,0.00,-14.50,4.00,179.60,0,1,0,97,88,-53782,13983,44565,2901.50,49,WP,1,0,0,0,0,0,0,1764443610743,3662,3611,3648,3624,3634,3671,18,,,,,,,0,0,0,145.00,40.00,1796.00,0.00,-6.00,-3490.00,14,196.00,15.03,8.63,-15.00,1.00,0.00,0,,,100,95,18,2,0,0,1,1,0,,,,,0.0,0.0,0.0,0.0,0.0,0.0,0
-22.959767,-67.786892,19.60,0.00,1.70,0.99,19.70,19.70,3.62,1.53,11892,2025-11-29 19:13:30.847,2025-11-29 16:13:30.847,15,0,0,44.565,-22.959762,-67.786899,-1.70,0.10,0.00,-14.20,4.40,179.60,0,1,0,97,88,-53782,13983,44565,2901.50,49,WP,1,0,0,0,0,0,0,1764443610847,3662,3611,3648,3624,3634,3671,18,,,,,,,0,0,0,142.00,44.00,1796.00,0.00,-6.00,-3482.00,14,196.00,17.03,9.87,-17.00,1.00,0.00,0,,,100,95,18,2,0,0,1,1,0,,,,,0.0,0.0,0.0,0.0,0.0,0.0,0
-22.959769,-67.786891,19.60,0.00,2.00,1.17,19.70,19.70,3.62,1.53,11992,2025-11-29 19:13:30.948,2025-11-29 16:13:30.948,15,0,0,44.565,-22.959762,-67.786899,-2.00,0.10,0.00,-13.80,5.00,179.60,0,1,0,97,88,-53782,13983,44565,2901.50,49,WP,1,0,0,0,0,0,0,1764443610947,3662,3611,3648,3624,3634,3671,18,,,,,,,0,0,0,138.00,50.00,1796.00,0.00,-6.00,-3475.00,14,196.00,20.02,11.73,-20.00,1.00,0.00,0,,,100,95,18,2,0,0,1,1,0,,,,,0.0,0.0,0.0,0.0,0.0,0.0,0
-22.959772,-67.786891,19.60,0.00,2.30,1.39,19.70,19.70,3.62,1.53,12104,2025-11-29 19:13:31.059,2025-11-29 16:13:31.059,15,0,0,44.565,-22.959762,-67.786899,-2.30,0.10,0.00,-13.20,5.40,179.60,0,1,0,97,88,-53782,13983,44565,2901.50,49,WP,1,0,0,0,0,0,0,1764443611059,3662,3611,3648,3624,3634,3671,18,,,,,,,0,0,0,132.00,54.00,1796.00,0.00,-6.00,-3469.00,14,196.00,23.02,13.88,-23.00,1.00,0.00,0,,,100,99,18,2,0,0,1,1,0,,,,,0.0,0.0,0.0,0.0,0.0,0.0,0
-22.959775,-67.786891,19.60,0.00,2.50,1.65,19.70,19.70,3.62,1.65,12189,2025-11-29 19:13:31.145,2025-11-29 16:13:31.145,15,0,0,44.565,-22.959762,-67.786899,-2.50,0.00,0.00,-13.20,5.60,179.60,0,1,0,97,88,-53782,13983,44565,2901.50,49,WP,1,0,0,0,0,0,0,1764443611144,3662,3611,3648,3624,3634,3671,18,,,,,,,0,0,0,132.00,56.00,1796.00,0.00,-6.00,-3464.00,14,196.00,25.00,16.53,-25.00,0.00,0.00,0,,,100,99,18,2,0,0,1,1,0,,,,,0.0,0.0,0.0,0.0,0.0,0.0,0
-22.959781,-67.786891,19.70,0.00,3.01,2.26,19.70,19.70,3.62,2.26,12398,2025-11-29 19:13:31.353,2025-11-29 16:13:31.353,15,0,0,44.565,-22.959762,-67.786899,-3.00,0.00,-0.20,-14.00,5.10,179.70,0,1,0,97,88,-53782,13983,44565,2901.50,49,WP,1,0,0,0,0,0,0,1764443611353,3662,3611,3648,3624,3634,3671,18,,,,,,,0,0,0,140.00,51.00,1797.00,0.00,-6.00,-3460.00,14,197.00,30.07,22.57,-30.00,0.00,-2.00,0,,,100,99,18,2,0,0,1,1,0,,,,,0.0,0.0,0.0,0.0,0.0,0.0,0
-22.959784,-67.786891,19.70,0.00,3.21,2.60,19.70,19.70,3.62,2.60,12502,2025-11-29 19:13:31.457,2025-11-29 16:13:31.457,15,0,0,44.565,-22.959762,-67.786899,-3.20,-0.10,-0.20,-14.60,4.70,179.70,0,1,0,97,88,-53782,13983,44565,2901.50,49,WP,1,0,0,0,0,0,0,1764443611457,3662,3611,3648,3624,3634,3671,18,,,,,,,0,0,0,146.00,47.00,1797.00,0.00,-6.00,-3460.00,14,197.00,32.08,25.99,-32.00,-1.00,-2.00,0,,,100,99,18,2,0,0,1,1,0,,,,,0.0,0.0,0.0,0.0,0.0,0.0,0
-22.959787,-67.786892,19.70,0.00,3.51,2.96,19.70,19.70,3.62,2.96,12594,2025-11-29 19:13:31.549,2025-11-29 16:13:31.549,15,0,0,44.565,-22.959762,-67.786899,-3.50,-0.10,-0.20,-15.00,4.20,179.70,0,1,0,97,88,-53782,13983,44565,2901.50,49,WP,1,0,0,0,0,0,0,1764443611549,3662,3611,3648,3624,3634,3671,18,,,,,,,0,0,0,150.00,42.00,1797.00,0.00,-6.00,-3449.00,14,197.00,35.07,29.61,-35.00,-1.00,-2.00,0,,,100,99,18,2,0,0,1,1,0,,,,,0.0,0.0,0.0,0.0,0.0,0.0,0
-22.959791,-67.786892,19.80,0.00,3.71,3.35,19.80,19.80,3.71,3.35,12699,2025-11-29 19:13:31.655,2025-11-29 16:13:31.655,15,0,0,44.565,-22.959762,-67.786899,-3.70,-0.10,-0.20,-15.10,3.80,179.80,0,1,0,97,88,-53782,13983,44565,2901.50,49,WP,1,0,0,0,0,0,0,1764443611654,3662,3611,3648,3624,3634,3671,18,,,,,,,0,0,0,151.00,38.00,1798.00,0.00,-6.00,-3449.00,14,198.00,37.07,33.49,-37.00,-1.00,-2.00,0,,,100,99,18,2,0,0,1,1,0,,,,,0.0,0.0,0.0,0.0,0.0,0.0,0
-22.959795,-67.786892,19.80,0.00,4.01,3.77,19.80,19.80,4.01,3.77,12802,2025-11-29 19:13:31.758,2025-11-29 16:13:31.758,15,0,0,44.565,-22.959762,-67.786899,-4.00,-0.20,-0.20,-14.70,3.60,179.80,0,1,0,97,88,-53782,13983,44565,2901.50,49,WP,1,0,0,0,0,0,0,1764443611757,3662,3611,3648,3624,3634,3671,18,,,,,,,0,0,0,147.00,36.00,1798.00,0.00,-6.00,-3450.00,14,198.00,40.10,37.74,-40.00,-2.00,-2.00,0,,,100,99,18,2,0,0,1,1,0,,,,,0.0,0.0,0.0,0.0,0.0,0.0,0
-22.959799,-67.786893,19.80,0.00,4.21,4.22,19.80,19.80,4.21,4.22,12898,2025-11-29 19:13:31.854,2025-11-29 16:13:31.854,15,0,0,44.565,-22.959762,-67.786899,-4.20,-0.20,-0.10,-14.30,3.50,179.90,0,1,0,97,88,-53782,13983,44565,2901.50,49,WP,1,0,0,0,0,0,0,1764443611853,3662,3611,3648,3624,3634,3671,18,,,,,,,0,0,0,143.00,35.00,1799.00,0.00,-6.00,-3450.00,14,198.00,42.06,42.23,-42.00,-2.00,-1.00,0,,,100,99,18,2,0,0,1,1,0,,,,,0.0,0.0,0.0,0.0,0.0,0.0,0
-22.959804,-67.786893,19.90,0.00,4.41,4.69,19.90,19.90,4.41,4.69,13000,2025-11-29 19:13:31.955,2025-11-29 16:13:31.955,15,0,0,44.658,-22.959762,-67.786899,-4.40,-0.20,-0.10,-14.10,3.30,179.90,0,1,0,97,88,-53254,13887,44658,2901.50,49,WP,1,0,0,0,0,0,0,1764443611955,3662,3611,3648,3624,3634,3671,18,,,,,,,0,0,0,141.00,33.00,1799.00,0.00,-6.00,-3450.00,14,199.00,44.06,46.91,-44.00,-2.00,-1.00,0,,,100,99,18,2,0,0,1,1,0,,,,,0.0,0.0,0.0,0.0,0.0,0.0,0
-22.959808,-67.786894,19.90,0.00,4.60,5.18,19.90,19.90,4.60,5.18,13095,2025-11-29 19:13:32.050,2025-11-29 16:13:32.051,15,0,0,44.658,-22.959762,-67.786899,-4.60,-0.20,0.00,-14.20,3.30,-179.90,0,1,0,97,88,-53254,13887,44658,2901.50,49,WP,1,0,0,0,0,0,0,1764443612050,3662,3611,3648,3624,3634,3671,18,,,,,,,0,0,0,142.00,33.00,-1799.00,0.00,-6.00,-3450.00,14,199.00,46.04,51.84,-46.00,-2.00,0.00,0,,,100,99,18,2,0,0,1,1,0,,,,,0.0,0.0,0.0,0.0,0.0,0.0,0
-22.959813,-67.786894,19.80,0.00,4.81,5.69,19.90,19.90,4.81,5.69,13201,2025-11-29 19:13:32.157,2025-11-29 16:13:32.157,15,0,0,44.658,-22.959762,-67.786899,-4.80,-0.20,0.10,-14.40,3.10,-179.90,0,1,0,97,88,-53254,13887,44658,2901.50,49,WP,1,0,0,0,0,0,0,1764443612156,3662,3611,3648,3624,3634,3671,18,,,,,,,0,0,0,144.00,31.00,-1799.00,0.00,-6.00,149.00,14,198.00,48.05,56.92,-48.00,-2.00,1.00,0,,,100,99,18,2,0,0,1,1,0,,,,,0.0,0.0,0.0,0.0,0.0,0.0,0
-22.959818,-67.786894,19.80,0.00,5.00,6.22,19.90,19.90,5.00,6.22,13302,2025-11-29 19:13:32.258,2025-11-29 16:13:32.258,15,0,0,44.658,-22.959762,-67.786899,-5.00,-0.10,0.20,-14.70,3.10,179.90,0,1,0,97,88,-53254,13887,44658,2901.50,49,WP,1,0,0,0,0,0,0,1764443612257,3662,3611,3648,3624,3634,3671,18,,,,,,,0,0,0,147.00,31.00,1799.00,0.00,-6.00,149.00,14,198.00,50.05,62.23,-50.00,-1.00,2.00,0,,,100,99,18,2,0,0,1,1,0,,,,,0.0,0.0,0.0,0.0,0.0,0.0,0
-22.959822,-67.786894,19.80,0.00,5.20,6.76,19.90,19.90,5.20,6.76,13401,2025-11-29 19:13:32.356,2025-11-29 16:13:32.356,15,0,0,44.658,-22.959762,-67.786899,-5.20,-0.10,0.20,-15.00,3.20,179.90,0,1,0,97,88,-53254,13887,44658,2901.50,49,WP,1,0,0,0,0,0,0,1764443612356,3662,3611,3648,3624,3634,3671,18,,,,,,,0,0,0,150.00,32.00,1799.00,0.00,-6.00,149.00,14,198.00,52.05,67.61,-52.00,-1.00,2.00,0,,,100,99,18,2,0,0,1,1,0,,,,,0.0,0.0,0.0,0.0,0.0,0.0,0
-22.959828,-67.786895,19.70,0.00,5.41,7.33,19.90,19.90,5.41,7.33,13499,2025-11-29 19:13:32.454,2025-11-29 16:13:32.454,15,0,0,44.658,-22.959762,-67.786899,-5.40,-0.10,0.30,-15.50,3.40,179.90,0,1,0,97,88,-53254,13887,44658,2901.50,49,WP,1,0,0,0,0,0,0,1764443612454,3662,3611,3648,3624,3634,3671,18,,,,,,,0,0,0,155.00,34.00,1799.00,0.00,-6.00,-3449.00,14,197.00,54.09,73.28,-54.00,-1.00,3.00,0,,,100,99,18,2,0,0,1,1,0,,,,,0.0,0.0,0.0,0.0,0.0,0.0,0
-22.959833,-67.786895,19.70,0.00,5.61,7.91,19.90,19.90,5.61,7.91,13602,2025-11-29 19:13:32.558,2025-11-29 16:13:32.558,15,0,0,44.658,-22.959762,-67.786899,-5.60,-0.10,0.30,-15.80,3.40,179.90,0,1,0,97,88,-53254,13887,44658,2901.50,49,WP,1,0,0,0,0,0,0,1764443612557,3662,3611,3648,3624,3634,3671,18,,,,,,,0,0,0,158.00,34.00,1799.00,0.00,-6.00,-3450.00,14,197.00,56.09,79.12,-56.00,-1.00,3.00,0,,,100,99,18,2,0,0,1,1,0,,,,,0.0,0.0,0.0,0.0,0.0,0.0,0
-22.959838,-67.786895,19.60,0.00,5.91,8.53,19.90,19.90,5.91,8.53,13702,2025-11-29 19:13:32.657,2025-11-29 16:13:32.657,15,0,0,44.658,-22.959762,-67.786899,-5.90,-0.10,0.30,-16.20,3.60,179.90,0,1,0,97,88,-53254,13887,44658,2901.50,49,WP,1,0,0,0,0,0,0,1764443612657,3662,3611,3648,3624,3634,3671,18,,,,,,,0,0,0,162.00,36.00,1799.00,0.00,-6.00,-3449.00,14,196.00,59.08,85.30,-59.00,-1.00,3.00,0,,,100,100,18,2,0,0,1,1,0,,,,,0.0,0.0,0.0,0.0,0.0,0.0,0
-22.959844,-67.786895,19.60,0.00,6.20,9.17,19.90,19.90,6.20,9.17,13806,2025-11-29 19:13:32.761,2025-11-29 16:13:32.762,15,0,0,44.658,-22.959762,-67.786899,-6.20,-0.10,0.20,-15.90,3.90,179.70,0,1,0,97,88,-53254,13887,44658,2901.50,49,WP,1,0,0,0,0,0,0,1764443612761,3662,3611,3648,3624,3634,3671,18,,,,,,,0,0,0,159.00,39.00,1797.00,0.00,-6.00,-3449.00,14,196.00,62.04,91.74,-62.00,-1.00,2.00,0,,,100,100,18,2,0,0,1,1,0,,,,,0.0,0.0,0.0,0.0,0.0,0.0,0
-22.959850,-67.786895,19.60,0.00,6.50,9.85,19.90,19.90,6.50,9.85,13906,2025-11-29 19:13:32.862,2025-11-29 16:13:32.862,15,0,0,44.658,-22.959762,-67.786899,-6.50,-0.10,0.10,-15.10,4.60,179.60,0,1,0,97,88,-53254,13887,44658,2901.50,49,WP,1,0,0,0,0,0,0,1764443612861,3662,3611,3648,3624,3634,3671,18,,,,,,,0,0,0,151.00,46.00,1796.00,0.00,-6.00,-3449.00,14,196.00,65.02,98.50,-65.00,-1.00,1.00,0,,,100,100,18,2,0,0,1,1,0,,,,,0.0,0.0,0.0,0.0,0.0,0.0,0
