latitude,longitude,altitude(m),ultrasonicHeight(m),speed(mps),distance(m),max_altitude(m),max_ascent(m),max_speed(mps),max_distance(m),time(millisecond),datetime(utc),datetime(local),satellites,pressure(Pa),temperature(F),voltage(v),home_latitude,home_longitude,velocityX(mps),velocityY(mps),velocityZ(mps),pitch(deg),roll(deg),yaw(deg),powerlevel,isflying,istakingphoto,remainPowerPercent,remainLifePercent,currentCurrent,currentElectricity,currentVoltage,batteryTemperature,dischargeCount,flightmode,isMotorsOn,isTakingVideo,Rc_elevator,Rc_aileron,Rc_throttle,Rc_rudder,Rc_gyro,timestamp,Battery_Cell1,Battery_Cell2,Battery_Cell3,Battery_Cell4,Battery_Cell5,Battery_Cell6,Dronetype,AppVersion,Planename,FlyControllerSerialNumber,RemoteSerialNumber,BatterySerialNumber,CENTER_BATTERY.productDate,CENTER_BATTERY.serialNo,CENTER_BATTERY.fullCapacity,CENTER_BATTERY.productDateRaw,pitchRaw,rollRaw,yawRaw,gimbalPitchRaw,gimbalRollRaw,gimbalYawRaw,flyState,altitudeRaw,speedRaw,distanceRaw,velocityXRaw,velocityYRaw,velocityZRaw,data_reuse,App_Tip,App_Warning,downlinkSignalQuality,uplinkSignalQuality,transmissionChannel,rcModeSwitch,rcHome,rcPause,rcTransform,rcJoystickMode,appMode,FlyControllerSerialNumber_legacy,RemoteSerialNumber_legacy,BatterySerialNumber_legacy,Battery2SerialNumber,frontAvoidDist,backAvoidDist,rightAvoidDist,leftAvoidDist,upAvoidDist,downAvoidDist,isBrakingToAvoid
-22.959748,-67.786885,0.60,0.00,0.81,0.37,0.60,0.60,0.81,0.37,3,2025-12-01 17:11:35.315,2025-12-01 14:11:35.316,16,0,0,51.587,-22.959747,-67.786889,0.00,0.40,-0.70,3.40,-0.20,93.50,0,1,0,100,91,-12095,10996,51587,2931.50,39,TakeOff,1,0,0,0,0,0,0,1764609095315,4315,4316,4311,4305,4315,4320,18,Litchi_iOS_2.15.7,EIK Matrice 1,0670131556,03LLCA05XT,,,0,10996,0,-34.00,-2.00,935.00,1.00,2.00,48.00,11,6.00,8.06,3.66,0.00,4.00,-7.00,0,,,100,99,19,2,0,0,1,1,0,(null),(null),(null),(null),0.0,0.0,0.0,0.0,0.0,0.0,0
-22.959748,-67.786885,0.60,0.00,0.76,0.41,0.60,0.60,0.81,0.41,108,2025-12-01 17:11:35.421,2025-12-01 14:11:35.421,16,0,0,51.587,-22.959747,-67.786889,0.00,0.30,-0.70,3.70,-0.30,93.50,0,1,0,100,91,-12095,10996,51587,2931.50,39,TakeOff,1,0,0,0,0,0,0,1764609095420,4315,4316,4311,4305,4315,4320,18,,,,,,,0,0,0,-37.00,-3.00,935.00,1.00,2.00,47.00,11,6.00,7.62,4.08,0.00,3.00,-7.00,0,,,100,99,19,2,0,0,1,1,0,,,,,0.0,0.0,0.0,0.0,0.0,0.0,0
-22.959748,-67.786884,0.80,0.00,0.63,0.47,0.80,0.80,0.81,0.47,312,2025-12-01 17:11:35.625,2025-12-01 14:11:35.625,16,0,0,51.587,-22.959747,-67.786889,0.00,0.20,-0.60,3.80,-0.90,93.60,0,1,0,100,91,-12095,10996,51587,2931.50,39,TakeOff,1,0,0,0,0,0,0,1764609095624,4315,4316,4311,4305,4315,4320,18,,,,,,,0,0,0,-38.00,-9.00,936.00,1.00,2.00,47.00,11,8.00,6.32,4.73,0.00,2.00,-6.00,0,,,100,99,19,2,0,0,1,1,0,,,,,0.0,0.0,0.0,0.0,0.0,0.0,0
-22.959748,-67.786884,0.80,0.00,0.54,0.50,0.80,0.80,0.81,0.50,409,2025-12-01 17:11:35.721,2025-12-01 14:11:35.721,16,0,0,51.587,-22.959747,-67.786889,0.00,0.20,-0.50,3.50,-0.60,93.60,0,1,0,100,91,-12095,10996,51587,2931.50,39,TakeOff,1,0,0,0,0,0,0,1764609095721,4315,4316,4311,4305,4315,4320,18,,,,,,,0,0,0,-35.00,-6.00,936.00,0.00,2.00,47.00,11,8.00,5.39,4.99,0.00,2.00,-5.00,0,,,100,99,19,2,0,0,1,1,0,,,,,0.0,0.0,0.0,0.0,0.0,0.0,0
-22.959748,-67.786884,0.80,0.00,0.54,0.52,0.80,0.80,0.81,0.52,514,2025-12-01 17:11:35.826,2025-12-01 14:11:35.826,16,0,0,51.587,-22.959747,-67.786889,0.00,0.20,-0.50,3.10,-0.20,93.60,0,1,0,100,91,-12095,10996,51587,2931.50,39,TakeOff,1,0,0,0,0,0,0,1764609095826,4315,4316,4311,4305,4315,4320,18,,,,,,,0,0,0,-31.00,-2.00,936.00,0.00,2.00,46.00,11,8.00,5.39,5.23,0.00,2.00,-5.00,0,,,100,99,19,2,0,0,1,1,0,,,,,0.0,0.0,0.0,0.0,0.0,0.0,0
-22.959748,-67.786884,0.90,0.00,0.45,0.54,0.90,0.90,0.81,0.54,612,2025-12-01 17:11:35.924,2025-12-01 14:11:35.924,16,0,0,51.587,-22.959747,-67.786889,0.00,0.20,-0.40,2.60,0.20,93.60,0,1,0,100,91,-12095,10996,51587,2931.50,39,TakeOff,1,0,0,0,0,0,0,1764609095924,4315,4316,4311,4305,4315,4320,18,,,,,,,0,0,0,-26.00,2.00,936.00,0.00,2.00,46.00,11,9.00,4.47,5.42,0.00,2.00,-4.00,0,,,100,99,19,2,0,0,1,1,0,,,,,0.0,0.0,0.0,0.0,0.0,0.0,0
-22.959748,-67.786884,0.90,0.00,0.32,0.56,0.90,0.90,0.81,0.56,715,2025-12-01 17:11:36.027,2025-12-01 14:11:36.028,16,0,0,51.587,-22.959747,-67.786889,0.00,0.10,-0.30,2.40,0.70,93.70,0,1,0,100,91,-12095,10996,51587,2931.50,39,TakeOff,1,0,0,0,0,0,0,1764609096027,4315,4316,4311,4305,4315,4320,18,,,,,,,0,0,0,-24.00,7.00,937.00,0.00,2.00,46.00,11,9.00,3.16,5.61,0.00,1.00,-3.00,0,,,100,99,19,2,0,0,1,1,0,,,,,0.0,0.0,0.0,0.0,0.0,0.0,0
-22.959748,-67.786883,0.90,0.00,0.32,0.58,0.90,0.90,0.81,0.58,816,2025-12-01 17:11:36.129,2025-12-01 14:11:36.129,16,0,0,51.587,-22.959747,-67.786889,0.00,0.10,-0.30,2.20,0.80,93.60,0,1,0,100,91,-12095,10996,51587,2931.50,39,TakeOff,1,0,0,0,0,0,0,1764609096128,4315,4316,4311,4305,4315,4320,18,,,,,,,0,0,0,-22.00,8.00,936.00,1.00,2.00,46.00,11,9.00,3.16,5.78,0.00,1.00,-3.00,0,,,100,99,19,2,0,0,1,1,0,,,,,0.0,0.0,0.0,0.0,0.0,0.0,0
-22.959747,-67.786883,1.00,0.00,0.22,0.59,1.00,1.00,0.81,0.59,917,2025-12-01 17:11:36.229,2025-12-01 14:11:36.229,16,0,0,51.587,-22.959747,-67.786889,0.00,0.10,-0.20,2.10,0.80,93.70,0,1,0,100,91,-12095,10996,51587,2931.50,39,TakeOff,1,0,0,0,0,0,0,1764609096229,4315,4316,4311,4305,4315,4320,18,,,,,,,0,0,0,-21.00,8.00,937.00,0.00,2.00,46.00,11,10.00,2.24,5.93,0.00,1.00,-2.00,0,,,100,100,19,2,0,0,1,1,0,,,,,0.0,0.0,0.0,0.0,0.0,0.0,0
-22.959747,-67.786883,1.00,0.00,0.32,0.61,1.00,1.00,0.81,0.61,1018,2025-12-01 17:11:36.330,2025-12-01 14:11:36.330,15,0,0,51.587,-22.959747,-67.786889,0.00,0.10,-0.30,2.00,0.80,93.60,0,1,0,100,91,-12095,10996,51587,2931.50,39,TakeOff,1,0,0,0,0,0,0,1764609096330,4315,4316,4311,4305,4315,4320,18,,,,,,,0,0,0,-20.00,8.00,936.00,0.00,2.00,46.00,11,10.00,3.16,6.08,0.00,1.00,-3.00,0,,,100,100,19,2,0,0,1,1,0,,,,,0.0,0.0,0.0,0.0,0.0,0.0,0
-22.959747,-67.786883,1.00,0.00,0.32,0.62,1.00,1.00,0.81,0.62,1115,2025-12-01 17:11:36.427,2025-12-01 14:11:36.427,15,0,0,51.587,-22.959747,-67.786889,0.00,0.10,-0.30,2.10,0.50,93.60,0,1,0,100,91,-12095,10996,51587,2931.50,39,GPS,1,0,0,0,0,0,0,1764609096427,4315,4316,4311,4305,4315,4320,18,,,,,,,0,0,0,-21.00,5.00,936.00,0.00,1.00,46.00,6,10.00,3.16,6.23,0.00,1.00,-3.00,0,,,100,100,19,2,0,0,1,1,0,,,,,0.0,0.0,0.0,0.0,0.0,0.0,0
-22.959747,-67.786883,1.10,0.00,0.32,0.64,1.10,1.10,0.81,0.64,1315,2025-12-01 17:11:36.628,2025-12-01 14:11:36.628,15,0,0,51.587,-22.959747,-67.786889,0.00,0.10,-0.30,2.30,0.00,93.70,0,1,0,100,91,-12095,10996,51587,2931.50,39,WP,1,0,0,0,0,0,0,1764609096627,4315,4316,4311,4305,4315,4320,18,,,,,,,0,0,0,-23.00,0.00,937.00,1.00,1.00,46.00,14,11.00,3.16,6.40,0.00,1.00,-3.00,0,,,100,100,19,2,0,0,1,1,0,,,,,0.0,0.0,0.0,0.0,0.0,0.0,0
-22.959747,-67.786883,1.10,0.00,0.32,0.65,1.10,1.10,0.81,0.65,1415,2025-12-01 17:11:36.728,2025-12-01 14:11:36.728,15,0,0,51.587,-22.959747,-67.786889,0.00,0.10,-0.30,2.50,0.00,93.80,0,1,0,100,91,-12095,10996,51587,2931.50,39,WP,1,0,0,0,0,0,0,1764609096727,4315,4316,4311,4305,4315,4320,18,,,,,,,0,0,0,-25.00,0.00,938.00,1.00,1.00,45.00,14,11.00,3.16,6.52,0.00,1.00,-3.00,0,,,100,100,19,2,0,0,1,1,0,,,,,0.0,0.0,0.0,0.0,0.0,0.0,0
-22.959748,-67.786882,1.20,0.00,0.32,0.67,1.20,1.20,0.81,0.67,1517,2025-12-01 17:11:36.830,2025-12-01 14:11:36.830,16,0,0,51.587,-22.959747,-67.786889,0.00,0.10,-0.30,2.90,-0.30,93.90,0,1,0,100,91,-12095,10996,51587,2931.50,39,WP,1,0,0,0,0,0,0,1764609096829,4315,4316,4311,4305,4315,4320,18,,,,,,,0,0,0,-29.00,-3.00,939.00,1.00,1.00,44.00,14,12.00,3.16,6.66,0.00,1.00,-3.00,0,,,100,100,19,2,0,0,1,1,0,,,,,0.0,0.0,0.0,0.0,0.0,0.0,0
-22.959748,-67.786882,1.20,0.00,0.32,0.68,1.20,1.20,0.81,0.68,1612,2025-12-01 17:11:36.924,2025-12-01 14:11:36.925,16,0,0,51.587,-22.959747,-67.786889,0.00,0.10,-0.30,3.30,-0.70,94.10,0,1,0,100,91,-12095,10996,51587,2931.50,39,WP,1,0,0,0,0,0,0,1764609096924,4315,4316,4311,4305,4315,4320,18,,,,,,,0,0,0,-33.00,-7.00,941.00,1.00,1.00,43.00,14,12.00,3.16,6.76,0.00,1.00,-3.00,0,,,100,100,19,2,0,0,1,1,0,,,,,0.0,0.0,0.0,0.0,0.0,0.0,0
-22.959748,-67.786882,1.20,0.00,0.40,0.68,1.20,1.20,0.81,0.68,1713,2025-12-01 17:11:37.026,2025-12-01 14:11:37.026,16,0,0,51.587,-22.959747,-67.786889,0.00,0.00,-0.40,3.50,-1.10,94.20,0,1,0,100,91,-12095,10996,51587,2931.50,39,WP,1,0,0,0,0,0,0,1764609097025,4315,4316,4311,4305,4315,4320,18,,,,,,,0,0,0,-35.00,-11.00,942.00,1.00,1.00,41.00,14,12.00,4.00,6.83,0.00,0.00,-4.00,0,,,100,100,19,2,0,0,1,1,0,,,,,0.0,0.0,0.0,0.0,0.0,0.0,0
-22.959748,-67.786882,1.30,0.00,0.60,0.68,1.30,1.30,0.81,0.68,1812,2025-12-01 17:11:37.124,2025-12-01 14:11:37.125,16,0,0,45.584,-22.959747,-67.786889,0.00,0.00,-0.60,3.40,-1.40,94.20,0,1,0,99,91,-52791,10925,45584,2931.50,39,WP,1,0,0,0,0,0,0,1764609097124,4315,4316,4311,4305,4315,4320,18,,,,,,,0,0,0,-34.00,-14.00,942.00,1.00,1.00,41.00,14,13.00,6.00,6.84,0.00,0.00,-6.00,0,,,100,100,19,2,0,0,1,1,0,,,,,0.0,0.0,0.0,0.0,0.0,0.0,0
-22.959748,-67.786882,1.40,0.00,0.80,0.68,1.40,1.40,0.81,0.68,1914,2025-12-01 17:11:37.227,2025-12-01 14:11:37.227,16,0,0,45.584,-22.959747,-67.786889,0.00,0.00,-0.80,3.10,-1.60,94.30,0,1,0,99,91,-52791,10925,45584,2931.50,39,WP,1,0,0,0,0,0,0,1764609097226,4315,4316,4311,4305,4315,4320,18,,,,,,,0,0,0,-31.00,-16.00,943.00,1.00,1.00,40.00,14,14.00,8.00,6.80,0.00,0.00,-8.00,0,,,100,100,19,2,0,0,1,1,0,,,,,0.0,0.0,0.0,0.0,0.0,0.0,0
-22.959747,-67.786882,1.50,0.00,1.00,0.67,1.50,1.50,1.00,0.68,2016,2025-12-01 17:11:37.329,2025-12-01 14:11:37.329,16,0,0,45.584,-22.959747,-67.786889,0.00,0.00,-1.00,2.40,-1.10,94.30,0,1,0,99,91,-52791,10925,45584,2931.50,39,WP,1,0,0,0,0,0,0,1764609097328,4315,4316,4311,4305,4315,4320,18,,,,,,,0,0,0,-24.00,-11.00,943.00,1.00,2.00,40.00,14,15.00,10.00,6.72,0.00,0.00,-10.00,0,,,100,100,19,2,0,0,1,1,0,,,,,0.0,0.0,0.0,0.0,0.0,0.0,0
-22.959747,-67.786883,1.60,0.00,1.20,0.66,1.60,1.60,1.20,0.68,2118,2025-12-01 17:11:37.430,2025-12-01 14:11:37.430,16,0,0,45.584,-22.959747,-67.786889,0.00,0.00,-1.20,1.10,-0.40,94.20,0,1,0,99,91,-52791,10925,45584,2931.50,39,WP,1,0,0,0,0,0,0,1764609097430,4315,4316,4311,4305,4315,4320,18,,,,,,,0,0,0,-11.00,-4.00,942.00,0.00,2.00,39.00,14,16.00,12.00,6.63,0.00,0.00,-12.00,0,,,100,100,19,2,0,0,1,1,0,,,,,0.0,0.0,0.0,0.0,0.0,0.0,0
-22.959747,-67.786883,1.90,0.00,1.70,0.66,1.90,1.90,1.70,0.68,2318,2025-12-01 17:11:37.630,2025-12-01 14:11:37.631,16,0,0,45.584,-22.959747,-67.786889,0.00,0.00,-1.70,-0.40,0.50,94.00,0,1,0,99,91,-52791,10925,45584,2931.50,39,WP,1,0,0,0,0,0,0,1764609097630,4315,4316,4311,4305,4315,4320,18,,,,,,,0,0,0,4.00,5.00,940.00,0.00,1.00,42.00,14,19.00,17.00,6.55,0.00,0.00,-17.00,0,,,100,100,19,2,0,0,1,1,0,,,,,0.0,0.0,0.0,0.0,0.0,0.0,0
-22.959747,-67.786883,2.00,0.00,2.00,0.65,2.00,2.00,2.00,0.68,2421,2025-12-01 17:11:37.733,2025-12-01 14:11:37.734,16,0,0,45.584,-22.959747,-67.786889,0.00,0.00,-2.00,-0.50,1.10,93.90,0,1,0,99,91,-52791,10925,45584,2931.50,39,WP,1,0,0,0,0,0,0,1764609097733,4315,4316,4311,4305,4315,4320,18,,,,,,,0,0,0,5.00,11.00,939.00,0.00,1.00,43.00,14,20.00,20.00,6.55,0.00,0.00,-20.00,0,,,100,98,19,2,0,0,1,1,0,,,,,0.0,0.0,0.0,0.0,0.0,0.0,0
-22.959747,-67.786883,2.30,0.00,2.30,0.66,2.30,2.30,2.30,0.68,2521,2025-12-01 17:11:37.833,2025-12-01 14:11:37.833,15,0,0,45.584,-22.959747,-67.786889,0.00,0.00,-2.30,-0.30,1.40,93.70,0,1,0,99,91,-52791,10925,45584,2931.50,39,WP,1,0,0,0,0,0,0,1764609097833,4315,4316,4311,4305,4315,4320,18,,,,,,,0,0,0,3.00,14.00,937.00,1.00,1.00,44.00,14,23.00,23.00,6.61,0.00,0.00,-23.00,0,,,100,98,19,2,0,0,1,1,0,,,,,0.0,0.0,0.0,0.0,0.0,0.0,0
-22.959747,-67.786882,2.50,0.00,2.50,0.67,2.50,2.50,2.50,0.68,2622,2025-12-01 17:11:37.934,2025-12-01 14:11:37.934,15,0,0,45.584,-22.959747,-67.786889,-0.10,0.10,-2.50,0.20,1.50,93.50,0,1,0,99,91,-52791,10925,45584,2931.50,39,WP,1,0,0,0,0,0,0,1764609097934,4315,4316,4311,4305,4315,4320,18,,,,,,,0,0,0,-2.00,15.00,935.00,1.00,1.00,46.00,14,25.00,25.04,6.69,-1.00,1.00,-25.00,0,,,100,98,19,2,0,0,1,1,0,,,,,0.0,0.0,0.0,0.0,0.0,0.0,0
-22.959747,-67.786882,2.80,0.00,2.70,0.68,2.80,2.80,2.70,0.68,2720,2025-12-01 17:11:38.032,2025-12-01 14:11:38.032,16,0,0,45.584,-22.959747,-67.786889,-0.10,0.10,-2.70,0.80,1.40,93.50,0,1,0,99,91,-52791,10925,45584,2931.50,39,WP,1,0,0,0,0,0,0,1764609098032,4315,4316,4311,4305,4315,4320,18,,,,,,,0,0,0,-8.00,14.00,935.00,1.00,1.00,48.00,14,28.00,27.04,6.80,-1.00,1.00,-27.00,0,,,100,98,19,2,0,0,1,1,0,,,,,0.0,0.0,0.0,0.0,0.0,0.0,0
-22.959748,-67.786882,3.10,0.00,3.01,0.70,3.10,3.10,3.01,0.70,2822,2025-12-01 17:11:38.134,2025-12-01 14:11:38.134,16,0,0,45.584,-22.959747,-67.786889,-0.20,0.10,-3.00,1.10,0.80,93.40,0,1,0,99,91,-52791,10925,45584,2931.50,39,WP,1,0,0,0,0,0,0,1764609098134,4315,4316,4311,4305,4315,4320,18,,,,,,,0,0,0,-11.00,8.00,934.00,1.00,1.00,48.00,14,31.00,30.08,7.02,-2.00,1.00,-30.00,0,,,100,98,19,2,0,0,1,1,0,,,,,0.0,0.0,0.0,0.0,0.0,0.0,0
-22.959748,-67.786882,3.40,0.00,3.21,0.73,3.40,3.40,3.21,0.73,2935,2025-12-01 17:11:38.247,2025-12-01 14:11:38.247,16,0,0,45.584,-22.959747,-67.786889,-0.20,0.10,-3.20,1.20,0.00,93.40,0,1,0,99,91,-52791,10925,45584,2931.50,39,WP,1,0,0,0,0,0,0,1764609098247,4315,4316,4311,4305,4315,4320,18,,,,,,,0,0,0,-12.00,0.00,934.00,1.00,1.00,49.00,14,34.00,32.08,7.29,-2.00,1.00,-32.00,0,,,100,98,19,2,0,0,1,1,0,,,,,0.0,0.0,0.0,0.0,0.0,0.0,0
-22.959748,-67.786882,3.70,0.00,3.31,0.75,3.70,3.70,3.31,0.75,3025,2025-12-01 17:11:38.337,2025-12-01 14:11:38.337,16,0,0,45.584,-22.959747,-67.786889,-0.20,0.10,-3.30,1.10,-1.10,93.40,0,1,0,99,91,-52791,10925,45584,2931.50,39,WP,1,0,0,0,0,0,0,1764609098337,4315,4316,4311,4305,4315,4320,18,,,,,,,0,0,0,-11.00,-11.00,934.00,1.00,1.00,48.00,14,37.00,33.08,7.54,-2.00,1.00,-33.00,0,,,100,98,19,2,0,0,1,1,0,,,,,0.0,0.0,0.0,0.0,0.0,0.0,0
-22.959749,-67.786881,4.00,0.00,3.41,0.79,4.00,4.00,3.41,0.79,3129,2025-12-01 17:11:38.442,2025-12-01 14:11:38.442,16,0,0,45.584,-22.959747,-67.786889,-0.20,0.20,-3.40,1.20,-2.30,93.40,0,1,0,99,91,-52791,10925,45584,2931.50,39,WP,1,0,0,0,0,0,0,1764609098441,4315,4316,4311,4305,4315,4320,18,,,,,,,0,0,0,-12.00,-23.00,934.00,1.00,2.00,48.00,14,40.00,34.12,7.93,-2.00,2.00,-34.00,0,,,100,98,19,2,0,0,1,1,0,,,,,0.0,0.0,0.0,0.0,0.0,0.0,0
-22.959749,-67.786881,4.30,0.00,3.51,0.83,4.30,4.30,3.51,0.83,3233,2025-12-01 17:11:38.545,2025-12-01 14:11:38.546,16,0,0,45.584,-22.959747,-67.786889,-0.20,0.20,-3.50,1.40,-3.10,93.40,0,1,0,99,91,-52791,10925,45584,2931.50,39,WP,1,0,0,0,0,0,0,1764609098545,4315,4316,4311,4305,4315,4320,18,,,,,,,0,0,0,-14.00,-31.00,934.00,1.00,2.00,48.00,14,43.00,35.11,8.28,-2.00,2.00,-35.00,0,,,100,98,19,2,0,0,1,1,0,,,,,0.0,0.0,0.0,0.0,0.0,0.0,0
-22.959749,-67.786881,4.60,0.00,3.51,0.87,4.60,4.60,3.51,0.87,3325,2025-12-01 17:11:38.637,2025-12-01 14:11:38.637,16,0,0,45.584,-22.959747,-67.786889,-0.20,0.20,-3.50,1.90,-3.30,93.50,0,1,0,99,91,-52791,10925,45584,2931.50,39,WP,1,0,0,0,0,0,0,1764609098637,4315,4316,4311,4305,4315,4320,18,,,,,,,0,0,0,-19.00,-33.00,935.00,1.00,2.00,48.00,14,46.00,35.11,8.66,-2.00,2.00,-35.00,0,,,100,98,19,2,0,0,1,1,0,,,,,0.0,0.0,0.0,0.0,0.0,0.0,0
-22.959749,-67.786880,5.00,0.00,3.51,0.90,5.00,5.00,3.51,0.90,3431,2025-12-01 17:11:38.744,2025-12-01 14:11:38.744,16,0,0,45.584,-22.959747,-67.786889,-0.10,0.20,-3.50,2.30,-3.00,93.50,0,1,0,99,91,-52791,10925,45584,2931.50,39,WP,1,0,0,0,0,0,0,1764609098743,3746,3784,3764,3715,3718,3761,18,,,,,,,0,0,0,-23.00,-30.00,935.00,1.00,2.00,47.00,14,50.00,35.07,9.04,-1.00,2.00,-35.00,0,,,100,98,19,2,0,0,1,1,0,,,,,0.0,0.0,0.0,0.0,0.0,0.0,0
-22.959750,-67.786880,5.30,0.00,3.51,0.94,5.30,5.30,3.51,0.94,3532,2025-12-01 17:11:38.845,2025-12-01 14:11:38.845,15,0,0,45.584,-22.959747,-67.786889,-0.10,0.20,-3.50,2.80,-2.40,93.60,0,1,0,99,91,-52791,10925,45584,2931.50,39,WP,1,0,0,0,0,0,0,1764609098844,3746,3784,3764,3715,3718,3761,18,,,,,,,0,0,0,-28.00,-24.00,936.00,1.00,2.00,47.00,14,53.00,35.07,9.39,-1.00,2.00,-35.00,0,,,100,98,19,2,0,0,1,1,0,,,,,0.0,0.0,0.0,0.0,0.0,0.0,0
-22.959750,-67.786880,5.60,0.00,3.41,0.97,5.60,5.60,3.51,0.97,3630,2025-12-01 17:11:38.943,2025-12-01 14:11:38.943,15,0,0,45.584,-22.959747,-67.786889,-0.10,0.20,-3.40,3.60,-1.70,93.70,0,1,0,99,91,-52791,10925,45584,2931.50,39,WP,1,0,0,0,0,0,0,1764609098942,3746,3784,3764,3715,3718,3761,18,,,,,,,0,0,0,-36.00,-17.00,937.00,1.00,2.00,46.00,14,56.00,34.07,9.66,-1.00,2.00,-34.00,0,,,100,98,19,2,0,0,1,1,0,,,,,0.0,0.0,0.0,0.0,0.0,0.0,0
-22.959750,-67.786880,6.30,0.00,3.20,1.01,6.30,6.30,3.51,1.01,3829,2025-12-01 17:11:39.141,2025-12-01 14:11:39.141,16,0,0,45.286,-22.959747,-67.786889,-0.10,0.10,-3.20,4.50,-1.10,93.50,0,1,0,99,91,-51936,10925,45286,2931.50,39,WP,1,0,0,0,0,0,0,1764609099141,3746,3784,3764,3715,3718,3761,18,,,,,,,0,0,0,-45.00,-11.00,935.00,1.00,1.00,47.00,14,63.00,32.03,10.08,-1.00,1.00,-32.00,0,,,100,98,19,2,0,0,1,1,0,,,,,0.0,0.0,0.0,0.0,0.0,0.0,0
-22.959750,-67.786879,6.60,0.00,3.20,1.03,6.60,6.60,3.51,1.03,4046,2025-12-01 17:11:39.359,2025-12-01 14:11:39.359,16,0,0,45.286,-22.959747,-67.786889,-0.10,0.10,-3.20,4.60,-1.40,93.40,0,1,0,99,91,-51936,10925,45286,2931.50,39,WP,1,0,0,0,0,0,0,1764609099358,3746,3784,3764,3715,3718,3761,18,,,,,,,0,0,0,-46.00,-14.00,934.00,1.00,1.00,48.00,14,66.00,32.03,10.25,-1.00,1.00,-32.00,0,,,100,98,19,2,0,0,1,1,0,,,,,0.0,0.0,0.0,0.0,0.0,0.0,0
-22.959750,-67.786879,6.90,0.00,3.10,1.03,6.90,6.90,3.51,1.03,4051,2025-12-01 17:11:39.364,2025-12-01 14:11:39.364,16,0,0,45.286,-22.959747,-67.786889,0.00,0.00,-3.10,4.50,-1.90,93.50,0,1,0,99,91,-51936,10925,45286,2931.50,39,WP,1,0,0,0,0,0,0,1764609099363,3746,3784,3764,3715,3718,3761,18,,,,,,,0,0,0,-45.00,-19.00,935.00,1.00,1.00,48.00,14,69.00,31.00,10.30,0.00,0.00,-31.00,0,,,100,98,19,2,0,0,1,1,0,,,,,0.0,0.0,0.0,0.0,0.0,0.0,0
-22.959750,-67.786879,7.20,0.00,3.10,1.04,7.20,7.20,3.51,1.04,4130,2025-12-01 17:11:39.443,2025-12-01 14:11:39.443,16,0,0,45.286,-22.959747,-67.786889,0.00,0.00,-3.10,4.10,-2.30,93.50,0,1,0,99,91,-51936,10925,45286,2931.50,39,WP,1,0,0,0,0,0,0,1764609099442,3746,3784,3764,3715,3718,3761,18,,,,,,,0,0,0,-41.00,-23.00,935.00,0.00,1.00,47.00,14,72.00,31.00,10.37,0.00,0.00,-31.00,0,,,100,98,19,2,0,0,1,1,0,,,,,0.0,0.0,0.0,0.0,0.0,0.0,0
-22.959750,-67.786879,7.50,0.00,3.10,1.03,7.50,7.50,3.51,1.04,4233,2025-12-01 17:11:39.546,2025-12-01 14:11:39.546,16,0,0,45.286,-22.959747,-67.786889,0.00,0.00,-3.10,3.40,-2.40,93.50,0,1,0,99,91,-51936,10925,45286,2931.50,39,WP,1,0,0,0,0,0,0,1764609099545,3746,3784,3764,3715,3718,3761,18,,,,,,,0,0,0,-34.00,-24.00,935.00,0.00,1.00,47.00,14,75.00,31.00,10.30,0.00,0.00,-31.00,0,,,100,98,19,2,0,0,1,1,0,,,,,0.0,0.0,0.0,0.0,0.0,0.0,0
-22.959750,-67.786879,7.80,0.00,3.10,1.02,7.80,7.80,3.51,1.04,4337,2025-12-01 17:11:39.649,2025-12-01 14:11:39.650,16,0,0,45.286,-22.959747,-67.786889,0.00,0.00,-3.10,2.70,-2.40,93.40,0,1,0,99,91,-51936,10925,45286,2931.50,39,WP,1,0,0,0,0,0,0,1764609099649,3746,3784,3764,3715,3718,3761,18,,,,,,,0,0,0,-27.00,-24.00,934.00,0.00,1.00,48.00,14,78.00,31.00,10.20,0.00,0.00,-31.00,0,,,100,98,19,2,0,0,1,1,0,,,,,0.0,0.0,0.0,0.0,0.0,0.0,0
-22.959750,-67.786880,8.10,0.00,3.10,1.02,8.10,8.10,3.51,1.04,4434,2025-12-01 17:11:39.746,2025-12-01 14:11:39.746,16,0,0,45.286,-22.959747,-67.786889,0.00,0.00,-3.10,2.40,-2.10,93.30,0,1,0,99,91,-51936,10925,45286,2931.50,39,WP,1,0,0,0,0,0,0,1764609099746,3746,3784,3764,3715,3718,3761,18,,,,,,,0,0,0,-24.00,-21.00,933.00,0.00,2.00,49.00,14,81.00,31.00,10.15,0.00,0.00,-31.00,0,,,100,97,19,2,0,0,1,1,0,,,,,0.0,0.0,0.0,0.0,0.0,0.0,0
-22.959750,-67.786880,8.40,0.00,3.10,1.01,8.40,8.40,3.51,1.04,4535,2025-12-01 17:11:39.847,2025-12-01 14:11:39.848,16,0,0,45.286,-22.959747,-67.786889,0.00,0.00,-3.10,2.80,-1.80,93.30,0,1,0,99,91,-51936,10925,45286,2931.50,39,WP,1,0,0,0,0,0,0,1764609099847,3746,3784,3764,3715,3718,3761,18,,,,,,,0,0,0,-28.00,-18.00,933.00,0.00,1.00,50.00,14,84.00,31.00,10.06,0.00,0.00,-31.00,0,,,100,97,19,2,0,0,1,1,0,,,,,0.0,0.0,0.0,0.0,0.0,0.0,0
-22.959750,-67.786880,8.70,0.00,3.10,1.00,8.70,8.70,3.51,1.04,4639,2025-12-01 17:11:39.951,2025-12-01 14:11:39.952,16,0,0,45.286,-22.959747,-67.786889,0.00,0.00,-3.10,3.30,-1.70,93.40,0,1,0,99,91,-51936,10925,45286,2931.50,39,WP,1,0,0,0,0,0,0,1764609099951,3746,3784,3764,3715,3718,3761,18,,,,,,,0,0,0,-33.00,-17.00,934.00,1.00,2.00,49.00,14,87.00,31.00,10.01,0.00,0.00,-31.00,0,,,100,97,19,2,0,0,1,1,0,,,,,0.0,0.0,0.0,0.0,0.0,0.0,0
-22.959750,-67.786880,9.10,0.00,3.10,0.99,9.10,9.10,3.51,1.04,4741,2025-12-01 17:11:40.054,2025-12-01 14:11:40.054,16,0,0,45.286,-22.959747,-67.786889,0.00,0.00,-3.10,3.30,-1.70,93.50,0,1,0,99,91,-51936,10925,45286,2931.50,39,WP,1,0,0,0,0,0,0,1764609100053,3746,3784,3764,3715,3718,3761,18,,,,,,,0,0,0,-33.00,-17.00,935.00,1.00,1.00,48.00,14,91.00,31.00,9.91,0.00,0.00,-31.00,0,,,100,97,19,2,0,0,1,1,0,,,,,0.0,0.0,0.0,0.0,0.0,0.0,0
-22.959750,-67.786880,9.40,0.00,3.10,0.99,9.40,9.40,3.51,1.04,4847,2025-12-01 17:11:40.159,2025-12-01 14:11:40.159,16,0,0,45.286,-22.959747,-67.786889,0.00,0.00,-3.10,3.40,-1.90,93.50,0,1,0,99,91,-51936,10925,45286,2931.50,39,WP,1,0,0,0,0,0,0,1764609100159,3746,3784,3764,3715,3718,3761,18,,,,,,,0,0,0,-34.00,-19.00,935.00,0.00,1.00,47.00,14,94.00,31.00,9.86,0.00,0.00,-31.00,0,,,100,97,19,2,0,0,1,1,0,,,,,0.0,0.0,0.0,0.0,0.0,0.0,0
-22.959750,-67.786880,9.70,0.00,3.10,0.98,9.70,9.70,3.51,1.04,4950,2025-12-01 17:11:40.262,2025-12-01 14:11:40.262,16,0,0,45.286,-22.959747,-67.786889,0.00,0.00,-3.10,3.50,-1.90,93.40,0,1,0,99,91,-51936,10925,45286,2931.50,39,WP,1,0,0,0,0,0,0,1764609100262,3746,3784,3764,3715,3718,3761,18,,,,,,,0,0,0,-35.00,-19.00,934.00,1.00,1.00,48.00,14,97.00,31.00,9.76,0.00,0.00,-31.00,0,,,100,97,19,2,0,0,1,1,0,,,,,0.0,0.0,0.0,0.0,0.0,0.0,0
-22.959750,-67.786880,10.30,0.00,3.20,0.95,10.30,10.30,3.51,1.04,5148,2025-12-01 17:11:40.461,2025-12-01 14:11:40.461,16,0,0,45.286,-22.959747,-67.786889,0.00,0.00,-3.20,3.30,-2.00,93.40,0,1,0,99,91,-51936,10925,45286,2931.50,39,WP,1,0,0,0,0,0,0,1764609100460,3746,3784,3764,3715,3718,3761,18,,,,,,,0,0,0,-33.00,-20.00,934.00,0.00,1.00,48.00,14,103.00,32.00,9.53,0.00,0.00,-32.00,0,,,100,97,19,2,0,0,1,1,0,,,,,0.0,0.0,0.0,0.0,0.0,0.0,0
-22.959750,-67.786880,10.60,0.00,3.20,0.94,10.60,10.60,3.51,1.04,5241,2025-12-01 17:11:40.553,2025-12-01 14:11:40.553,16,0,0,45.286,-22.959747,-67.786889,0.00,0.00,-3.20,3.00,-2.00,93.40,0,1,0,99,91,-51936,10925,45286,2931.50,39,WP,1,0,0,0,0,0,0,1764609100553,3746,3784,3764,3715,3718,3761,18,,,,,,,0,0,0,-30.00,-20.00,934.00,0.00,1.00,48.00,14,106.00,32.00,9.41,0.00,0.00,-32.00,0,,,100,97,19,2,0,0,1,1,0,,,,,0.0,0.0,0.0,0.0,0.0,0.0,0
-22.959750,-67.786880,11.00,0.00,3.20,0.92,11.00,11.00,3.51,1.04,5347,2025-12-01 17:11:40.660,2025-12-01 14:11:40.660,16,0,0,45.286,-22.959747,-67.786889,0.00,0.00,-3.20,2.50,-2.50,93.40,0,1,0,99,91,-51936,10925,45286,2931.50,39,WP,1,0,0,0,0,0,0,1764609100659,3746,3784,3764,3715,3718,3761,18,,,,,,,0,0,0,-25.00,-25.00,934.00,0.00,1.00,48.00,14,110.00,32.00,9.24,0.00,0.00,-32.00,0,,,100,97,19,2,0,0,1,1,0,,,,,0.0,0.0,0.0,0.0,0.0,0.0,0
-22.959750,-67.786881,11.30,0.00,3.10,0.91,11.30,11.30,3.51,1.04,5450,2025-12-01 17:11:40.762,2025-12-01 14:11:40.762,16,0,0,45.286,-22.959747,-67.786889,0.00,0.00,-3.10,2.00,-3.00,93.50,0,1,0,99,91,-51936,10925,45286,2931.50,39,WP,1,0,0,0,0,0,0,1764609100762,3746,3784,3764,3715,3718,3761,18,,,,,,,0,0,0,-20.00,-30.00,935.00,0.00,1.00,48.00,14,113.00,31.00,9.10,0.00,0.00,-31.00,0,,,100,97,19,2,0,0,1,1,0,,,,,0.0,0.0,0.0,0.0,0.0,0.0,0
-22.959750,-67.786881,11.60,0.00,3.20,0.89,11.60,11.60,3.51,1.04,5544,2025-12-01 17:11:40.856,2025-12-01 14:11:40.857,16,0,0,45.286,-22.959747,-67.786889,0.00,0.00,-3.20,1.80,-3.40,93.60,0,1,0,99,91,-51936,10925,45286,2931.50,39,WP,1,0,0,0,0,0,0,1764609100856,3746,3784,3764,3715,3718,3761,18,,,,,,,0,0,0,-18.00,-34.00,936.00,0.00,2.00,46.00,14,116.00,32.00,8.93,0.00,0.00,-32.00,0,,,100,97,19,2,0,0,1,1,0,,,,,0.0,0.0,0.0,0.0,0.0,0.0,0
-22.959750,-67.786881,11.90,0.00,3.10,0.88,11.90,11.90,3.51,1.04,5650,2025-12-01 17:11:40.963,2025-12-01 14:11:40.963,16,0,0,45.286,-22.959747,-67.786889,0.10,0.00,-3.10,2.10,-3.10,93.60,0,1,0,99,91,-51936,10925,45286,2931.50,39,WP,1,0,0,0,0,0,0,1764609100962,3746,3784,3764,3715,3718,3761,18,,,,,,,0,0,0,-21.00,-31.00,936.00,0.00,2.00,46.00,14,119.00,31.02,8.82,1.00,0.00,-31.00,0,,,100,97,19,2,0,0,1,1,0,,,,,0.0,0.0,0.0,0.0,0.0,0.0,0
-22.959750,-67.786881,12.30,0.00,3.10,0.87,12.30,12.30,3.51,1.04,5742,2025-12-01 17:11:41.054,2025-12-01 14:11:41.055,16,0,0,45.286,-22.959747,-67.786889,0.10,0.00,-3.10,2.70,-2.80,93.60,0,1,0,99,91,-51936,10925,45286,2931.50,39,WP,1,0,0,0,0,0,0,1764609101054,3746,3784,3764,3715,3718,3761,18,,,,,,,0,0,0,-27.00,-28.00,936.00,0.00,2.00,45.00,14,123.00,31.02,8.68,1.00,0.00,-31.00,0,,,100,97,19,2,0,0,1,1,0,,,,,0.0,0.0,0.0,0.0,0.0,0.0,0
-22.959749,-67.786881,12.60,0.00,3.11,0.86,12.60,12.60,3.51,1.04,5848,2025-12-01 17:11:41.160,2025-12-01 14:11:41.160,16,0,0,43.252,-22.959747,-67.786889,0.20,0.00,-3.10,3.20,-2.50,93.50,0,1,0,97,91,-64865,10775,43252,2931.50,39,WP,1,0,0,0,0,0,0,1764609101160,3746,3784,3764,3715,3718,3761,18,,,,,,,0,0,0,-32.00,-25.00,935.00,1.00,2.00,46.00,14,126.00,31.06,8.59,2.00,0.00,-31.00,0,,,100,97,19,2,0,0,1,1,0,,,,,0.0,0.0,0.0,0.0,0.0,0.0,0
-22.959749,-67.786881,12.90,0.00,3.11,0.85,12.90,12.90,3.51,1.04,5950,2025-12-01 17:11:41.262,2025-12-01 14:11:41.263,16,0,0,43.252,-22.959747,-67.786889,0.20,0.00,-3.10,3.50,-2.00,93.60,0,1,0,97,91,-64865,10775,43252,2931.50,39,WP,1,0,0,0,0,0,0,1764609101262,3746,3784,3764,3715,3718,3761,18,,,,,,,0,0,0,-35.00,-20.00,936.00,1.00,2.00,46.00,14,129.00,31.06,8.48,2.00,0.00,-31.00,0,,,100,97,19,2,0,0,1,1,0,,,,,0.0,0.0,0.0,0.0,0.0,0.0,0
-22.959749,-67.786881,13.20,0.00,3.01,0.84,13.20,13.20,3.51,1.04,6047,2025-12-01 17:11:41.360,2025-12-01 14:11:41.360,16,0,0,43.252,-22.959747,-67.786889,0.30,0.00,-3.00,3.50,-1.30,93.70,0,1,0,97,91,-64865,10775,43252,2931.50,39,WP,1,0,0,0,0,0,0,1764609101359,3746,3784,3764,3715,3718,3761,18,,,,,,,0,0,0,-35.00,-13.00,937.00,0.00,2.00,46.00,14,132.00,30.15,8.42,3.00,0.00,-30.00,0,,,100,97,19,2,0,0,1,1,0,,,,,0.0,0.0,0.0,0.0,0.0,0.0,0
-22.959748,-67.786881,13.50,0.00,3.01,0.84,13.50,13.50,3.51,1.04,6146,2025-12-01 17:11:41.459,2025-12-01 14:11:41.459,16,0,0,43.252,-22.959747,-67.786889,0.30,0.00,-3.00,3.50,-0.60,93.70,0,1,0,97,91,-64865,10775,43252,2931.50,39,WP,1,0,0,0,0,0,0,1764609101458,3746,3784,3764,3715,3718,3761,18,,,,,,,0,0,0,-35.00,-6.00,937.00,0.00,2.00,45.00,14,135.00,30.15,8.36,3.00,0.00,-30.00,0,,,100,97,19,2,0,0,1,1,0,,,,,0.0,0.0,0.0,0.0,0.0,0.0,0
-22.959748,-67.786881,13.80,0.00,2.92,0.82,13.80,13.80,3.51,1.04,6250,2025-12-01 17:11:41.563,2025-12-01 14:11:41.563,16,0,0,43.252,-22.959747,-67.786889,0.30,0.00,-2.90,3.00,0.10,93.70,0,1,0,97,91,-64865,10775,43252,2931.50,39,WP,1,0,0,0,0,0,0,1764609101562,3746,3784,3764,3715,3718,3761,18,,,,,,,0,0,0,-30.00,1.00,937.00,0.00,2.00,45.00,14,138.00,29.15,8.23,3.00,0.00,-29.00,0,,,100,97,19,2,0,0,1,1,0,,,,,0.0,0.0,0.0,0.0,0.0,0.0,0
-22.959748,-67.786881,14.10,0.00,3.01,0.81,14.10,14.10,3.51,1.04,6350,2025-12-01 17:11:41.663,2025-12-01 14:11:41.663,16,0,0,43.252,-22.959747,-67.786889,0.30,0.00,-3.00,2.50,0.60,93.70,0,1,0,97,91,-64865,10775,43252,2931.50,39,WP,1,0,0,0,0,0,0,1764609101662,3746,3784,3764,3715,3718,3761,18,,,,,,,0,0,0,-25.00,6.00,937.00,0.00,2.00,44.00,14,141.00,30.15,8.10,3.00,0.00,-30.00,0,,,100,97,19,2,0,0,1,1,0,,,,,0.0,0.0,0.0,0.0,0.0,0.0,0
-22.959747,-67.786881,14.70,0.00,3.01,0.80,14.70,14.70,3.51,1.04,6548,2025-12-01 17:11:41.860,2025-12-01 14:11:41.860,16,0,0,43.252,-22.959747,-67.786889,0.20,0.00,-3.00,2.10,1.10,93.50,0,1,0,97,91,-64865,10775,43252,2931.50,39,WP,1,0,0,0,0,0,0,1764609101860,3746,3784,3764,3715,3718,3761,18,,,,,,,0,0,0,-21.00,11.00,935.00,0.00,2.00,46.00,14,147.00,30.07,7.97,2.00,0.00,-30.00,0,,,100,96,19,2,0,0,1,1,0,,,,,0.0,0.0,0.0,0.0,0.0,0.0,0
-22.959747,-67.786881,15.00,0.00,3.01,0.79,15.00,15.00,3.51,1.04,6651,2025-12-01 17:11:41.963,2025-12-01 14:11:41.963,16,0,0,43.252,-22.959747,-67.786889,0.20,0.00,-3.00,1.90,1.30,93.50,0,1,0,97,91,-64865,10775,43252,2931.50,39,WP,1,0,0,0,0,0,0,1764609101963,3746,3784,3764,3715,3718,3761,18,,,,,,,0,0,0,-19.00,13.00,935.00,0.00,2.00,47.00,14,150.00,30.07,7.88,2.00,0.00,-30.00,0,,,100,96,19,2,0,0,1,1,0,,,,,0.0,0.0,0.0,0.0,0.0,0.0,0
-22.959746,-67.786881,15.30,0.00,3.01,0.79,15.30,15.30,3.51,1.04,6657,2025-12-01 17:11:41.969,2025-12-01 14:11:41.969,16,0,0,43.252,-22.959747,-67.786889,0.20,0.00,-3.00,2.10,1.20,93.50,0,1,0,97,91,-64865,10775,43252,2931.50,39,WP,1,0,0,0,0,0,0,1764609101969,3746,3784,3764,3715,3718,3761,18,,,,,,,0,0,0,-21.00,12.00,935.00,0.00,1.00,47.00,14,153.00,30.07,7.87,2.00,0.00,-30.00,0,,,100,96,19,2,0,0,1,1,0,,,,,0.0,0.0,0.0,0.0,0.0,0.0,0
-22.959746,-67.786881,15.60,0.00,2.91,0.79,15.60,15.60,3.51,1.04,6852,2025-12-01 17:11:42.165,2025-12-01 14:11:42.165,16,0,0,43.252,-22.959747,-67.786889,0.20,0.00,-2.90,2.60,1.40,93.50,0,1,0,97,91,-64865,10775,43252,2931.50,39,WP,1,0,0,0,0,0,0,1764609102164,3746,3784,3764,3715,3718,3761,18,,,,,,,0,0,0,-26.00,14.00,935.00,1.00,1.00,47.00,14,156.00,29.07,7.85,2.00,0.00,-29.00,0,,,100,96,19,2,0,0,1,1,0,,,,,0.0,0.0,0.0,0.0,0.0,0.0,0
-22.959746,-67.786881,15.90,0.00,2.80,0.79,15.90,15.90,3.51,1.04,6954,2025-12-01 17:11:42.267,2025-12-01 14:11:42.267,16,0,0,43.252,-22.959747,-67.786889,0.10,0.00,-2.80,3.30,1.60,93.50,0,1,0,97,91,-64865,10775,43252,2931.50,39,WP,1,0,0,0,0,0,0,1764609102266,3746,3784,3764,3715,3718,3761,18,,,,,,,0,0,0,-33.00,16.00,935.00,1.00,2.00,47.00,14,159.00,28.02,7.85,1.00,0.00,-28.00,0,,,100,96,19,2,0,0,1,1,0,,,,,0.0,0.0,0.0,0.0,0.0,0.0,0
-22.959746,-67.786882,16.20,0.00,2.70,0.79,16.20,16.20,3.51,1.04,7054,2025-12-01 17:11:42.367,2025-12-01 14:11:42.367,16,0,0,43.252,-22.959747,-67.786889,0.10,0.00,-2.70,3.90,2.00,93.60,0,1,0,97,91,-64865,10775,43252,2931.50,39,WP,1,0,0,0,0,0,0,1764609102366,3746,3784,3764,3715,3718,3761,18,,,,,,,0,0,0,-39.00,20.00,936.00,0.00,2.00,46.00,14,162.00,27.02,7.87,1.00,0.00,-27.00,0,,,100,98,19,2,0,0,1,1,0,,,,,0.0,0.0,0.0,0.0,0.0,0.0,0
-22.959746,-67.786882,16.40,0.00,2.50,0.79,16.40,16.40,3.51,1.04,7152,2025-12-01 17:11:42.464,2025-12-01 14:11:42.464,16,0,0,43.252,-22.959747,-67.786889,0.10,0.00,-2.50,4.40,2.00,93.60,0,1,0,97,91,-64865,10775,43252,2931.50,39,WP,1,0,0,0,0,0,0,1764609102464,3746,3784,3764,3715,3718,3761,18,,,,,,,0,0,0,-44.00,20.00,936.00,0.00,1.00,46.00,14,164.00,25.02,7.88,1.00,0.00,-25.00,0,,,100,98,19,2,0,0,1,1,0,,,,,0.0,0.0,0.0,0.0,0.0,0.0,0
-22.959746,-67.786882,16.90,0.00,2.20,0.77,16.90,16.90,3.51,1.04,7361,2025-12-01 17:11:42.673,2025-12-01 14:11:42.674,16,0,0,43.252,-22.959747,-67.786889,0.00,0.00,-2.20,4.60,2.10,93.60,0,1,0,97,91,-64865,10775,43252,2931.50,39,WP,1,0,0,0,0,0,0,1764609102673,3746,3784,3764,3715,3718,3761,18,,,,,,,0,0,0,-46.00,21.00,936.00,0.00,2.00,46.00,14,169.00,22.00,7.68,0.00,0.00,-22.00,0,,,100,98,19,2,0,0,1,1,0,,,,,0.0,0.0,0.0,0.0,0.0,0.0,0
-22.959746,-67.786882,17.10,0.00,2.00,0.75,17.10,17.10,3.51,1.04,7366,2025-12-01 17:11:42.678,2025-12-01 14:11:42.678,16,0,0,43.252,-22.959747,-67.786889,0.00,-0.10,-2.00,4.40,2.00,93.50,0,1,0,97,91,-64865,10775,43252,2931.50,39,WP,1,0,0,0,0,0,0,1764609102678,3746,3784,3764,3715,3718,3761,18,,,,,,,0,0,0,-44.00,20.00,935.00,0.00,1.00,46.00,14,171.00,20.02,7.48,0.00,-1.00,-20.00,0,,,100,98,19,2,0,0,1,1,0,,,,,0.0,0.0,0.0,0.0,0.0,0.0,0
-22.959746,-67.786882,17.30,0.00,1.80,0.73,17.30,17.30,3.51,1.04,7465,2025-12-01 17:11:42.778,2025-12-01 14:11:42.778,16,0,0,43.252,-22.959747,-67.786889,0.00,-0.10,-1.80,4.10,1.90,93.50,0,1,0,97,91,-64865,10775,43252,2931.50,39,WP,1,0,0,0,0,0,0,1764609102777,3746,3784,3764,3715,3718,3761,18,,,,,,,0,0,0,-41.00,19.00,935.00,0.00,1.00,46.00,14,173.00,18.03,7.29,0.00,-1.00,-18.00,0,,,100,98,19,2,0,0,1,1,0,,,,,0.0,0.0,0.0,0.0,0.0,0.0,0
-22.959746,-67.786882,17.50,0.00,1.70,0.72,17.50,17.50,3.51,1.04,7661,2025-12-01 17:11:42.974,2025-12-01 14:11:42.974,16,0,0,43.252,-22.959747,-67.786889,0.00,-0.10,-1.70,3.90,1.80,93.50,0,1,0,97,91,-64865,10775,43252,2931.50,39,WP,1,0,0,0,0,0,0,1764609102973,3746,3784,3764,3715,3718,3761,18,,,,,,,0,0,0,-39.00,18.00,935.00,0.00,1.00,46.00,14,175.00,17.03,7.15,0.00,-1.00,-17.00,0,,,100,98,19,2,0,0,1,1,0,,,,,0.0,0.0,0.0,0.0,0.0,0.0,0
-22.959746,-67.786883,17.80,0.00,1.40,0.67,17.80,17.80,3.51,1.04,7768,2025-12-01 17:11:43.080,2025-12-01 14:11:43.080,16,0,0,43.252,-22.959747,-67.786889,0.00,-0.10,-1.40,3.60,1.50,93.60,0,1,0,97,91,-64865,10775,43252,2931.50,39,WP,1,0,0,0,0,0,0,1764609103080,3746,3784,3764,3715,3718,3761,18,,,,,,,0,0,0,-36.00,15.00,936.00,0.00,1.00,47.00,14,178.00,14.04,6.70,0.00,-1.00,-14.00,0,,,100,98,19,2,0,0,1,1,0,,,,,0.0,0.0,0.0,0.0,0.0,0.0,0
-22.959746,-67.786883,18.00,0.00,1.31,0.64,18.00,18.00,3.51,1.04,7961,2025-12-01 17:11:43.274,2025-12-01 14:11:43.274,16,0,0,43.635,-22.959747,-67.786889,-0.10,-0.10,-1.30,3.40,1.30,93.50,0,1,0,97,91,-58908,10739,43635,2931.50,39,WP,1,0,0,0,0,0,0,1764609103273,3746,3784,3764,3715,3718,3761,18,,,,,,,0,0,0,-34.00,13.00,935.00,0.00,1.00,47.00,14,180.00,13.08,6.43,-1.00,-1.00,-13.00,0,,,100,98,19,2,0,0,1,1,0,,,,,0.0,0.0,0.0,0.0,0.0,0.0,0
-22.959746,-67.786883,18.10,0.00,1.21,0.62,18.10,18.10,3.51,1.04,7967,2025-12-01 17:11:43.280,2025-12-01 14:11:43.280,16,0,0,43.635,-22.959747,-67.786889,-0.10,-0.10,-1.20,3.20,1.10,93.50,0,1,0,97,91,-58908,10739,43635,2931.50,39,WP,1,0,0,0,0,0,0,1764609103279,3746,3784,3764,3715,3718,3761,18,,,,,,,0,0,0,-32.00,11.00,935.00,0.00,2.00,47.00,14,181.00,12.08,6.24,-1.00,-1.00,-12.00,0,,,100,99,19,2,0,0,1,1,0,,,,,0.0,0.0,0.0,0.0,0.0,0.0,0
-22.959746,-67.786883,18.20,0.00,1.21,0.60,18.20,18.20,3.51,1.04,8067,2025-12-01 17:11:43.379,2025-12-01 14:11:43.379,16,0,0,43.635,-22.959747,-67.786889,-0.10,-0.10,-1.20,2.80,0.70,93.50,0,1,0,97,91,-58908,10739,43635,2931.50,39,WP,1,0,0,0,0,0,0,1764609103379,3746,3784,3764,3715,3718,3761,18,,,,,,,0,0,0,-28.00,7.00,935.00,0.00,1.00,47.00,14,182.00,12.08,6.00,-1.00,-1.00,-12.00,0,,,100,99,19,2,0,0,1,1,0,,,,,0.0,0.0,0.0,0.0,0.0,0.0,0
-22.959746,-67.786883,18.40,0.00,1.11,0.58,18.40,18.40,3.51,1.04,8163,2025-12-01 17:11:43.475,2025-12-01 14:11:43.475,16,0,0,43.635,-22.959747,-67.786889,-0.10,-0.10,-1.10,2.40,0.50,93.60,0,1,0,97,91,-58908,10739,43635,2931.50,39,WP,1,0,0,0,0,0,0,1764609103475,3746,3784,3764,3715,3718,3761,18,,,,,,,0,0,0,-24.00,5.00,936.00,0.00,2.00,47.00,14,184.00,11.09,5.79,-1.00,-1.00,-11.00,0,,,100,99,19,2,0,0,1,1,0,,,,,0.0,0.0,0.0,0.0,0.0,0.0,0
-22.959747,-67.786884,18.50,0.00,1.11,0.56,18.50,18.50,3.51,1.04,8263,2025-12-01 17:11:43.575,2025-12-01 14:11:43.575,16,0,0,43.635,-22.959747,-67.786889,-0.10,-0.10,-1.10,2.00,0.20,93.60,0,1,0,97,91,-58908,10739,43635,2931.50,39,WP,1,0,0,0,0,0,0,1764609103575,3746,3784,3764,3715,3718,3761,18,,,,,,,0,0,0,-20.00,2.00,936.00,0.00,2.00,46.00,14,185.00,11.09,5.59,-1.00,-1.00,-11.00,0,,,100,99,19,2,0,0,1,1,0,,,,,0.0,0.0,0.0,0.0,0.0,0.0,0
-22.959747,-67.786884,18.60,0.00,1.00,0.55,18.60,18.60,3.51,1.04,8367,2025-12-01 17:11:43.679,2025-12-01 14:11:43.679,16,0,0,43.635,-22.959747,-67.786889,-0.10,0.00,-1.00,1.70,0.00,93.70,0,1,0,97,91,-58908,10739,43635,2931.50,39,WP,1,0,0,0,0,0,0,1764609103679,3746,3784,3764,3715,3718,3761,18,,,,,,,0,0,0,-17.00,0.00,937.00,0.00,2.00,45.00,14,186.00,10.05,5.46,-1.00,0.00,-10.00,0,,,100,99,19,2,0,0,1,1,0,,,,,0.0,0.0,0.0,0.0,0.0,0.0,0
-22.959747,-67.786884,18.70,0.00,1.00,0.54,18.70,18.70,3.51,1.04,8467,2025-12-01 17:11:43.779,2025-12-01 14:11:43.779,16,0,0,43.635,-22.959747,-67.786889,-0.10,0.00,-1.00,1.50,-0.10,93.70,0,1,0,97,91,-58908,10739,43635,2931.50,39,WP,1,0,0,0,0,0,0,1764609103779,3746,3784,3764,3715,3718,3761,18,,,,,,,0,0,0,-15.00,-1.00,937.00,0.00,2.00,45.00,14,187.00,10.05,5.37,-1.00,0.00,-10.00,0,,,100,99,19,2,0,0,1,1,0,,,,,0.0,0.0,0.0,0.0,0.0,0.0,0
-22.959747,-67.786884,18.80,0.00,1.10,0.54,18.80,18.80,3.51,1.04,8665,2025-12-01 17:11:43.978,2025-12-01 14:11:43.978,16,0,0,43.635,-22.959747,-67.786889,0.00,0.00,-1.10,1.80,-0.30,93.70,0,1,0,97,91,-58908,10739,43635,2931.50,39,WP,1,0,0,0,0,0,0,1764609103977,3746,3784,3764,3715,3718,3761,18,,,,,,,0,0,0,-18.00,-3.00,937.00,0.00,2.00,45.00,14,188.00,11.00,5.39,0.00,0.00,-11.00,0,,,100,99,19,2,0,0,1,1,0,,,,,0.0,0.0,0.0,0.0,0.0,0.0,0
-22.959747,-67.786884,19.00,0.00,1.00,0.54,19.00,19.00,3.51,1.04,8671,2025-12-01 17:11:43.984,2025-12-01 14:11:43.984,16,0,0,43.635,-22.959747,-67.786889,0.00,0.00,-1.00,2.30,-0.60,93.70,0,1,0,97,91,-58908,10739,43635,2931.50,39,WP,1,0,0,0,0,0,0,1764609103983,3746,3784,3764,3715,3718,3761,18,,,,,,,0,0,0,-23.00,-6.00,937.00,0.00,2.00,45.00,14,190.00,10.00,5.43,0.00,0.00,-10.00,0,,,100,99,19,2,0,0,1,1,0,,,,,0.0,0.0,0.0,0.0,0.0,0.0,0
-22.959747,-67.786884,19.10,0.00,1.00,0.55,19.10,19.10,3.51,1.04,8769,2025-12-01 17:11:44.082,2025-12-01 14:11:44.082,16,0,0,43.635,-22.959747,-67.786889,0.00,0.00,-1.00,3.10,-0.40,93.70,0,1,0,97,91,-58908,10739,43635,2931.50,39,WP,1,0,0,0,0,0,0,1764609104081,3746,3784,3764,3715,3718,3761,18,,,,,,,0,0,0,-31.00,-4.00,937.00,0.00,2.00,45.00,14,191.00,10.00,5.50,0.00,0.00,-10.00,0,,,100,99,19,2,0,0,1,1,0,,,,,0.0,0.0,0.0,0.0,0.0,0.0,0
-22.959747,-67.786884,19.20,0.00,1.00,0.56,19.20,19.20,3.51,1.04,8871,2025-12-01 17:11:44.183,2025-12-01 14:11:44.183,16,0,0,43.635,-22.959747,-67.786889,0.00,0.00,-1.00,3.40,-0.20,93.70,0,1,0,97,91,-58908,10739,43635,2931.50,39,WP,1,0,0,0,0,0,0,1764609104183,3746,3784,3764,3715,3718,3761,18,,,,,,,0,0,0,-34.00,-2.00,937.00,0.00,2.00,45.00,14,192.00,10.00,5.60,0.00,0.00,-10.00,0,,,100,99,19,2,0,0,1,1,0,,,,,0.0,0.0,0.0,0.0,0.0,0.0,0
-22.959747,-67.786883,19.30,0.00,0.90,0.57,19.30,19.30,3.51,1.04,8966,2025-12-01 17:11:44.279,2025-12-01 14:11:44.279,16,0,0,43.635,-22.959747,-67.786889,0.00,0.00,-0.90,3.40,-0.20,94.80,0,1,0,97,91,-58908,10739,43635,2931.50,39,WP,1,0,0,0,0,0,0,1764609104278,3746,3784,3764,3715,3718,3761,18,,,,,,,0,0,0,-34.00,-2.00,948.00,0.00,2.00,42.00,14,193.00,9.00,5.71,0.00,0.00,-9.00,0,,,100,99,19,2,0,0,1,1,0,,,,,0.0,0.0,0.0,0.0,0.0,0.0,0
-22.959747,-67.786883,19.40,0.00,0.80,0.58,19.40,19.40,3.51,1.04,9073,2025-12-01 17:11:44.386,2025-12-01 14:11:44.386,16,0,0,43.635,-22.959747,-67.786889,0.00,0.00,-0.80,3.70,0.00,99.40,0,1,0,97,91,-58908,10739,43635,2931.50,39,WP,1,0,0,0,0,0,0,1764609104385,3746,3784,3764,3715,3718,3761,18,,,,,,,0,0,0,-37.00,0.00,994.00,0.00,1.00,11.00,14,194.00,8.00,5.84,0.00,0.00,-8.00,0,,,100,96,19,2,0,0,1,1,0,,,,,0.0,0.0,0.0,0.0,0.0,0.0,0
-22.959747,-67.786883,19.50,0.00,0.60,0.59,19.50,19.50,3.51,1.04,9167,2025-12-01 17:11:44.480,2025-12-01 14:11:44.480,16,0,0,43.635,-22.959747,-67.786889,0.00,0.00,-0.60,3.90,0.40,106.50,0,1,0,97,91,-58908,10739,43635,2931.50,39,WP,1,0,0,0,0,0,0,1764609104479,3746,3784,3764,3715,3718,3761,18,,,,,,,0,0,0,-39.00,4.00,1065.00,0.00,1.00,-50.00,14,195.00,6.00,5.94,0.00,0.00,-6.00,0,,,100,96,19,2,0,0,1,1,0,,,,,0.0,0.0,0.0,0.0,0.0,0.0,0
-22.959747,-67.786883,19.50,0.00,0.30,0.60,19.50,19.50,3.51,1.04,9270,2025-12-01 17:11:44.583,2025-12-01 14:11:44.583,16,0,0,43.635,-22.959747,-67.786889,0.00,0.00,-0.30,4.10,0.90,115.80,0,1,0,97,91,-58908,10739,43635,2931.50,39,WP,1,0,0,0,0,0,0,1764609104582,3746,3784,3764,3715,3718,3761,18,,,,,,,0,0,0,-41.00,9.00,1158.00,0.00,1.00,-50.00,14,195.00,3.00,6.04,0.00,0.00,-3.00,0,,,100,96,19,2,0,0,1,1,0,,,,,0.0,0.0,0.0,0.0,0.0,0.0,0
-22.959747,-67.786883,19.60,0.00,0.20,0.62,19.60,19.60,3.51,1.04,9373,2025-12-01 17:11:44.686,2025-12-01 14:11:44.686,16,0,0,43.635,-22.959747,-67.786889,0.00,0.00,-0.20,4.40,0.80,125.20,0,1,0,97,91,-58908,10739,43635,2931.50,39,WP,1,0,0,0,0,0,0,1764609104685,3746,3784,3764,3715,3718,3761,18,,,,,,,0,0,0,-44.00,8.00,1252.00,0.00,1.00,-50.00,14,196.00,2.00,6.16,0.00,0.00,-2.00,0,,,100,96,19,2,0,0,1,1,0,,,,,0.0,0.0,0.0,0.0,0.0,0.0,0
-22.959747,-67.786883,19.60,0.00,0.00,0.63,19.60,19.60,3.51,1.04,9482,2025-12-01 17:11:44.794,2025-12-01 14:11:44.795,16,0,0,43.635,-22.959747,-67.786889,0.00,0.00,0.00,4.70,0.20,134.20,0,1,0,97,91,-58908,10739,43635,2931.50,39,WP,1,0,0,0,0,0,0,1764609104794,3746,3784,3764,3715,3718,3761,18,,,,,,,0,0,0,-47.00,2.00,1342.00,0.00,2.00,-224.00,14,196.00,0.00,6.26,0.00,0.00,0.00,0,,,100,96,19,2,0,0,1,1,0,,,,,0.0,0.0,0.0,0.0,0.0,0.0,0
-22.959747,-67.786883,19.60,0.00,0.10,0.64,19.60,19.60,3.51,1.04,9680,2025-12-01 17:11:44.993,2025-12-01 14:11:44.993,16,0,0,43.635,-22.959747,-67.786889,0.00,0.10,0.00,5.20,-0.60,143.40,0,1,0,97,91,-58908,10739,43635,2931.50,39,WP,1,0,0,0,0,0,0,1764609104992,3746,3784,3764,3715,3718,3761,18,,,,,,,0,0,0,-52.00,-6.00,1434.00,0.00,2.00,-300.00,14,196.00,1.00,6.37,0.00,1.00,0.00,0,,,100,97,19,2,0,0,1,1,0,,,,,0.0,0.0,0.0,0.0,0.0,0.0,0
-22.959747,-67.786883,19.60,0.00,0.17,0.65,19.60,19.60,3.51,1.04,9687,2025-12-01 17:11:44.999,2025-12-01 14:11:44.999,16,0,0,43.635,-22.959747,-67.786889,0.10,0.10,0.10,4.90,-1.00,152.60,0,1,0,97,91,-58908,10739,43635,2931.50,39,WP,1,0,0,0,0,0,0,1764609104999,3746,3784,3764,3715,3718,3761,18,,,,,,,0,0,0,-49.00,-10.00,1526.00,0.00,2.00,-364.00,14,196.00,1.73,6.51,1.00,1.00,1.00,0,,,100,97,19,2,0,0,1,1,0,,,,,0.0,0.0,0.0,0.0,0.0,0.0,0
-22.959746,-67.786883,19.60,0.00,0.24,0.67,19.60,19.60,3.51,1.04,9774,2025-12-01 17:11:45.086,2025-12-01 14:11:45.086,16,0,0,43.635,-22.959747,-67.786889,0.20,0.10,0.10,4.10,-0.90,161.50,0,1,0,97,91,-58908,10739,43635,2931.50,39,WP,1,0,0,0,0,0,0,1764609105086,3746,3784,3764,3715,3718,3761,18,,,,,,,0,0,0,-41.00,-9.00,1615.00,0.00,2.00,-364.00,14,196.00,2.45,6.65,2.00,1.00,1.00,0,,,100,97,19,2,0,0,1,1,0,,,,,0.0,0.0,0.0,0.0,0.0,0.0,0
-22.959746,-67.786882,19.60,0.00,0.35,0.69,19.60,19.60,3.51,1.04,9879,2025-12-01 17:11:45.191,2025-12-01 14:11:45.191,16,0,0,44.160,-22.959747,-67.786889,0.20,0.20,0.20,2.50,-0.10,168.90,0,1,0,97,91,-47159,10739,44160,2931.50,39,WP,1,0,0,0,0,0,0,1764609105191,3746,3784,3764,3715,3718,3761,18,,,,,,,0,0,0,-25.00,-1.00,1689.00,0.00,1.00,-459.00,14,196.00,3.46,6.89,2.00,2.00,2.00,0,,,100,97,19,2,0,0,1,1,0,,,,,0.0,0.0,0.0,0.0,0.0,0.0,0
-22.959746,-67.786882,19.50,0.00,0.41,0.73,19.60,19.60,3.51,1.04,9982,2025-12-01 17:11:45.295,2025-12-01 14:11:45.295,16,0,0,44.160,-22.959747,-67.786889,0.30,0.20,0.20,0.90,1.10,174.00,0,1,0,97,91,-47159,10739,44160,2931.50,39,WP,1,0,0,0,0,0,0,1764609105294,3746,3784,3764,3715,3718,3761,18,,,,,,,0,0,0,-9.00,11.00,1740.00,0.00,1.00,-459.00,14,195.00,4.12,7.29,3.00,2.00,2.00,0,,,100,97,19,2,0,0,1,1,0,,,,,0.0,0.0,0.0,0.0,0.0,0.0,0
-22.959744,-67.786882,19.50,0.00,0.37,0.83,19.60,19.60,3.51,1.04,10178,2025-12-01 17:11:45.490,2025-12-01 14:11:45.490,16,0,0,44.160,-22.959747,-67.786889,0.30,0.20,0.10,-1.50,4.20,179.10,0,1,0,97,91,-47159,10739,44160,2931.50,39,WP,1,0,0,0,0,0,0,1764609105490,3746,3784,3764,3715,3718,3761,18,,,,,,,0,0,0,15.00,42.00,1791.00,0.00,1.00,-475.00,14,195.00,3.74,8.30,3.00,2.00,1.00,0,,,100,97,19,2,0,0,1,1,0,,,,,0.0,0.0,0.0,0.0,0.0,0.0,0
-22.959744,-67.786881,19.50,0.00,0.36,0.90,19.60,19.60,3.51,1.04,10283,2025-12-01 17:11:45.596,2025-12-01 14:11:45.596,16,0,0,44.160,-22.959747,-67.786889,0.30,0.20,0.00,-2.00,4.10,179.70,0,1,0,97,91,-47159,10739,44160,2931.50,39,WP,1,0,0,0,0,0,0,1764609105595,3746,3784,3764,3715,3718,3761,18,,,,,,,0,0,0,20.00,41.00,1797.00,0.00,1.00,-410.00,14,195.00,3.61,8.98,3.00,2.00,0.00,0,,,100,97,19,2,0,0,1,1,0,,,,,0.0,0.0,0.0,0.0,0.0,0.0,0
-22.959743,-67.786881,19.50,0.00,0.42,0.95,19.60,19.60,3.51,1.04,10375,2025-12-01 17:11:45.687,2025-12-01 14:11:45.688,16,0,0,44.160,-22.959747,-67.786889,0.30,0.30,0.00,-3.40,3.70,179.90,0,1,0,97,91,-47159,10739,44160,2931.50,39,WP,1,0,0,0,0,0,0,1764609105687,3746,3784,3764,3715,3718,3761,18,,,,,,,0,0,0,34.00,37.00,1799.00,-1.00,1.00,-362.00,14,195.00,4.24,9.53,3.00,3.00,0.00,0,,,100,97,19,2,0,0,1,1,0,,,,,0.0,0.0,0.0,0.0,0.0,0.0,0
-22.959743,-67.786880,19.50,0.00,0.36,1.02,19.60,19.60,3.51,1.04,10483,2025-12-01 17:11:45.795,2025-12-01 14:11:45.796,16,0,0,44.160,-22.959747,-67.786889,0.20,0.30,0.00,-5.80,3.20,179.90,0,1,0,97,91,-47159,10739,44160,2931.50,39,WP,1,0,0,0,0,0,0,1764609105795,3746,3784,3764,3715,3718,3761,18,,,,,,,0,0,0,58.00,32.00,1799.00,-1.00,2.00,-316.00,14,195.00,3.61,10.24,2.00,3.00,0.00,0,,,100,97,19,2,0,0,1,1,0,,,,,0.0,0.0,0.0,0.0,0.0,0.0,0
-22.959743,-67.786880,19.60,0.00,0.32,1.08,19.60,19.60,3.51,1.08,10679,2025-12-01 17:11:45.992,2025-12-01 14:11:45.992,16,0,0,44.160,-22.959747,-67.786889,0.10,0.30,0.00,-8.70,3.30,179.80,0,1,0,97,91,-47159,10739,44160,2931.50,39,WP,1,0,0,0,0,0,0,1764609105991,3746,3784,3764,3715,3718,3761,18,,,,,,,0,0,0,87.00,33.00,1798.00,0.00,2.00,-279.00,14,196.00,3.16,10.75,1.00,3.00,0.00,0,,,100,97,19,2,0,0,1,1,0,,,,,0.0,0.0,0.0,0.0,0.0,0.0,0
-22.959743,-67.786879,19.60,0.00,0.30,1.13,19.60,19.60,3.51,1.13,10686,2025-12-01 17:11:45.999,2025-12-01 14:11:45.999,16,0,0,44.160,-22.959747,-67.786889,0.00,0.30,0.00,-11.60,3.90,179.60,0,1,0,97,91,-47159,10739,44160,2931.50,39,WP,1,0,0,0,0,0,0,1764609105998,3746,3784,3764,3715,3718,3761,18,,,,,,,0,0,0,116.00,39.00,1796.00,0.00,1.00,-251.00,14,196.00,3.00,11.27,0.00,3.00,0.00,0,,,100,99,19,2,0,0,1,1,0,,,,,0.0,0.0,0.0,0.0,0.0,0.0,0
-22.959743,-67.786879,19.60,0.00,0.28,1.15,19.60,19.60,3.51,1.15,10783,2025-12-01 17:11:46.095,2025-12-01 14:11:46.096,16,0,0,44.160,-22.959747,-67.786889,-0.20,0.20,0.00,-13.90,4.70,179.40,0,1,0,97,91,-47159,10739,44160,2931.50,39,WP,1,0,0,0,0,0,0,1764609106095,3746,3784,3764,3715,3718,3761,18,,,,,,,0,0,0,139.00,47.00,1794.00,0.00,1.00,-229.00,14,196.00,2.83,11.52,-2.00,2.00,0.00,0,,,100,99,19,2,0,0,1,1,0,,,,,0.0,0.0,0.0,0.0,0.0,0.0,0
-22.959743,-67.786878,19.60,0.00,0.54,1.17,19.60,19.60,3.51,1.17,10880,2025-12-01 17:11:46.192,2025-12-01 14:11:46.193,16,0,0,44.160,-22.959747,-67.786889,-0.50,0.20,0.00,-15.70,5.60,179.10,0,1,0,97,91,-47159,10739,44160,2931.50,39,WP,1,0,0,0,0,0,0,1764609106192,3746,3784,3764,3715,3718,3761,18,,,,,,,0,0,0,157.00,56.00,1791.00,0.00,1.00,-212.00,14,196.00,5.39,11.67,-5.00,2.00,0.00,0,,,100,99,19,2,0,0,1,1,0,,,,,0.0,0.0,0.0,0.0,0.0,0.0,0
-22.959744,-67.786878,19.60,0.00,0.73,1.17,19.60,19.60,3.51,1.17,10984,2025-12-01 17:11:46.296,2025-12-01 14:11:46.296,16,0,0,44.160,-22.959747,-67.786889,-0.70,0.20,0.00,-16.40,6.10,178.90,0,1,0,97,91,-47159,10739,44160,2931.50,39,WP,1,0,0,0,0,0,0,1764609106296,3746,3784,3764,3715,3718,3761,18,,,,,,,0,0,0,164.00,61.00,1789.00,0.00,1.00,-212.00,14,196.00,7.28,11.69,-7.00,2.00,0.00,0,,,100,99,19,2,0,0,1,1,0,,,,,0.0,0.0,0.0,0.0,0.0,0.0,0
-22.959745,-67.786878,19.60,0.00,1.02,1.17,19.60,19.60,3.51,1.17,11083,2025-12-01 17:11:46.395,2025-12-01 14:11:46.396,16,0,0,44.160,-22.959747,-67.786889,-1.00,0.20,0.00,-16.50,6.20,178.70,0,1,0,97,91,-47159,10739,44160,2931.50,39,WP,1,0,0,0,0,0,0,1764609106395,3746,3784,3764,3715,3718,3761,18,,,,,,,0,0,0,165.00,62.00,1787.00,0.00,1.00,-212.00,14,196.00,10.20,11.66,-10.00,2.00,0.00,0,,,100,99,19,2,0,0,1,1,0,,,,,0.0,0.0,0.0,0.0,0.0,0.0,0
-22.959748,-67.786877,19.60,0.00,1.50,1.20,19.60,19.60,3.51,1.20,11284,2025-12-01 17:11:46.597,2025-12-01 14:11:46.597,16,0,0,44.160,-22.959747,-67.786889,-1.50,0.10,0.00,-15.80,6.10,179.00,0,1,0,97,91,-47159,10739,44160,2931.50,39,WP,1,0,0,0,0,0,0,1764609106596,3746,3784,3764,3715,3718,3761,18,,,,,,,0,0,0,158.00,61.00,1790.00,0.00,1.00,-173.00,14,196.00,15.03,11.97,-15.00,1.00,0.00,0,,,100,99,19,2,0,0,1,1,0,,,,,0.0,0.0,0.0,0.0,0.0,0.0,0
-22.959753,-67.786877,19.60,0.00,2.00,1.34,19.60,19.60,3.51,1.34,11485,2025-12-01 17:11:46.797,2025-12-01 14:11:46.797,16,0,0,44.160,-22.959747,-67.786889,-2.00,0.10,0.00,-15.00,6.70,179.10,0,1,0,97,91,-47159,10739,44160,2931.50,39,WP,1,0,0,0,0,0,0,1764609106797,3746,3784,3764,3715,3718,3761,18,,,,,,,0,0,0,150.00,67.00,1791.00,0.00,1.00,-155.00,14,196.00,20.02,13.44,-20.00,1.00,0.00,0,,,100,99,19,2,0,0,1,1,0,,,,,0.0,0.0,0.0,0.0,0.0,0.0,0
-22.959755,-67.786877,19.60,0.00,2.20,1.47,19.60,19.60,3.51,1.47,11686,2025-12-01 17:11:46.998,2025-12-01 14:11:46.998,16,0,0,44.160,-22.959747,-67.786889,-2.20,0.00,0.00,-15.00,6.90,179.10,0,1,0,97,91,-47159,10739,44160,2931.50,39,WP,1,0,0,0,0,0,0,1764609106998,3746,3784,3764,3715,3718,3761,18,,,,,,,0,0,0,150.00,69.00,1791.00,0.00,1.00,-150.00,14,196.00,22.00,14.71,-22.00,0.00,0.00,0,,,100,99,19,2,0,0,1,1,0,,,,,0.0,0.0,0.0,0.0,0.0,0.0,0
-22.959757,-67.786877,19.60,0.00,2.50,1.65,19.60,19.60,3.51,1.65,11695,2025-12-01 17:11:47.008,2025-12-01 14:11:47.008,16,0,0,44.160,-22.959747,-67.786889,-2.50,0.00,0.00,-15.20,6.80,179.10,0,1,0,97,91,-47159,10739,44160,2931.50,39,WP,1,0,0,0,0,0,0,1764609107007,3746,3784,3764,3715,3718,3761,18,,,,,,,0,0,0,152.00,68.00,1791.00,0.00,1.00,-145.00,14,196.00,25.00,16.46,-25.00,0.00,0.00,0,,,100,99,19,2,0,0,1,1,0,,,,,0.0,0.0,0.0,0.0,0.0,0.0,0
-22.959760,-67.786877,19.60,0.00,2.70,1.88,19.60,19.60,3.51,1.88,11790,2025-12-01 17:11:47.103,2025-12-01 14:11:47.103,16,0,0,44.080,-22.959747,-67.786889,-2.70,0.00,0.00,-15.60,6.80,179.10,0,1,0,96,91,-49198,10664,44080,2931.50,39,WP,1,0,0,0,0,0,0,1764609107102,3746,3784,3764,3715,3718,3761,18,,,,,,,0,0,0,156.00,68.00,1791.00,-1.00,1.00,-141.00,14,196.00,27.00,18.80,-27.00,0.00,0.00,0,,,100,98,19,2,0,0,1,1,0,,,,,0.0,0.0,0.0,0.0,0.0,0.0,0
-22.959764,-67.786877,19.60,0.00,3.00,2.17,19.60,19.60,3.51,2.17,11897,2025-12-01 17:11:47.210,2025-12-01 14:11:47.210,16,0,0,44.080,-22.959747,-67.786889,-3.00,0.00,0.10,-16.20,6.70,179.00,0,1,0,96,91,-49198,10664,44080,2931.50,39,WP,1,0,0,0,0,0,0,1764609107209,3746,3784,3764,3715,3718,3761,18,,,,,,,0,0,0,162.00,67.00,1790.00,-1.00,1.00,-137.00,14,196.00,30.02,21.71,-30.00,0.00,1.00,0,,,100,98,19,2,0,0,1,1,0,,,,,0.0,0.0,0.0,0.0,0.0,0.0,0
-22.959767,-67.786877,19.60,0.00,3.20,2.46,19.60,19.60,3.51,2.46,11994,2025-12-01 17:11:47.306,2025-12-01 14:11:47.306,16,0,0,44.080,-22.959747,-67.786889,-3.20,-0.10,0.10,-16.90,6.50,179.00,0,1,0,96,91,-49198,10664,44080,2931.50,39,WP,1,0,0,0,0,0,0,1764609107306,3746,3784,3764,3715,3718,3761,18,,,,,,,0,0,0,169.00,65.00,1790.00,-1.00,1.00,-132.00,14,196.00,32.03,24.62,-32.00,-1.00,1.00,0,,,100,98,19,2,0,0,1,1,0,,,,,0.0,0.0,0.0,0.0,0.0,0.0,0
-22.959771,-67.786878,19.60,0.00,3.50,2.82,19.60,19.60,3.51,2.82,12095,2025-12-01 17:11:47.407,2025-12-01 14:11:47.408,16,0,0,44.080,-22.959747,-67.786889,-3.50,-0.10,0.00,-17.10,6.30,179.10,0,1,0,96,91,-49198,10664,44080,2931.50,39,WP,1,0,0,0,0,0,0,1764609107407,3746,3784,3764,3715,3718,3761,18,,,,,,,0,0,0,171.00,63.00,1791.00,-1.00,1.00,-129.00,14,196.00,35.01,28.23,-35.00,-1.00,0.00,0,,,100,98,19,2,0,0,1,1,0,,,,,0.0,0.0,0.0,0.0,0.0,0.0,0
-22.959779,-67.786878,19.60,0.00,4.11,3.66,19.60,19.60,4.11,3.66,12295,2025-12-01 17:11:47.608,2025-12-01 14:11:47.608,16,0,0,44.080,-22.959747,-67.786889,-4.10,-0.20,0.10,-16.60,5.50,179.40,0,1,0,96,91,-49198,10664,44080,2931.50,39,WP,1,0,0,0,0,0,0,1764609107607,3746,3784,3764,3715,3718,3761,18,,,,,,,0,0,0,166.00,55.00,1794.00,-1.00,1.00,-126.00,14,196.00,41.06,36.61,-41.00,-2.00,1.00,0,,,100,98,19,2,0,0,1,1,0,,,,,0.0,0.0,0.0,0.0,0.0,0.0,0
-22.959783,-67.786879,19.60,0.00,4.30,4.09,19.60,19.60,4.30,4.09,12398,2025-12-01 17:11:47.710,2025-12-01 14:11:47.710,16,0,0,44.080,-22.959747,-67.786889,-4.30,-0.20,0.00,-16.00,5.20,179.40,0,1,0,96,91,-49198,10664,44080,2931.50,39,WP,1,0,0,0,0,0,0,1764609107710,3746,3784,3764,3715,3718,3761,18,,,,,,,0,0,0,160.00,52.00,1794.00,0.00,1.00,-123.00,14,196.00,43.05,40.89,-43.00,-2.00,0.00,0,,,100,98,19,2,0,0,1,1,0,,,,,0.0,0.0,0.0,0.0,0.0,0.0,0
-22.959788,-67.786879,19.60,0.00,4.61,4.61,19.60,19.60,4.61,4.61,12499,2025-12-01 17:11:47.812,2025-12-01 14:11:47.812,16,0,0,44.080,-22.959747,-67.786889,-4.60,-0.30,0.00,-15.60,4.90,179.50,0,1,0,96,91,-49198,10664,44080,2931.50,39,WP,1,0,0,0,0,0,0,1764609107811,3746,3784,3764,3715,3718,3761,18,,,,,,,0,0,0,156.00,49.00,1795.00,1.00,1.00,-121.00,14,196.00,46.10,46.11,-46.00,-3.00,0.00,0,,,100,98,19,2,0,0,1,1,0,,,,,0.0,0.0,0.0,0.0,0.0,0.0,0
-22.959793,-67.786879,19.60,0.00,4.91,5.10,19.60,19.60,4.91,5.10,12710,2025-12-01 17:11:48.022,2025-12-01 14:11:48.022,16,0,0,44.080,-22.959747,-67.786889,-4.90,-0.30,0.00,-15.20,4.60,179.60,0,1,0,96,91,-49198,10664,44080,2931.50,39,WP,1,0,0,0,0,0,0,1764609108022,3746,3784,3764,3715,3718,3761,18,,,,,,,0,0,0,152.00,46.00,1796.00,1.00,1.00,-121.00,14,196.00,49.09,51.02,-49.00,-3.00,0.00,0,,,100,98,19,2,0,0,1,1,0,,,,,0.0,0.0,0.0,0.0,0.0,0.0,0
-22.959798,-67.786880,19.60,0.00,5.11,5.69,19.60,19.60,5.11,5.69,12714,2025-12-01 17:11:48.026,2025-12-01 14:11:48.026,16,0,0,44.080,-22.959747,-67.786889,-5.10,-0.30,0.00,-14.80,4.40,179.70,0,1,0,96,91,-49198,10664,44080,2931.50,39,WP,1,0,0,0,0,0,0,1764609108026,3746,3784,3764,3715,3718,3761,18,,,,,,,0,0,0,148.00,44.00,1797.00,1.00,1.00,-117.00,14,196.00,51.09,56.92,-51.00,-3.00,0.00,0,,,100,98,19,2,0,0,1,1,0,,,,,0.0,0.0,0.0,0.0,0.0,0.0,0
-22.959803,-67.786880,19.60,0.00,5.41,6.24,19.60,19.60,5.41,6.24,12815,2025-12-01 17:11:48.128,2025-12-01 14:11:48.128,16,0,0,44.080,-22.959747,-67.786889,-5.40,-0.30,0.00,-14.60,4.10,179.60,0,1,0,96,91,-49198,10664,44080,2931.50,39,WP,1,0,0,0,0,0,0,1764609108127,3746,3784,3764,3715,3718,3761,18,,,,,,,0,0,0,146.00,41.00,1796.00,2.00,1.00,-116.00,14,196.00,54.08,62.40,-54.00,-3.00,0.00,0,,,100,98,19,2,0,0,1,1,0,,,,,0.0,0.0,0.0,0.0,0.0,0.0,0
-22.959809,-67.786881,19.60,0.00,5.61,6.84,19.60,19.60,5.61,6.84,12896,2025-12-01 17:11:48.209,2025-12-01 14:11:48.209,16,0,0,44.080,-22.959747,-67.786889,-5.60,-0.30,0.00,-14.70,4.20,179.60,0,1,0,96,91,-49198,10664,44080,2931.50,39,WP,1,0,0,0,0,0,0,1764609108208,3746,3784,3764,3715,3718,3761,18,,,,,,,0,0,0,147.00,42.00,1796.00,3.00,1.00,-114.00,14,196.00,56.08,68.36,-56.00,-3.00,0.00,0,,,100,98,19,2,0,0,1,1,0,,,,,0.0,0.0,0.0,0.0,0.0,0.0,0
-22.959814,-67.786881,19.60,0.00,5.81,7.46,19.60,19.60,5.81,7.46,12998,2025-12-01 17:11:48.311,2025-12-01 14:11:48.311,16,0,0,44.080,-22.959747,-67.786889,-5.80,-0.30,0.00,-14.60,3.90,179.70,0,1,0,96,91,-49198,10664,44080,2931.50,39,WP,1,0,0,0,0,0,0,1764609108310,3582,3587,3604,3533,3533,3570,18,,,,,,,0,0,0,146.00,39.00,1797.00,2.00,1.00,-111.00,14,196.00,58.08,74.63,-58.00,-3.00,0.00,0,,,100,98,19,2,0,0,1,1,0,,,,,0.0,0.0,0.0,0.0,0.0,0.0,0
-22.959820,-67.786881,19.60,0.00,6.11,8.10,19.60,19.60,6.11,8.10,13101,2025-12-01 17:11:48.414,2025-12-01 14:11:48.414,16,0,0,44.080,-22.959747,-67.786889,-6.10,-0.30,0.00,-14.50,3.80,179.80,0,1,0,96,91,-49198,10664,44080,2931.50,39,WP,1,0,0,0,0,0,0,1764609108413,3582,3587,3604,3533,3533,3570,18,,,,,,,0,0,0,145.00,38.00,1798.00,1.00,2.00,-110.00,14,196.00,61.07,80.96,-61.00,-3.00,0.00,0,,,100,98,19,2,0,0,1,1,0,,,,,0.0,0.0,0.0,0.0,0.0,0.0,0
-22.959826,-67.786882,19.60,0.00,6.21,8.76,19.60,19.60,6.21,8.76,13202,2025-12-01 17:11:48.514,2025-12-01 14:11:48.514,16,0,0,44.080,-22.959747,-67.786889,-6.20,-0.40,0.00,-14.70,4.00,179.70,0,1,0,96,91,-49198,10664,44080,2931.50,39,WP,1,0,0,0,0,0,0,1764609108514,3582,3587,3604,3533,3533,3570,18,,,,,,,0,0,0,147.00,40.00,1797.00,2.00,1.00,-109.00,14,196.00,62.13,87.59,-62.00,-4.00,0.00,0,,,100,98,19,2,0,0,1,1,0,,,,,0.0,0.0,0.0,0.0,0.0,0.0,0
-22.959833,-67.786882,19.60,0.00,6.51,9.50,19.60,19.60,6.51,9.50,13299,2025-12-01 17:11:48.612,2025-12-01 14:11:48.612,16,0,0,44.080,-22.959747,-67.786889,-6.50,-0.40,0.00,-14.90,4.00,179.70,0,1,0,96,91,-49198,10664,44080,2931.50,39,WP,1,0,0,0,0,0,0,1764609108611,3582,3587,3604,3533,3533,3570,18,,,,,,,0,0,0,149.00,40.00,1797.00,3.00,1.00,-107.00,14,196.00,65.12,94.97,-65.00,-4.00,0.00,0,,,100,98,19,2,0,0,1,1,0,,,,,0.0,0.0,0.0,0.0,0.0,0.0,0
-22.959839,-67.786883,19.60,0.00,6.71,10.18,19.60,19.60,6.71,10.18,13404,2025-12-01 17:11:48.716,2025-12-01 14:11:48.716,16,0,0,44.080,-22.959747,-67.786889,-6.70,-0.40,0.00,-14.90,3.70,179.80,0,1,0,96,91,-49198,10664,44080,2931.50,39,WP,1,0,0,0,0,0,0,1764609108716,3582,3587,3604,3533,3533,3570,18,,,,,,,0,0,0,149.00,37.00,1798.00,3.00,1.00,-105.00,14,196.00,67.12,101.80,-67.00,-4.00,0.00,0,,,100,99,19,2,0,0,1,1,0,,,,,0.0,0.0,0.0,0.0,0.0,0.0,0
-22.959846,-67.786883,19.60,0.00,6.91,10.92,19.60,19.60,6.91,10.92,13503,2025-12-01 17:11:48.816,2025-12-01 14:11:48.816,16,0,0,44.080,-22.959747,-67.786889,-6.90,-0.40,0.00,-15.10,3.30,179.80,0,1,0,96,91,-49198,10664,44080,2931.50,39,WP,1,0,0,0,0,0,0,1764609108815,3582,3587,3604,3533,3533,3570,18,,,,,,,0,0,0,151.00,33.00,1798.00,2.00,1.00,-104.00,14,196.00,69.12,109.16,-69.00,-4.00,0.00,0,,,100,99,19,2,0,0,1,1,0,,,,,0.0,0.0,0.0,0.0,0.0,0.0,0
-22.959853,-67.786884,19.60,0.00,7.21,11.68,19.60,19.60,7.21,11.68,13604,2025-12-01 17:11:48.916,2025-12-01 14:11:48.916,16,0,0,44.080,-22.959747,-67.786889,-7.20,-0.40,0.00,-14.70,3.20,179.80,0,1,0,96,91,-49198,10664,44080,2931.50,39,WP,1,0,0,0,0,0,0,1764609108916,3582,3587,3604,3533,3533,3570,18,,,,,,,0,0,0,147.00,32.00,1798.00,3.00,1.00,-102.00,14,196.00,72.11,116.81,-72.00,-4.00,0.00,0,,,100,99,19,2,0,0,1,1,0,,,,,0.0,0.0,0.0,0.0,0.0,0.0,0
-22.959867,-67.786884,19.60,0.00,7.61,13.27,19.60,19.60,7.61,13.27,13805,2025-12-01 17:11:49.118,2025-12-01 14:11:49.118,16,0,0,42.962,-22.959747,-67.786889,-7.60,-0.30,0.00,-13.80,3.20,179.90,0,1,0,96,91,-60129,10629,42962,2931.50,39,WP,1,0,0,0,0,0,0,1764609109117,3582,3587,3604,3533,3533,3570,18,,,,,,,0,0,0,138.00,32.00,1799.00,5.00,2.00,-99.00,14,196.00,76.06,132.74,-76.00,-3.00,0.00,0,,,100,99,19,2,0,0,1,1,0,,,,,0.0,0.0,0.0,0.0,0.0,0.0,0
-22.959875,-67.786885,19.60,0.00,7.81,14.09,19.60,19.60,7.81,14.09,13906,2025-12-01 17:11:49.219,2025-12-01 14:11:49.219,16,0,0,42.962,-22.959747,-67.786889,-7.80,-0.30,0.00,-13.30,3.50,179.80,0,1,0,96,91,-60129,10629,42962,2931.50,39,WP,1,0,0,0,0,0,0,1764609109218,3582,3587,3604,3533,3533,3570,18,,,,,,,0,0,0,133.00,35.00,1798.00,7.00,2.00,-98.00,14,196.00,78.06,140.88,-78.00,-3.00,0.00,0,,,100,97,19,2,0,0,1,1,0,,,,,0.0,0.0,0.0,0.0,0.0,0.0,0
-22.959882,-67.786885,19.60,0.00,7.91,14.93,19.60,19.60,7.91,14.93,14015,2025-12-01 17:11:49.327,2025-12-01 14:11:49.327,16,0,0,42.962,-22.959747,-67.786889,-7.90,-0.30,0.00,-13.40,3.80,179.70,0,1,0,96,91,-60129,10629,42962,2931.50,39,WP,1,0,0,0,0,0,0,1764609109327,3582,3587,3604,3533,3533,3570,18,,,,,,,0,0,0,134.00,38.00,1797.00,6.00,2.00,-96.00,14,196.00,79.06,149.25,-79.00,-3.00,0.00,0,,,100,97,19,2,0,0,1,1,0,,,,,0.0,0.0,0.0,0.0,0.0,0.0,0
-22.959890,-67.786885,19.60,0.00,8.11,15.83,19.60,19.60,8.11,15.83,14106,2025-12-01 17:11:49.419,2025-12-01 14:11:49.419,16,0,0,42.962,-22.959747,-67.786889,-8.10,-0.30,0.00,-13.80,3.80,179.80,0,1,0,96,91,-60129,10629,42962,2931.50,39,WP,1,0,0,0,0,0,0,1764609109418,3582,3587,3604,3533,3533,3570,18,,,,,,,0,0,0,138.00,38.00,1798.00,6.00,1.00,-93.00,14,196.00,81.06,158.31,-81.00,-3.00,0.00,0,,,100,97,19,2,0,0,1,1,0,,,,,0.0,0.0,0.0,0.0,0.0,0.0,0
-22.959898,-67.786886,19.60,0.00,8.21,16.66,19.60,19.60,8.21,16.66,14211,2025-12-01 17:11:49.524,2025-12-01 14:11:49.524,16,0,0,42.962,-22.959747,-67.786889,-8.20,-0.40,0.00,-14.60,3.80,179.80,0,1,0,96,91,-60129,10629,42962,2931.50,39,WP,1,0,0,0,0,0,0,1764609109523,3582,3587,3604,3533,3533,3570,18,,,,,,,0,0,0,146.00,38.00,1798.00,8.00,1.00,-91.00,14,196.00,82.10,166.56,-82.00,-4.00,0.00,0,,,100,97,19,2,0,0,1,1,0,,,,,0.0,0.0,0.0,0.0,0.0,0.0,0
-22.959906,-67.786886,19.60,0.00,8.41,17.54,19.60,19.60,8.41,17.54,14310,2025-12-01 17:11:49.623,2025-12-01 14:11:49.623,16,0,0,42.962,-22.959747,-67.786889,-8.40,-0.40,-0.10,-15.10,3.70,179.70,0,1,0,96,91,-60129,10629,42962,2931.50,39,WP,1,0,0,0,0,0,0,1764609109622,3582,3587,3604,3533,3533,3570,18,,,,,,,0,0,0,151.00,37.00,1797.00,4.00,2.00,-90.00,14,196.00,84.10,175.36,-84.00,-4.00,-1.00,0,,,100,97,19,2,0,0,1,1,0,,,,,0.0,0.0,0.0,0.0,0.0,0.0,0
-22.959914,-67.786887,19.60,0.00,8.51,18.43,19.60,19.60,8.51,18.43,14415,2025-12-01 17:11:49.727,2025-12-01 14:11:49.727,16,0,0,42.962,-22.959747,-67.786889,-8.50,-0.40,-0.10,-14.90,3.50,179.70,0,1,0,96,91,-60129,10629,42962,2931.50,39,WP,1,0,0,0,0,0,0,1764609109727,3582,3587,3604,3533,3533,3570,18,,,,,,,0,0,0,149.00,35.00,1797.00,3.00,2.00,-88.00,14,196.00,85.10,184.27,-85.00,-4.00,-1.00,0,,,100,97,19,2,0,0,1,1,0,,,,,0.0,0.0,0.0,0.0,0.0,0.0,0
-22.959922,-67.786887,19.70,0.00,8.71,19.32,19.70,19.70,8.71,19.32,14508,2025-12-01 17:11:49.821,2025-12-01 14:11:49.821,16,0,0,42.962,-22.959747,-67.786889,-8.70,-0.40,-0.10,-13.40,3.00,179.80,0,1,0,96,91,-60129,10629,42962,2931.50,39,WP,1,0,0,0,0,0,0,1764609109820,3582,3587,3604,3533,3533,3570,18,,,,,,,0,0,0,134.00,30.00,1798.00,6.00,1.00,-86.00,14,197.00,87.10,193.21,-87.00,-4.00,-1.00,0,,,100,98,19,2,0,0,1,1,0,,,,,0.0,0.0,0.0,0.0,0.0,0.0,0
-22.959930,-67.786888,19.70,0.00,8.81,20.24,19.70,19.70,8.81,20.24,14615,2025-12-01 17:11:49.928,2025-12-01 14:11:49.928,16,0,0,42.962,-22.959747,-67.786889,-8.80,-0.40,-0.10,-11.30,2.90,179.70,0,1,0,96,91,-60129,10629,42962,2931.50,39,WP,1,0,0,0,0,0,0,1764609109927,3582,3587,3604,3533,3533,3570,18,,,,,,,0,0,0,113.00,29.00,1797.00,8.00,1.00,-85.00,14,197.00,88.10,202.44,-88.00,-4.00,-1.00,0,,,100,98,19,2,0,0,1,1,0,,,,,0.0,0.0,0.0,0.0,0.0,0.0,0
