latitude,longitude,altitude(m),ultrasonicHeight(m),speed(mps),distance(m),max_altitude(m),max_ascent(m),max_speed(mps),max_distance(m),time(millisecond),datetime(utc),datetime(local),satellites,pressure(Pa),temperature(F),voltage(v),home_latitude,home_longitude,velocityX(mps),velocityY(mps),velocityZ(mps),pitch(deg),roll(deg),yaw(deg),powerlevel,isflying,istakingphoto,remainPowerPercent,remainLifePercent,currentCurrent,currentElectricity,currentVoltage,batteryTemperature,dischargeCount,flightmode,isMotorsOn,isTakingVideo,Rc_elevator,Rc_aileron,Rc_throttle,Rc_rudder,Rc_gyro,timestamp,Battery_Cell1,Battery_Cell2,Battery_Cell3,Battery_Cell4,Battery_Cell5,Battery_Cell6,Dronetype,AppVersion,Planename,FlyControllerSerialNumber,RemoteSerialNumber,BatterySerialNumber,CENTER_BATTERY.productDate,CENTER_BATTERY.serialNo,CENTER_BATTERY.fullCapacity,CENTER_BATTERY.productDateRaw,pitchRaw,rollRaw,yawRaw,gimbalPitchRaw,gimbalRollRaw,gimbalYawRaw,flyState,altitudeRaw,speedRaw,distanceRaw,velocityXRaw,velocityYRaw,velocityZRaw,data_reuse,App_Tip,App_Warning,downlinkSignalQuality,uplinkSignalQuality,transmissionChannel,rcModeSwitch,rcHome,rcPause,rcTransform,rcJoystickMode,appMode,FlyControllerSerialNumber_legacy,RemoteSerialNumber_legacy,BatterySerialNumber_legacy,Battery2SerialNumber,frontAvoidDist,backAvoidDist,rightAvoidDist,leftAvoidDist,upAvoidDist,downAvoidDist,isBrakingToAvoid
-22.959735,-67.786897,0.70,0.00,0.55,0.34,0.70,0.70,0.55,0.34,3,2025-11-30 15:57:15.795,2025-11-30 12:57:15.795,17,0,0,51.679,-22.959737,-67.786899,0.20,0.10,-0.50,2.20,2.40,89.20,0,1,0,98,90,-7315,14565,51679,2971.50,41,TakeOff,1,0,0,0,0,0,0,1764518235795,4315,4319,4317,4320,4319,4317,18,Litchi_iOS_2.15.7,EIK Matrice 1,0670131556,03LLCA05XT,,,0,14763,0,-22.00,24.00,892.00,0.00,0.00,0.00,11,7.00,5.48,3.37,2.00,1.00,-5.00,0,,,100,100,16,2,0,0,1,1,0,(null),(null),(null),(null),0.0,0.0,0.0,0.0,0.0,0.0,0
-22.959735,-67.786897,0.80,0.00,0.52,0.37,0.80,0.80,0.55,0.37,104,2025-11-30 15:57:15.897,2025-11-30 12:57:15.897,17,0,0,51.679,-22.959737,-67.786899,0.10,0.10,-0.50,2.20,2.50,89.30,0,1,0,98,90,-7315,14565,51679,2971.50,41,TakeOff,1,0,0,0,0,0,0,1764518235896,4315,4319,4317,4320,4319,4317,18,,,,,,,0,0,0,-22.00,25.00,893.00,0.00,0.00,-1.00,11,8.00,5.20,3.66,1.00,1.00,-5.00,0,,,100,100,16,2,0,0,1,1,0,,,,,0.0,0.0,0.0,0.0,0.0,0.0,0
-22.959734,-67.786896,0.80,0.00,0.41,0.39,0.80,0.80,0.55,0.39,196,2025-11-30 15:57:15.988,2025-11-30 12:57:15.988,18,0,0,51.679,-22.959737,-67.786899,0.10,0.00,-0.40,2.20,2.60,89.30,0,1,0,98,90,-7315,14565,51679,2971.50,41,TakeOff,1,0,0,0,0,0,0,1764518235988,4315,4319,4317,4320,4319,4317,18,,,,,,,0,0,0,-22.00,26.00,893.00,0.00,0.00,-1.00,11,8.00,4.12,3.92,1.00,0.00,-4.00,0,,,100,100,16,2,0,0,1,1,0,,,,,0.0,0.0,0.0,0.0,0.0,0.0,0
-22.959734,-67.786896,0.90,0.00,0.41,0.41,0.90,0.90,0.55,0.41,301,2025-11-30 15:57:16.094,2025-11-30 12:57:16.094,18,0,0,51.679,-22.959737,-67.786899,0.10,0.00,-0.40,2.00,2.50,89.30,0,1,0,98,90,-7315,14565,51679,2971.50,41,TakeOff,1,0,0,0,0,0,0,1764518236093,4315,4319,4317,4320,4319,4317,18,,,,,,,0,0,0,-20.00,25.00,893.00,0.00,0.00,-2.00,11,9.00,4.12,4.14,1.00,0.00,-4.00,0,,,100,100,16,2,0,0,1,1,0,,,,,0.0,0.0,0.0,0.0,0.0,0.0,0
-22.959734,-67.786896,0.90,0.00,0.32,0.43,0.90,0.90,0.55,0.43,397,2025-11-30 15:57:16.190,2025-11-30 12:57:16.190,18,0,0,51.679,-22.959737,-67.786899,0.10,0.00,-0.30,1.80,2.20,89.20,0,1,0,98,90,-7315,14565,51679,2971.50,41,TakeOff,1,0,0,0,0,0,0,1764518236189,4315,4319,4317,4320,4319,4317,18,,,,,,,0,0,0,-18.00,22.00,892.00,0.00,0.00,-1.00,11,9.00,3.16,4.25,1.00,0.00,-3.00,0,,,100,100,16,2,0,0,1,1,0,,,,,0.0,0.0,0.0,0.0,0.0,0.0,0
-22.959734,-67.786896,0.90,0.00,0.32,0.43,0.90,0.90,0.55,0.43,505,2025-11-30 15:57:16.297,2025-11-30 12:57:16.297,18,0,0,51.679,-22.959737,-67.786899,0.10,0.00,-0.30,1.70,2.10,89.20,0,1,0,98,90,-7315,14565,51679,2971.50,41,TakeOff,1,0,0,0,0,0,0,1764518236297,4315,4319,4317,4320,4319,4317,18,,,,,,,0,0,0,-17.00,21.00,892.00,0.00,0.00,-1.00,11,9.00,3.16,4.34,1.00,0.00,-3.00,0,,,100,100,16,2,0,0,1,1,0,,,,,0.0,0.0,0.0,0.0,0.0,0.0,0
-22.959734,-67.786896,1.00,0.00,0.32,0.44,1.00,1.00,0.55,0.44,604,2025-11-30 15:57:16.396,2025-11-30 12:57:16.396,18,0,0,50.241,-22.959737,-67.786899,0.10,0.00,-0.30,1.80,2.30,89.20,0,1,0,98,90,-31216,14565,50241,2971.50,41,TakeOff,1,0,0,0,0,0,0,1764518236396,4315,4319,4317,4320,4319,4317,18,,,,,,,0,0,0,-18.00,23.00,892.00,0.00,0.00,0.00,11,10.00,3.16,4.36,1.00,0.00,-3.00,0,,,100,100,16,2,0,0,1,1,0,,,,,0.0,0.0,0.0,0.0,0.0,0.0,0
-22.959734,-67.786896,1.00,0.00,0.32,0.44,1.00,1.00,0.55,0.44,706,2025-11-30 15:57:16.499,2025-11-30 12:57:16.499,18,0,0,50.241,-22.959737,-67.786899,0.10,0.00,-0.30,1.50,2.50,89.10,0,1,0,98,90,-31216,14565,50241,2971.50,41,TakeOff,1,0,0,0,0,0,0,1764518236498,4315,4319,4317,4320,4319,4317,18,,,,,,,0,0,0,-15.00,25.00,891.00,0.00,0.00,0.00,11,10.00,3.16,4.40,1.00,0.00,-3.00,0,,,100,100,16,2,0,0,1,1,0,,,,,0.0,0.0,0.0,0.0,0.0,0.0,0
-22.959734,-67.786896,1.10,0.00,0.30,0.44,1.10,1.10,0.55,0.44,902,2025-11-30 15:57:16.695,2025-11-30 12:57:16.695,18,0,0,50.241,-22.959737,-67.786899,0.00,0.00,-0.30,0.10,2.20,89.20,0,1,0,98,90,-31216,14565,50241,2971.50,41,WP,1,0,0,0,0,0,0,1764518236694,4315,4319,4317,4320,4319,4317,18,,,,,,,0,0,0,-1.00,22.00,892.00,0.00,0.00,0.00,14,11.00,3.00,4.44,0.00,0.00,-3.00,0,,,100,100,16,2,0,0,1,1,0,,,,,0.0,0.0,0.0,0.0,0.0,0.0,0
-22.959734,-67.786896,1.10,0.00,0.22,0.45,1.10,1.10,0.55,0.45,1005,2025-11-30 15:57:16.798,2025-11-30 12:57:16.798,18,0,0,50.241,-22.959737,-67.786899,0.10,0.00,-0.20,-0.60,1.40,89.20,0,1,0,98,90,-31216,14565,50241,2971.50,41,WP,1,0,0,0,0,0,0,1764518236797,4315,4319,4317,4320,4319,4317,18,,,,,,,0,0,0,6.00,14.00,892.00,-1.00,0.00,-1.00,14,11.00,2.24,4.50,1.00,0.00,-2.00,0,,,100,100,16,2,0,0,1,1,0,,,,,0.0,0.0,0.0,0.0,0.0,0.0,0
-22.959734,-67.786896,1.10,0.00,0.22,0.46,1.10,1.10,0.55,0.46,1108,2025-11-30 15:57:16.900,2025-11-30 12:57:16.900,18,0,0,50.241,-22.959737,-67.786899,0.10,0.00,-0.20,-1.00,1.00,89.30,0,1,0,98,90,-31216,14565,50241,2971.50,41,WP,1,0,0,0,0,0,0,1764518236900,4315,4319,4317,4320,4319,4317,18,,,,,,,0,0,0,10.00,10.00,893.00,0.00,0.00,-1.00,14,11.00,2.24,4.60,1.00,0.00,-2.00,0,,,100,100,16,2,0,0,1,1,0,,,,,0.0,0.0,0.0,0.0,0.0,0.0,0
-22.959733,-67.786896,1.20,0.00,0.22,0.47,1.20,1.20,0.55,0.47,1203,2025-11-30 15:57:16.996,2025-11-30 12:57:16.996,18,0,0,50.241,-22.959737,-67.786899,0.10,0.00,-0.20,-1.10,0.90,89.30,0,1,0,98,90,-31216,14565,50241,2971.50,41,WP,1,0,0,0,0,0,0,1764518236995,4315,4319,4317,4320,4319,4317,18,,,,,,,0,0,0,11.00,9.00,893.00,0.00,0.00,-1.00,14,12.00,2.24,4.73,1.00,0.00,-2.00,0,,,100,100,16,2,0,0,1,1,0,,,,,0.0,0.0,0.0,0.0,0.0,0.0,0
-22.959733,-67.786896,1.20,0.00,0.32,0.49,1.20,1.20,0.55,0.49,1309,2025-11-30 15:57:17.102,2025-11-30 12:57:17.102,18,0,0,50.241,-22.959737,-67.786899,0.10,0.00,-0.30,-0.60,0.80,89.40,0,1,0,98,90,-31216,14565,50241,2971.50,41,WP,1,0,0,0,0,0,0,1764518237101,4315,4319,4317,4320,4319,4317,18,,,,,,,0,0,0,6.00,8.00,894.00,0.00,0.00,-2.00,14,12.00,3.16,4.88,1.00,0.00,-3.00,0,,,100,100,16,2,0,0,1,1,0,,,,,0.0,0.0,0.0,0.0,0.0,0.0,0
-22.959733,-67.786896,1.20,0.00,0.41,0.51,1.20,1.20,0.55,0.51,1404,2025-11-30 15:57:17.197,2025-11-30 12:57:17.197,18,0,0,50.241,-22.959737,-67.786899,0.10,0.00,-0.40,0.00,1.10,89.50,0,1,0,98,90,-31216,14565,50241,2971.50,41,WP,1,0,0,0,0,0,0,1764518237196,4315,4319,4317,4320,4319,4317,18,,,,,,,0,0,0,-0.00,11.00,895.00,0.00,0.00,-2.00,14,12.00,4.12,5.07,1.00,0.00,-4.00,0,,,100,100,16,2,0,0,1,1,0,,,,,0.0,0.0,0.0,0.0,0.0,0.0,0
-22.959733,-67.786896,1.30,0.00,0.62,0.53,1.30,1.30,0.62,0.53,1509,2025-11-30 15:57:17.302,2025-11-30 12:57:17.302,18,0,0,50.241,-22.959737,-67.786899,0.10,0.10,-0.60,0.80,1.40,89.50,0,1,0,98,90,-31216,14565,50241,2971.50,41,WP,1,0,0,0,0,0,0,1764518237301,4315,4319,4317,4320,4319,4317,18,,,,,,,0,0,0,-8.00,14.00,895.00,0.00,0.00,-3.00,14,13.00,6.16,5.27,1.00,1.00,-6.00,0,,,100,100,16,2,0,0,1,1,0,,,,,0.0,0.0,0.0,0.0,0.0,0.0,0
-22.959733,-67.786896,1.30,0.00,0.81,0.55,1.30,1.30,0.81,0.55,1607,2025-11-30 15:57:17.400,2025-11-30 12:57:17.400,18,0,0,47.785,-22.959737,-67.786899,0.10,0.10,-0.80,1.40,1.70,89.50,0,1,0,98,90,-49463,14565,47785,2971.50,41,WP,1,0,0,0,0,0,0,1764518237399,4315,4319,4317,4320,4319,4317,18,,,,,,,0,0,0,-14.00,17.00,895.00,0.00,0.00,-4.00,14,13.00,8.12,5.45,1.00,1.00,-8.00,0,,,100,100,16,2,0,0,1,1,0,,,,,0.0,0.0,0.0,0.0,0.0,0.0,0
-22.959733,-67.786896,1.40,0.00,1.10,0.56,1.40,1.40,1.10,0.56,1709,2025-11-30 15:57:17.502,2025-11-30 12:57:17.502,18,0,0,47.785,-22.959737,-67.786899,0.10,0.00,-1.10,1.70,1.80,89.40,0,1,0,98,90,-49463,14565,47785,2971.50,41,WP,1,0,0,0,0,0,0,1764518237501,4315,4319,4317,4320,4319,4317,18,,,,,,,0,0,0,-17.00,18.00,894.00,0.00,0.00,-4.00,14,14.00,11.05,5.63,1.00,0.00,-11.00,0,,,100,100,16,2,0,0,1,1,0,,,,,0.0,0.0,0.0,0.0,0.0,0.0,0
-22.959733,-67.786896,1.60,0.00,1.40,0.58,1.60,1.60,1.40,0.58,1820,2025-11-30 15:57:17.612,2025-11-30 12:57:17.612,18,0,0,47.785,-22.959737,-67.786899,0.10,0.00,-1.40,1.50,2.00,89.30,0,1,0,98,90,-49463,14565,47785,2971.50,41,WP,1,0,0,0,0,0,0,1764518237612,4315,4319,4317,4320,4319,4317,18,,,,,,,0,0,0,-15.00,20.00,893.00,0.00,0.00,-3.00,14,16.00,14.04,5.80,1.00,0.00,-14.00,0,,,100,100,16,2,0,0,1,1,0,,,,,0.0,0.0,0.0,0.0,0.0,0.0,0
-22.959732,-67.786896,1.90,0.00,2.00,0.61,1.90,1.90,2.00,0.61,2017,2025-11-30 15:57:17.810,2025-11-30 12:57:17.810,18,0,0,47.785,-22.959737,-67.786899,0.10,0.00,-2.00,0.00,2.10,89.00,0,1,0,98,90,-49463,14565,47785,2971.50,41,WP,1,0,0,0,0,0,0,1764518237809,4315,4319,4317,4320,4319,4317,18,,,,,,,0,0,0,-0.00,21.00,890.00,0.00,0.00,0.00,14,19.00,20.02,6.12,1.00,0.00,-20.00,0,,,100,100,16,2,0,0,1,1,0,,,,,0.0,0.0,0.0,0.0,0.0,0.0,0
-22.959732,-67.786896,2.20,0.00,2.30,0.62,2.20,2.20,2.30,0.62,2119,2025-11-30 15:57:17.912,2025-11-30 12:57:17.912,18,0,0,47.785,-22.959737,-67.786899,0.00,0.10,-2.30,-0.50,2.00,88.80,0,1,0,98,90,-49463,14565,47785,2971.50,41,WP,1,0,0,0,0,0,0,1764518237911,4315,4319,4317,4320,4319,4317,18,,,,,,,0,0,0,5.00,20.00,888.00,0.00,0.00,1.00,14,22.00,23.02,6.24,0.00,1.00,-23.00,0,,,100,100,16,2,0,0,1,1,0,,,,,0.0,0.0,0.0,0.0,0.0,0.0,0
-22.959732,-67.786896,2.50,0.00,2.70,0.64,2.50,2.50,2.70,0.64,2127,2025-11-30 15:57:17.919,2025-11-30 12:57:17.919,18,0,0,47.785,-22.959737,-67.786899,0.00,0.10,-2.70,-0.20,1.90,88.70,0,1,0,98,90,-49463,14565,47785,2971.50,41,WP,1,0,0,0,0,0,0,1764518237919,4315,4319,4317,4320,4319,4317,18,,,,,,,0,0,0,2.00,19.00,887.00,0.00,0.00,3.00,14,25.00,27.02,6.38,0.00,1.00,-27.00,0,,,100,100,16,2,0,0,1,1,0,,,,,0.0,0.0,0.0,0.0,0.0,0.0,0
-22.959732,-67.786896,2.80,0.00,2.90,0.65,2.80,2.80,2.90,0.65,2317,2025-11-30 15:57:18.110,2025-11-30 12:57:18.110,18,0,0,47.785,-22.959737,-67.786899,0.00,0.10,-2.90,0.50,2.10,88.80,0,1,0,98,90,-49463,14565,47785,2971.50,41,WP,1,0,0,0,0,0,0,1764518238109,4315,4319,4317,4320,4319,4317,18,,,,,,,0,0,0,-5.00,21.00,888.00,0.00,0.00,3.00,14,28.00,29.02,6.49,0.00,1.00,-29.00,0,,,100,100,16,2,0,0,1,1,0,,,,,0.0,0.0,0.0,0.0,0.0,0.0,0
-22.959732,-67.786896,3.10,0.00,3.20,0.66,3.10,3.10,3.20,0.66,2421,2025-11-30 15:57:18.214,2025-11-30 12:57:18.214,18,0,0,47.785,-22.959737,-67.786899,0.00,0.10,-3.20,1.10,1.90,88.90,0,1,0,98,90,-49463,14565,47785,2971.50,41,WP,1,0,0,0,0,0,0,1764518238213,4315,4319,4317,4320,4319,4317,18,,,,,,,0,0,0,-11.00,19.00,889.00,0.00,0.00,3.00,14,31.00,32.02,6.55,0.00,1.00,-32.00,0,,,100,100,16,2,0,0,1,1,0,,,,,0.0,0.0,0.0,0.0,0.0,0.0,0
-22.959732,-67.786895,3.40,0.00,3.40,0.66,3.40,3.40,3.40,0.66,2518,2025-11-30 15:57:18.310,2025-11-30 12:57:18.310,18,0,0,47.785,-22.959737,-67.786899,0.00,0.10,-3.40,1.50,1.40,89.10,0,1,0,98,90,-49463,14565,47785,2971.50,41,WP,1,0,0,0,0,0,0,1764518238310,4315,4319,4317,4320,4319,4317,18,,,,,,,0,0,0,-15.00,14.00,891.00,0.00,0.00,1.00,14,34.00,34.01,6.61,0.00,1.00,-34.00,0,,,100,100,16,2,0,0,1,1,0,,,,,0.0,0.0,0.0,0.0,0.0,0.0,0
-22.959732,-67.786895,3.80,0.00,3.50,0.66,3.80,3.80,3.50,0.66,2617,2025-11-30 15:57:18.409,2025-11-30 12:57:18.409,18,0,0,47.785,-22.959737,-67.786899,0.00,0.10,-3.50,1.70,0.90,89.20,0,1,0,98,90,-49463,14565,47785,2971.50,41,WP,1,0,0,0,0,0,0,1764518238409,4315,4319,4317,4320,4319,4317,18,,,,,,,0,0,0,-17.00,9.00,892.00,0.00,0.00,0.00,14,38.00,35.01,6.62,0.00,1.00,-35.00,0,,,100,100,16,2,0,0,1,1,0,,,,,0.0,0.0,0.0,0.0,0.0,0.0,0
-22.959732,-67.786895,4.40,0.00,3.50,0.66,4.40,4.40,3.50,0.66,2816,2025-11-30 15:57:18.609,2025-11-30 12:57:18.609,18,0,0,47.785,-22.959737,-67.786899,0.00,0.00,-3.50,1.80,0.60,89.20,0,1,0,98,90,-49463,14565,47785,2971.50,41,WP,1,0,0,0,0,0,0,1764518238608,4315,4319,4317,4320,4319,4317,18,,,,,,,0,0,0,-18.00,6.00,892.00,0.00,0.00,-1.00,14,44.00,35.00,6.57,0.00,0.00,-35.00,0,,,100,100,16,2,0,0,1,1,0,,,,,0.0,0.0,0.0,0.0,0.0,0.0,0
-22.959732,-67.786895,5.00,0.00,3.40,0.65,5.00,5.00,3.50,0.66,3033,2025-11-30 15:57:18.826,2025-11-30 12:57:18.826,18,0,0,47.785,-22.959737,-67.786899,0.00,0.00,-3.40,1.80,1.00,89.10,0,1,0,98,90,-49463,14565,47785,2971.50,41,WP,1,0,0,0,0,0,0,1764518238825,4315,4319,4317,4320,4319,4317,18,,,,,,,0,0,0,-18.00,10.00,891.00,0.00,0.00,0.00,14,50.00,34.00,6.54,0.00,0.00,-34.00,0,,,100,100,16,2,0,0,1,1,0,,,,,0.0,0.0,0.0,0.0,0.0,0.0,0
-22.959732,-67.786895,5.30,0.00,3.30,0.65,5.30,5.30,3.50,0.66,3038,2025-11-30 15:57:18.831,2025-11-30 12:57:18.831,18,0,0,47.785,-22.959737,-67.786899,0.00,0.00,-3.30,1.60,1.70,89.10,0,1,0,98,90,-49463,14565,47785,2971.50,41,WP,1,0,0,0,0,0,0,1764518238830,4315,4319,4317,4320,4319,4317,18,,,,,,,0,0,0,-16.00,17.00,891.00,0.00,0.00,0.00,14,53.00,33.00,6.55,0.00,0.00,-33.00,0,,,100,100,16,2,0,0,1,1,0,,,,,0.0,0.0,0.0,0.0,0.0,0.0,0
-22.959732,-67.786895,5.70,0.00,3.20,0.65,5.70,5.70,3.50,0.66,3117,2025-11-30 15:57:18.910,2025-11-30 12:57:18.910,18,0,0,47.785,-22.959737,-67.786899,0.00,0.00,-3.20,1.50,2.20,89.10,0,1,0,98,90,-49463,14565,47785,2971.50,41,WP,1,0,0,0,0,0,0,1764518238909,4315,4319,4317,4320,4319,4317,18,,,,,,,0,0,0,-15.00,22.00,891.00,0.00,0.00,0.00,14,57.00,32.00,6.52,0.00,0.00,-32.00,0,,,100,97,16,2,0,0,1,1,0,,,,,0.0,0.0,0.0,0.0,0.0,0.0,0
-22.959732,-67.786895,6.00,0.00,3.20,0.65,6.00,6.00,3.50,0.66,3222,2025-11-30 15:57:19.014,2025-11-30 12:57:19.014,18,0,0,47.785,-22.959737,-67.786899,0.00,0.00,-3.20,1.20,2.20,89.10,0,1,0,98,90,-49463,14565,47785,2971.50,41,WP,1,0,0,0,0,0,0,1764518239014,4315,4319,4317,4320,4319,4317,18,,,,,,,0,0,0,-12.00,22.00,891.00,0.00,0.00,0.00,14,60.00,32.00,6.47,0.00,0.00,-32.00,0,,,100,97,16,2,0,0,1,1,0,,,,,0.0,0.0,0.0,0.0,0.0,0.0,0
-22.959732,-67.786895,6.30,0.00,3.10,0.64,6.30,6.30,3.50,0.66,3321,2025-11-30 15:57:19.114,2025-11-30 12:57:19.114,18,0,0,47.785,-22.959737,-67.786899,0.00,0.00,-3.10,0.90,2.10,89.10,0,1,0,98,90,-49463,14565,47785,2971.50,41,WP,1,0,0,0,0,0,0,1764518239113,4315,4319,4317,4320,4319,4317,18,,,,,,,0,0,0,-9.00,21.00,891.00,0.00,0.00,0.00,14,63.00,31.00,6.42,0.00,0.00,-31.00,0,,,100,97,16,2,0,0,1,1,0,,,,,0.0,0.0,0.0,0.0,0.0,0.0,0
-22.959732,-67.786895,6.60,0.00,3.00,0.64,6.60,6.60,3.50,0.66,3425,2025-11-30 15:57:19.218,2025-11-30 12:57:19.218,18,0,0,47.785,-22.959737,-67.786899,-0.10,0.00,-3.00,0.70,2.00,89.10,0,1,0,98,90,-49463,14565,47785,2971.50,41,WP,1,0,0,0,0,0,0,1764518239217,4315,4319,4317,4320,4319,4317,18,,,,,,,0,0,0,-7.00,20.00,891.00,0.00,0.00,0.00,14,66.00,30.02,6.36,-1.00,0.00,-30.00,0,,,100,97,16,2,0,0,1,1,0,,,,,0.0,0.0,0.0,0.0,0.0,0.0,0
-22.959732,-67.786895,6.90,0.00,3.00,0.63,6.90,6.90,3.50,0.66,3524,2025-11-30 15:57:19.316,2025-11-30 12:57:19.316,18,0,0,46.960,-22.959737,-67.786899,-0.10,0.00,-3.00,0.80,1.80,89.10,0,1,0,97,90,-73264,14466,46960,2971.50,41,WP,1,0,0,0,0,0,0,1764518239316,4315,4319,4317,4320,4319,4317,18,,,,,,,0,0,0,-8.00,18.00,891.00,0.00,0.00,0.00,14,69.00,30.02,6.30,-1.00,0.00,-30.00,0,,,100,97,16,2,0,0,1,1,0,,,,,0.0,0.0,0.0,0.0,0.0,0.0,0
-22.959732,-67.786895,7.20,0.00,3.00,0.62,7.20,7.20,3.50,0.66,3723,2025-11-30 15:57:19.516,2025-11-30 12:57:19.516,18,0,0,46.960,-22.959737,-67.786899,-0.10,0.00,-3.00,1.00,1.40,89.10,0,1,0,97,90,-73264,14466,46960,2971.50,41,WP,1,0,0,0,0,0,0,1764518239515,4315,4319,4317,4320,4319,4317,18,,,,,,,0,0,0,-10.00,14.00,891.00,0.00,0.00,0.00,14,72.00,30.02,6.23,-1.00,0.00,-30.00,0,,,100,95,16,2,0,0,1,1,0,,,,,0.0,0.0,0.0,0.0,0.0,0.0,0
-22.959733,-67.786895,7.50,0.00,3.00,0.62,7.50,7.50,3.50,0.66,3734,2025-11-30 15:57:19.526,2025-11-30 12:57:19.527,18,0,0,46.960,-22.959737,-67.786899,-0.10,0.00,-3.00,1.60,0.90,89.10,0,1,0,97,90,-73264,14466,46960,2971.50,41,WP,1,0,0,0,0,0,0,1764518239526,4315,4319,4317,4320,4319,4317,18,,,,,,,0,0,0,-16.00,9.00,891.00,0.00,0.00,0.00,14,75.00,30.02,6.17,-1.00,0.00,-30.00,0,,,100,95,16,2,0,0,1,1,0,,,,,0.0,0.0,0.0,0.0,0.0,0.0,0
-22.959733,-67.786895,8.10,0.00,3.10,0.61,8.10,8.10,3.50,0.66,3927,2025-11-30 15:57:19.719,2025-11-30 12:57:19.719,18,0,0,46.960,-22.959737,-67.786899,-0.10,0.00,-3.10,1.80,-0.50,89.20,0,1,0,97,90,-73264,14466,46960,2971.50,41,WP,1,0,0,0,0,0,0,1764518239719,4315,4319,4317,4320,4319,4317,18,,,,,,,0,0,0,-18.00,-5.00,892.00,0.00,0.00,0.00,14,81.00,31.02,6.10,-1.00,0.00,-31.00,0,,,100,95,16,2,0,0,1,1,0,,,,,0.0,0.0,0.0,0.0,0.0,0.0,0
-22.959733,-67.786895,8.40,0.00,3.10,0.61,8.40,8.40,3.50,0.66,4039,2025-11-30 15:57:19.831,2025-11-30 12:57:19.832,18,0,0,46.960,-22.959737,-67.786899,0.00,0.10,-3.10,1.90,-0.70,89.10,0,1,0,97,90,-73264,14466,46960,2971.50,41,WP,1,0,0,0,0,0,0,1764518239831,4315,4319,4317,4320,4319,4317,18,,,,,,,0,0,0,-19.00,-7.00,891.00,0.00,0.00,0.00,14,84.00,31.02,6.12,0.00,1.00,-31.00,0,,,100,95,16,2,0,0,1,1,0,,,,,0.0,0.0,0.0,0.0,0.0,0.0,0
-22.959733,-67.786895,8.70,0.00,3.10,0.62,8.70,8.70,3.50,0.66,4128,2025-11-30 15:57:19.921,2025-11-30 12:57:19.921,18,0,0,46.960,-22.959737,-67.786899,0.00,0.10,-3.10,1.70,-0.40,89.10,0,1,0,97,90,-73264,14466,46960,2971.50,41,WP,1,0,0,0,0,0,0,1764518239920,4315,4319,4317,4320,4319,4317,18,,,,,,,0,0,0,-17.00,-4.00,891.00,0.00,0.00,0.00,14,87.00,31.02,6.22,0.00,1.00,-31.00,0,,,100,93,16,2,0,0,1,1,0,,,,,0.0,0.0,0.0,0.0,0.0,0.0,0
-22.959733,-67.786895,9.00,0.00,3.10,0.63,9.00,9.00,3.50,0.66,4236,2025-11-30 15:57:20.028,2025-11-30 12:57:20.029,18,0,0,46.960,-22.959737,-67.786899,0.00,0.10,-3.10,1.50,0.30,89.20,0,1,0,97,90,-73264,14466,46960,2971.50,41,WP,1,0,0,0,0,0,0,1764518240028,4315,4319,4317,4320,4319,4317,18,,,,,,,0,0,0,-15.00,3.00,892.00,0.00,0.00,0.00,14,90.00,31.02,6.32,0.00,1.00,-31.00,0,,,100,93,16,2,0,0,1,1,0,,,,,0.0,0.0,0.0,0.0,0.0,0.0,0
-22.959733,-67.786895,9.40,0.00,3.10,0.65,9.40,9.40,3.50,0.66,4337,2025-11-30 15:57:20.129,2025-11-30 12:57:20.129,18,0,0,46.960,-22.959737,-67.786899,0.00,0.10,-3.10,1.70,1.20,89.10,0,1,0,97,90,-73264,14466,46960,2971.50,41,WP,1,0,0,0,0,0,0,1764518240129,4315,4319,4317,4320,4319,4317,18,,,,,,,0,0,0,-17.00,12.00,891.00,0.00,0.00,0.00,14,94.00,31.02,6.52,0.00,1.00,-31.00,0,,,100,93,16,2,0,0,1,1,0,,,,,0.0,0.0,0.0,0.0,0.0,0.0,0
-22.959732,-67.786895,10.00,0.00,3.10,0.69,10.00,10.00,3.50,0.69,4533,2025-11-30 15:57:20.326,2025-11-30 12:57:20.326,18,0,0,46.960,-22.959737,-67.786899,0.00,0.10,-3.10,2.40,2.20,89.20,0,1,0,97,90,-73264,14466,46960,2971.50,41,WP,1,0,0,0,0,0,0,1764518240325,4315,4319,4317,4320,4319,4317,18,,,,,,,0,0,0,-24.00,22.00,892.00,0.00,0.00,0.00,14,100.00,31.02,6.95,0.00,1.00,-31.00,0,,,100,93,16,2,0,0,1,1,0,,,,,0.0,0.0,0.0,0.0,0.0,0.0,0
-22.959732,-67.786894,10.30,0.00,3.10,0.72,10.30,10.30,3.50,0.72,4638,2025-11-30 15:57:20.430,2025-11-30 12:57:20.430,18,0,0,46.960,-22.959737,-67.786899,0.00,0.10,-3.10,2.80,2.20,89.20,0,1,0,97,90,-73264,14466,46960,2971.50,41,WP,1,0,0,0,0,0,0,1764518240430,4315,4319,4317,4320,4319,4317,18,,,,,,,0,0,0,-28.00,22.00,892.00,0.00,0.00,0.00,14,103.00,31.02,7.15,0.00,1.00,-31.00,0,,,100,93,16,2,0,0,1,1,0,,,,,0.0,0.0,0.0,0.0,0.0,0.0,0
-22.959732,-67.786894,10.70,0.00,3.10,0.74,10.70,10.70,3.50,0.74,4731,2025-11-30 15:57:20.523,2025-11-30 12:57:20.523,18,0,0,46.960,-22.959737,-67.786899,0.00,0.10,-3.10,3.00,2.00,89.10,0,1,0,97,90,-73264,14466,46960,2971.50,41,WP,1,0,0,0,0,0,0,1764518240523,4315,4319,4317,4320,4319,4317,18,,,,,,,0,0,0,-30.00,20.00,891.00,0.00,0.00,0.00,14,107.00,31.02,7.41,0.00,1.00,-31.00,0,,,100,94,16,2,0,0,1,1,0,,,,,0.0,0.0,0.0,0.0,0.0,0.0,0
-22.959732,-67.786894,11.30,0.00,3.10,0.78,11.30,11.30,3.50,0.78,4932,2025-11-30 15:57:20.725,2025-11-30 12:57:20.725,18,0,0,46.960,-22.959737,-67.786899,0.00,0.10,-3.10,3.40,1.70,89.20,0,1,0,97,90,-73264,14466,46960,2971.50,41,WP,1,0,0,0,0,0,0,1764518240724,4315,4319,4317,4320,4319,4317,18,,,,,,,0,0,0,-34.00,17.00,892.00,0.00,0.00,-1.00,14,113.00,31.02,7.83,0.00,1.00,-31.00,0,,,100,94,16,2,0,0,1,1,0,,,,,0.0,0.0,0.0,0.0,0.0,0.0,0
-22.959732,-67.786894,11.60,0.00,3.10,0.80,11.60,11.60,3.50,0.80,5037,2025-11-30 15:57:20.829,2025-11-30 12:57:20.830,18,0,0,46.960,-22.959737,-67.786899,0.00,0.10,-3.10,3.70,1.50,89.20,0,1,0,97,90,-73264,14466,46960,2971.50,41,WP,1,0,0,0,0,0,0,1764518240829,4315,4319,4317,4320,4319,4317,18,,,,,,,0,0,0,-37.00,15.00,892.00,0.00,0.00,-1.00,14,116.00,31.02,8.02,0.00,1.00,-31.00,0,,,100,94,16,2,0,0,1,1,0,,,,,0.0,0.0,0.0,0.0,0.0,0.0,0
-22.959731,-67.786894,11.90,0.00,3.10,0.82,11.90,11.90,3.50,0.82,5133,2025-11-30 15:57:20.926,2025-11-30 12:57:20.926,18,0,0,46.960,-22.959737,-67.786899,0.00,0.10,-3.10,4.20,1.80,89.30,0,1,0,97,90,-73264,14466,46960,2971.50,41,WP,1,0,0,0,0,0,0,1764518240925,4315,4319,4317,4320,4319,4317,18,,,,,,,0,0,0,-42.00,18.00,893.00,0.00,0.00,-1.00,14,119.00,31.02,8.18,0.00,1.00,-31.00,0,,,100,94,16,2,0,0,1,1,0,,,,,0.0,0.0,0.0,0.0,0.0,0.0,0
-22.959731,-67.786894,12.60,0.00,3.10,0.84,12.60,12.60,3.50,0.84,5336,2025-11-30 15:57:21.129,2025-11-30 12:57:21.129,18,0,0,46.960,-22.959737,-67.786899,0.00,0.00,-3.10,4.20,2.10,89.20,0,1,0,97,90,-73264,14466,46960,2971.50,41,WP,1,0,0,0,0,0,0,1764518241128,4315,4319,4317,4320,4319,4317,18,,,,,,,0,0,0,-42.00,21.00,892.00,0.00,0.00,-1.00,14,126.00,31.00,8.41,0.00,0.00,-31.00,0,,,100,94,16,2,0,0,1,1,0,,,,,0.0,0.0,0.0,0.0,0.0,0.0,0
-22.959731,-67.786894,12.90,0.00,3.00,0.85,12.90,12.90,3.50,0.85,5445,2025-11-30 15:57:21.238,2025-11-30 12:57:21.238,18,0,0,46.960,-22.959737,-67.786899,0.00,0.00,-3.00,4.00,2.30,89.20,0,1,0,97,90,-73264,14466,46960,2971.50,41,WP,1,0,0,0,0,0,0,1764518241237,4315,4319,4317,4320,4319,4317,18,,,,,,,0,0,0,-40.00,23.00,892.00,0.00,0.00,-1.00,14,129.00,30.00,8.50,0.00,0.00,-30.00,0,,,100,94,16,2,0,0,1,1,0,,,,,0.0,0.0,0.0,0.0,0.0,0.0,0
-22.959731,-67.786894,13.10,0.00,3.00,0.86,13.10,13.10,3.50,0.86,5551,2025-11-30 15:57:21.343,2025-11-30 12:57:21.343,18,0,0,46.044,-22.959737,-67.786899,0.00,0.00,-3.00,3.80,2.70,89.10,0,1,0,97,90,-62414,14466,46044,2971.50,41,WP,1,0,0,0,0,0,0,1764518241343,4315,4319,4317,4320,4319,4317,18,,,,,,,0,0,0,-38.00,27.00,891.00,0.00,0.00,0.00,14,131.00,30.00,8.56,0.00,0.00,-30.00,0,,,100,94,16,2,0,0,1,1,0,,,,,0.0,0.0,0.0,0.0,0.0,0.0,0
-22.959731,-67.786894,13.40,0.00,3.00,0.86,13.40,13.40,3.50,0.86,5645,2025-11-30 15:57:21.437,2025-11-30 12:57:21.437,18,0,0,46.044,-22.959737,-67.786899,0.00,0.00,-3.00,3.50,3.10,89.20,0,1,0,97,90,-62414,14466,46044,2971.50,41,WP,1,0,0,0,0,0,0,1764518241437,4315,4319,4317,4320,4319,4317,18,,,,,,,0,0,0,-35.00,31.00,892.00,0.00,0.00,0.00,14,134.00,30.00,8.57,0.00,0.00,-30.00,0,,,100,94,16,2,0,0,1,1,0,,,,,0.0,0.0,0.0,0.0,0.0,0.0,0
-22.959731,-67.786894,13.80,0.00,3.00,0.85,13.80,13.80,3.50,0.86,5751,2025-11-30 15:57:21.543,2025-11-30 12:57:21.543,18,0,0,46.044,-22.959737,-67.786899,0.00,0.00,-3.00,3.10,3.20,89.20,0,1,0,97,90,-62414,14466,46044,2971.50,41,WP,1,0,0,0,0,0,0,1764518241543,4315,4319,4317,4320,4319,4317,18,,,,,,,0,0,0,-31.00,32.00,892.00,-1.00,0.00,0.00,14,138.00,30.00,8.53,0.00,0.00,-30.00,0,,,100,95,16,2,0,0,1,1,0,,,,,0.0,0.0,0.0,0.0,0.0,0.0,0
-22.959731,-67.786894,14.40,0.00,3.00,0.84,14.40,14.40,3.50,0.86,5942,2025-11-30 15:57:21.734,2025-11-30 12:57:21.735,18,0,0,46.044,-22.959737,-67.786899,0.00,0.00,-3.00,2.70,3.00,89.10,0,1,0,97,90,-62414,14466,46044,2971.50,41,WP,1,0,0,0,0,0,0,1764518241734,4315,4319,4317,4320,4319,4317,18,,,,,,,0,0,0,-27.00,30.00,891.00,0.00,0.00,0.00,14,144.00,30.00,8.39,0.00,0.00,-30.00,0,,,100,95,16,2,0,0,1,1,0,,,,,0.0,0.0,0.0,0.0,0.0,0.0,0
-22.959731,-67.786894,14.70,0.00,3.00,0.83,14.70,14.70,3.50,0.86,6052,2025-11-30 15:57:21.845,2025-11-30 12:57:21.845,18,0,0,46.044,-22.959737,-67.786899,0.00,0.00,-3.00,2.70,2.70,89.20,0,1,0,97,90,-62414,14466,46044,2971.50,41,WP,1,0,0,0,0,0,0,1764518241844,4315,4319,4317,4320,4319,4317,18,,,,,,,0,0,0,-27.00,27.00,892.00,0.00,0.00,0.00,14,147.00,30.00,8.30,0.00,0.00,-30.00,0,,,100,95,16,2,0,0,1,1,0,,,,,0.0,0.0,0.0,0.0,0.0,0.0,0
-22.959731,-67.786894,15.00,0.00,3.10,0.82,15.00,15.00,3.50,0.86,6144,2025-11-30 15:57:21.937,2025-11-30 12:57:21.937,18,0,0,46.044,-22.959737,-67.786899,0.00,0.00,-3.10,2.80,2.40,89.20,0,1,0,97,90,-62414,14466,46044,2971.50,41,WP,1,0,0,0,0,0,0,1764518241936,4315,4319,4317,4320,4319,4317,18,,,,,,,0,0,0,-28.00,24.00,892.00,0.00,0.00,0.00,14,150.00,31.00,8.20,0.00,0.00,-31.00,0,,,100,95,16,2,0,0,1,1,0,,,,,0.0,0.0,0.0,0.0,0.0,0.0,0
-22.959731,-67.786895,15.40,0.00,3.10,0.81,15.40,15.40,3.50,0.86,6245,2025-11-30 15:57:22.037,2025-11-30 12:57:22.037,18,0,0,46.044,-22.959737,-67.786899,0.00,0.00,-3.10,2.90,1.90,89.20,0,1,0,97,90,-62414,14466,46044,2971.50,41,WP,1,0,0,0,0,0,0,1764518242037,4315,4319,4317,4320,4319,4317,18,,,,,,,0,0,0,-29.00,19.00,892.00,0.00,0.00,-1.00,14,154.00,31.00,8.08,0.00,0.00,-31.00,0,,,100,95,16,2,0,0,1,1,0,,,,,0.0,0.0,0.0,0.0,0.0,0.0,0
-22.959731,-67.786895,15.70,0.00,3.00,0.80,15.70,15.70,3.50,0.86,6351,2025-11-30 15:57:22.143,2025-11-30 12:57:22.143,18,0,0,46.044,-22.959737,-67.786899,0.00,0.00,-3.00,3.20,1.60,89.20,0,1,0,97,90,-62414,14466,46044,2971.50,41,WP,1,0,0,0,0,0,0,1764518242143,4315,4319,4317,4320,4319,4317,18,,,,,,,0,0,0,-32.00,16.00,892.00,0.00,0.00,-1.00,14,157.00,30.00,7.98,0.00,0.00,-30.00,0,,,100,96,16,2,0,0,1,1,0,,,,,0.0,0.0,0.0,0.0,0.0,0.0,0
-22.959731,-67.786895,16.00,0.00,3.00,0.79,16.00,16.00,3.50,0.86,6454,2025-11-30 15:57:22.246,2025-11-30 12:57:22.246,18,0,0,46.044,-22.959737,-67.786899,0.00,0.00,-3.00,3.60,1.50,89.20,0,1,0,97,90,-62414,14466,46044,2971.50,41,WP,1,0,0,0,0,0,0,1764518242246,4315,4319,4317,4320,4319,4317,18,,,,,,,0,0,0,-36.00,15.00,892.00,0.00,0.00,-1.00,14,160.00,30.00,7.87,0.00,0.00,-30.00,0,,,100,96,16,2,0,0,1,1,0,,,,,0.0,0.0,0.0,0.0,0.0,0.0,0
-22.959731,-67.786895,16.30,0.00,2.90,0.78,16.30,16.30,3.50,0.86,6545,2025-11-30 15:57:22.337,2025-11-30 12:57:22.337,18,0,0,46.044,-22.959737,-67.786899,0.00,0.00,-2.90,4.50,1.80,89.20,0,1,0,97,90,-62414,14466,46044,2971.50,41,WP,1,0,0,0,0,0,0,1764518242337,4315,4319,4317,4320,4319,4317,18,,,,,,,0,0,0,-45.00,18.00,892.00,0.00,0.00,-1.00,14,163.00,29.00,7.79,0.00,0.00,-29.00,0,,,100,96,16,2,0,0,1,1,0,,,,,0.0,0.0,0.0,0.0,0.0,0.0,0
-22.959731,-67.786895,16.60,0.00,2.70,0.77,16.60,16.60,3.50,0.86,6651,2025-11-30 15:57:22.444,2025-11-30 12:57:22.444,18,0,0,46.044,-22.959737,-67.786899,0.00,0.00,-2.70,5.10,2.10,89.30,0,1,0,97,90,-62414,14466,46044,2971.50,41,WP,1,0,0,0,0,0,0,1764518242443,4315,4319,4317,4320,4319,4317,18,,,,,,,0,0,0,-51.00,21.00,893.00,0.00,0.00,-1.00,14,166.00,27.00,7.70,0.00,0.00,-27.00,0,,,100,96,16,2,0,0,1,1,0,,,,,0.0,0.0,0.0,0.0,0.0,0.0,0
-22.959731,-67.786895,16.90,0.00,2.50,0.76,16.90,16.90,3.50,0.86,6754,2025-11-30 15:57:22.547,2025-11-30 12:57:22.547,18,0,0,46.044,-22.959737,-67.786899,0.00,0.00,-2.50,5.60,2.80,89.30,0,1,0,97,90,-62414,14466,46044,2971.50,41,WP,1,0,0,0,0,0,0,1764518242546,4315,4319,4317,4320,4319,4317,18,,,,,,,0,0,0,-56.00,28.00,893.00,0.00,0.00,-1.00,14,169.00,25.00,7.63,0.00,0.00,-25.00,0,,,100,96,16,2,0,0,1,1,0,,,,,0.0,0.0,0.0,0.0,0.0,0.0,0
-22.959731,-67.786895,17.30,0.00,2.00,0.75,17.30,17.30,3.50,0.86,6950,2025-11-30 15:57:22.743,2025-11-30 12:57:22.743,18,0,0,46.044,-22.959737,-67.786899,0.00,-0.10,-2.00,5.80,3.60,89.30,0,1,0,97,90,-62414,14466,46044,2971.50,41,WP,1,0,0,0,0,0,0,1764518242742,4315,4319,4317,4320,4319,4317,18,,,,,,,0,0,0,-58.00,36.00,893.00,0.00,0.00,-2.00,14,173.00,20.02,7.47,0.00,-1.00,-20.00,0,,,100,98,16,2,0,0,1,1,0,,,,,0.0,0.0,0.0,0.0,0.0,0.0,0
-22.959731,-67.786896,17.50,0.00,1.80,0.73,17.50,17.50,3.50,0.86,7054,2025-11-30 15:57:22.847,2025-11-30 12:57:22.847,18,0,0,46.044,-22.959737,-67.786899,0.00,-0.10,-1.80,5.50,3.70,89.20,0,1,0,97,90,-62414,14466,46044,2971.50,41,WP,1,0,0,0,0,0,0,1764518242846,4315,4319,4317,4320,4319,4317,18,,,,,,,0,0,0,-55.00,37.00,892.00,0.00,0.00,-1.00,14,175.00,18.03,7.34,0.00,-1.00,-18.00,0,,,100,98,16,2,0,0,1,1,0,,,,,0.0,0.0,0.0,0.0,0.0,0.0,0
-22.959731,-67.786896,17.60,0.00,1.71,0.72,17.60,17.60,3.50,0.86,7155,2025-11-30 15:57:22.947,2025-11-30 12:57:22.947,18,0,0,46.044,-22.959737,-67.786899,0.00,-0.20,-1.70,5.20,3.50,89.20,0,1,0,97,90,-62414,14466,46044,2971.50,41,WP,1,0,0,0,0,0,0,1764518242947,4315,4319,4317,4320,4319,4317,18,,,,,,,0,0,0,-52.00,35.00,892.00,0.00,0.00,-1.00,14,176.00,17.12,7.20,0.00,-2.00,-17.00,0,,,100,98,16,2,0,0,1,1,0,,,,,0.0,0.0,0.0,0.0,0.0,0.0,0
-22.959731,-67.786896,17.80,0.00,1.52,0.70,17.80,17.80,3.50,0.86,7255,2025-11-30 15:57:23.047,2025-11-30 12:57:23.047,18,0,0,46.044,-22.959737,-67.786899,-0.10,-0.20,-1.50,4.70,3.00,89.20,0,1,0,97,90,-62414,14466,46044,2971.50,41,WP,1,0,0,0,0,0,0,1764518243047,4315,4319,4317,4320,4319,4317,18,,,,,,,0,0,0,-47.00,30.00,892.00,-1.00,0.00,0.00,14,178.00,15.17,7.00,-1.00,-2.00,-15.00,0,,,100,98,16,2,0,0,1,1,0,,,,,0.0,0.0,0.0,0.0,0.0,0.0,0
-22.959731,-67.786896,18.00,0.00,1.42,0.68,18.00,18.00,3.50,0.86,7350,2025-11-30 15:57:23.142,2025-11-30 12:57:23.142,18,0,0,46.044,-22.959737,-67.786899,-0.10,-0.20,-1.40,3.90,2.60,89.10,0,1,0,97,90,-62414,14466,46044,2971.50,41,WP,1,0,0,0,0,0,0,1764518243142,4315,4319,4317,4320,4319,4317,18,,,,,,,0,0,0,-39.00,26.00,891.00,-1.00,0.00,0.00,14,180.00,14.18,6.81,-1.00,-2.00,-14.00,0,,,100,99,16,2,0,0,1,1,0,,,,,0.0,0.0,0.0,0.0,0.0,0.0,0
-22.959731,-67.786897,18.10,0.00,1.32,0.66,18.10,18.10,3.50,0.86,7453,2025-11-30 15:57:23.246,2025-11-30 12:57:23.246,18,0,0,46.044,-22.959737,-67.786899,-0.10,-0.20,-1.30,3.20,2.10,89.10,0,1,0,97,90,-62414,14466,46044,2971.50,41,WP,1,0,0,0,0,0,0,1764518243245,4315,4319,4317,4320,4319,4317,18,,,,,,,0,0,0,-32.00,21.00,891.00,-1.00,0.00,0.00,14,181.00,13.19,6.60,-1.00,-2.00,-13.00,0,,,100,99,16,2,0,0,1,1,0,,,,,0.0,0.0,0.0,0.0,0.0,0.0,0
-22.959731,-67.786897,18.30,0.00,1.22,0.65,18.30,18.30,3.50,0.86,7555,2025-11-30 15:57:23.348,2025-11-30 12:57:23.348,18,0,0,45.802,-22.959737,-67.786899,0.00,-0.20,-1.20,2.60,2.30,89.00,0,1,0,97,90,-61197,14417,45802,2981.50,41,WP,1,0,0,0,0,0,0,1764518243347,4315,4319,4317,4320,4319,4317,18,,,,,,,0,0,0,-26.00,23.00,890.00,-1.00,0.00,0.00,14,183.00,12.17,6.46,0.00,-2.00,-12.00,0,,,100,99,16,2,0,0,1,1,0,,,,,0.0,0.0,0.0,0.0,0.0,0.0,0
-22.959732,-67.786897,18.40,0.00,1.22,0.63,18.40,18.40,3.50,0.86,7658,2025-11-30 15:57:23.450,2025-11-30 12:57:23.451,18,0,0,45.802,-22.959737,-67.786899,0.00,-0.20,-1.20,2.20,2.60,89.00,0,1,0,97,90,-61197,14417,45802,2981.50,41,WP,1,0,0,0,0,0,0,1764518243450,4315,4319,4317,4320,4319,4317,18,,,,,,,0,0,0,-22.00,26.00,890.00,-1.00,0.00,0.00,14,184.00,12.17,6.32,0.00,-2.00,-12.00,0,,,100,99,16,2,0,0,1,1,0,,,,,0.0,0.0,0.0,0.0,0.0,0.0,0
-22.959731,-67.786898,18.60,0.00,1.12,0.63,18.60,18.60,3.50,0.86,7757,2025-11-30 15:57:23.550,2025-11-30 12:57:23.550,18,0,0,45.802,-22.959737,-67.786899,-0.10,-0.20,-1.10,1.90,2.80,89.00,0,1,0,97,90,-61197,14417,45802,2981.50,41,WP,1,0,0,0,0,0,0,1764518243549,4315,4319,4317,4320,4319,4317,18,,,,,,,0,0,0,-19.00,28.00,890.00,-1.00,0.00,0.00,14,186.00,11.22,6.26,-1.00,-2.00,-11.00,0,,,100,99,16,2,0,0,1,1,0,,,,,0.0,0.0,0.0,0.0,0.0,0.0,0
-22.959731,-67.786898,18.80,0.00,1.10,0.62,18.80,18.80,3.50,0.86,7957,2025-11-30 15:57:23.749,2025-11-30 12:57:23.750,18,0,0,45.802,-22.959737,-67.786899,0.00,-0.10,-1.10,2.30,2.60,89.00,0,1,0,97,90,-61197,14417,45802,2981.50,41,WP,1,0,0,0,0,0,0,1764518243749,4315,4319,4317,4320,4319,4317,18,,,,,,,0,0,0,-23.00,26.00,890.00,0.00,0.00,1.00,14,188.00,11.05,6.17,0.00,-1.00,-11.00,0,,,100,99,16,2,0,0,1,1,0,,,,,0.0,0.0,0.0,0.0,0.0,0.0,0
-22.959732,-67.786899,19.00,0.00,1.10,0.61,19.00,19.00,3.50,0.86,8060,2025-11-30 15:57:23.852,2025-11-30 12:57:23.852,18,0,0,45.802,-22.959737,-67.786899,0.00,-0.10,-1.10,2.30,2.60,89.10,0,1,0,97,90,-61197,14417,45802,2981.50,41,WP,1,0,0,0,0,0,0,1764518243852,4315,4319,4317,4320,4319,4317,18,,,,,,,0,0,0,-23.00,26.00,891.00,-1.00,0.00,0.00,14,190.00,11.05,6.14,0.00,-1.00,-11.00,0,,,100,99,16,2,0,0,1,1,0,,,,,0.0,0.0,0.0,0.0,0.0,0.0,0
-22.959731,-67.786899,19.10,0.00,1.10,0.62,19.10,19.10,3.50,0.86,8159,2025-11-30 15:57:23.952,2025-11-30 12:57:23.952,18,0,0,45.802,-22.959737,-67.786899,0.00,-0.10,-1.10,2.10,2.60,89.10,0,1,0,97,90,-61197,14417,45802,2981.50,41,WP,1,0,0,0,0,0,0,1764518243951,4315,4319,4317,4320,4319,4317,18,,,,,,,0,0,0,-21.00,26.00,891.00,-1.00,0.00,0.00,14,191.00,11.05,6.20,0.00,-1.00,-11.00,0,,,100,99,16,2,0,0,1,1,0,,,,,0.0,0.0,0.0,0.0,0.0,0.0,0
-22.959731,-67.786899,19.30,0.00,1.10,0.62,19.30,19.30,3.50,0.86,8257,2025-11-30 15:57:24.050,2025-11-30 12:57:24.050,18,0,0,45.802,-22.959737,-67.786899,0.00,0.00,-1.10,1.70,2.70,89.10,0,1,0,97,90,-61197,14417,45802,2981.50,41,WP,1,0,0,0,0,0,0,1764518244049,4315,4319,4317,4320,4319,4317,18,,,,,,,0,0,0,-17.00,27.00,891.00,-1.00,0.00,0.00,14,193.00,11.00,6.20,0.00,0.00,-11.00,0,,,100,99,16,2,0,0,1,1,0,,,,,0.0,0.0,0.0,0.0,0.0,0.0,0
-22.959731,-67.786899,19.40,0.00,1.10,0.62,19.40,19.40,3.50,0.86,8367,2025-11-30 15:57:24.159,2025-11-30 12:57:24.159,18,0,0,45.802,-22.959737,-67.786899,0.00,0.00,-1.10,1.30,2.90,89.10,0,1,0,97,90,-61197,14417,45802,2981.50,41,WP,1,0,0,0,0,0,0,1764518244159,4315,4319,4317,4320,4319,4317,18,,,,,,,0,0,0,-13.00,29.00,891.00,-1.00,0.00,0.00,14,194.00,11.00,6.25,0.00,0.00,-11.00,0,,,100,99,16,2,0,0,1,1,0,,,,,0.0,0.0,0.0,0.0,0.0,0.0,0
-22.959731,-67.786899,19.60,0.00,1.10,0.62,19.60,19.60,3.50,0.86,8466,2025-11-30 15:57:24.259,2025-11-30 12:57:24.259,18,0,0,45.802,-22.959737,-67.786899,0.00,0.00,-1.10,1.00,3.30,89.10,0,1,0,97,90,-61197,14417,45802,2981.50,41,WP,1,0,0,0,0,0,0,1764518244258,4315,4319,4317,4320,4319,4317,18,,,,,,,0,0,0,-10.00,33.00,891.00,-1.00,0.00,0.00,14,196.00,11.00,6.23,0.00,0.00,-11.00,0,,,100,97,16,2,0,0,1,1,0,,,,,0.0,0.0,0.0,0.0,0.0,0.0,0
-22.959731,-67.786899,19.70,0.00,1.00,0.62,19.70,19.70,3.50,0.86,8570,2025-11-30 15:57:24.363,2025-11-30 12:57:24.363,18,0,0,45.802,-22.959737,-67.786899,0.00,0.00,-1.00,1.40,3.00,89.20,0,1,0,97,90,-61197,14417,45802,2981.50,41,WP,1,0,0,0,0,0,0,1764518244362,4315,4319,4317,4320,4319,4317,18,,,,,,,0,0,0,-14.00,30.00,892.00,-1.00,0.00,0.00,14,197.00,10.00,6.23,0.00,0.00,-10.00,0,,,100,97,16,2,0,0,1,1,0,,,,,0.0,0.0,0.0,0.0,0.0,0.0,0
-22.959731,-67.786899,19.80,0.00,0.90,0.62,19.80,19.80,3.50,0.86,8671,2025-11-30 15:57:24.463,2025-11-30 12:57:24.463,18,0,0,45.802,-22.959737,-67.786899,0.00,0.00,-0.90,2.20,2.70,90.30,0,1,0,97,90,-61197,14417,45802,2981.50,41,WP,1,0,0,0,0,0,0,1764518244463,3822,3816,3833,3824,3808,3806,18,,,,,,,0,0,0,-22.00,27.00,903.00,-1.00,0.00,-1.00,14,198.00,9.00,6.21,0.00,0.00,-9.00,0,,,100,97,16,2,0,0,1,1,0,,,,,0.0,0.0,0.0,0.0,0.0,0.0,0
-22.959731,-67.786899,19.90,0.00,0.70,0.62,19.90,19.90,3.50,0.86,8761,2025-11-30 15:57:24.554,2025-11-30 12:57:24.554,18,0,0,45.802,-22.959737,-67.786899,0.00,0.00,-0.70,3.10,2.60,95.00,0,1,0,97,90,-61197,14417,45802,2981.50,41,WP,1,0,0,0,0,0,0,1764518244553,3822,3816,3833,3824,3808,3806,18,,,,,,,0,0,0,-31.00,26.00,950.00,0.00,0.00,-18.00,14,199.00,7.00,6.25,0.00,0.00,-7.00,0,,,100,97,16,2,0,0,1,1,0,,,,,0.0,0.0,0.0,0.0,0.0,0.0,0
-22.959731,-67.786899,20.00,0.00,0.50,0.62,20.00,20.00,3.50,0.86,8868,2025-11-30 15:57:24.661,2025-11-30 12:57:24.661,18,0,0,45.802,-22.959737,-67.786899,0.00,0.00,-0.50,3.60,2.40,102.40,0,1,0,97,90,-61197,14417,45802,2981.50,41,WP,1,0,0,0,0,0,0,1764518244660,3822,3816,3833,3824,3808,3806,18,,,,,,,0,0,0,-36.00,24.00,1024.00,0.00,0.00,-83.00,14,200.00,5.00,6.22,0.00,0.00,-5.00,0,,,100,97,16,2,0,0,1,1,0,,,,,0.0,0.0,0.0,0.0,0.0,0.0,0
-22.959731,-67.786899,20.00,0.00,0.30,0.63,20.00,20.00,3.50,0.86,8971,2025-11-30 15:57:24.763,2025-11-30 12:57:24.763,18,0,0,45.802,-22.959737,-67.786899,0.00,0.00,-0.30,3.70,2.80,111.60,0,1,0,97,90,-61197,14417,45802,2981.50,41,WP,1,0,0,0,0,0,0,1764518244763,3822,3816,3833,3824,3808,3806,18,,,,,,,0,0,0,-37.00,28.00,1116.00,0.00,0.00,-145.00,14,200.00,3.00,6.25,0.00,0.00,-3.00,0,,,100,94,16,2,0,0,1,1,0,,,,,0.0,0.0,0.0,0.0,0.0,0.0,0
-22.959731,-67.786899,20.10,0.00,0.10,0.63,20.10,20.10,3.50,0.86,9064,2025-11-30 15:57:24.856,2025-11-30 12:57:24.856,18,0,0,45.802,-22.959737,-67.786899,0.00,0.00,-0.10,3.50,2.80,121.00,0,1,0,97,90,-61197,14417,45802,2981.50,41,WP,1,0,0,0,0,0,0,1764518244856,3822,3816,3833,3824,3808,3806,18,,,,,,,0,0,0,-35.00,28.00,1210.00,0.00,0.00,-250.00,14,201.00,1.00,6.26,0.00,0.00,-1.00,0,,,100,94,16,2,0,0,1,1,0,,,,,0.0,0.0,0.0,0.0,0.0,0.0,0
-22.959731,-67.786899,20.10,0.00,0.00,0.64,20.10,20.10,3.50,0.86,9169,2025-11-30 15:57:24.962,2025-11-30 12:57:24.962,18,0,0,45.802,-22.959737,-67.786899,0.00,0.00,0.00,3.00,2.60,130.30,0,1,0,97,90,-61197,14417,45802,2981.50,41,WP,1,0,0,0,0,0,0,1764518244961,3822,3816,3833,3824,3808,3806,18,,,,,,,0,0,0,-30.00,26.00,1303.00,-1.00,0.00,-303.00,14,201.00,0.00,6.44,0.00,0.00,0.00,0,,,100,94,16,2,0,0,1,1,0,,,,,0.0,0.0,0.0,0.0,0.0,0.0,0
-22.959731,-67.786899,20.10,0.00,0.00,0.66,20.10,20.10,3.50,0.86,9268,2025-11-30 15:57:25.060,2025-11-30 12:57:25.061,18,0,0,45.802,-22.959737,-67.786899,0.00,0.00,0.00,2.70,2.20,139.70,0,1,0,97,90,-61197,14417,45802,2981.50,41,WP,1,0,0,0,0,0,0,1764518245060,3822,3816,3833,3824,3808,3806,18,,,,,,,0,0,0,-27.00,22.00,1397.00,-1.00,0.00,-385.00,14,201.00,0.00,6.62,0.00,0.00,0.00,0,,,100,94,16,2,0,0,1,1,0,,,,,0.0,0.0,0.0,0.0,0.0,0.0,0
-22.959731,-67.786899,20.00,0.00,0.14,0.69,20.10,20.10,3.50,0.86,9367,2025-11-30 15:57:25.160,2025-11-30 12:57:25.160,18,0,0,45.802,-22.959737,-67.786899,0.10,0.00,0.10,2.00,2.00,148.90,0,1,0,97,90,-61197,14417,45802,2981.50,41,WP,1,0,0,0,0,0,0,1764518245159,3822,3816,3833,3824,3808,3806,18,,,,,,,0,0,0,-20.00,20.00,1489.00,0.00,0.00,-415.00,14,200.00,1.41,6.91,1.00,0.00,1.00,0,,,100,94,16,2,0,0,1,1,0,,,,,0.0,0.0,0.0,0.0,0.0,0.0,0
-22.959731,-67.786899,20.00,0.00,0.14,0.72,20.10,20.10,3.50,0.86,9471,2025-11-30 15:57:25.263,2025-11-30 12:57:25.263,18,0,0,45.802,-22.959737,-67.786899,0.10,0.00,0.10,1.00,1.70,158.00,0,1,0,97,90,-61197,14417,45802,2981.50,41,WP,1,0,0,0,0,0,0,1764518245263,3822,3816,3833,3824,3808,3806,18,,,,,,,0,0,0,-10.00,17.00,1580.00,0.00,0.00,-471.00,14,200.00,1.41,7.17,1.00,0.00,1.00,0,,,100,94,16,2,0,0,1,1,0,,,,,0.0,0.0,0.0,0.0,0.0,0.0,0
-22.959730,-67.786899,20.00,0.00,0.22,0.75,20.10,20.10,3.50,0.86,9570,2025-11-30 15:57:25.362,2025-11-30 12:57:25.363,18,0,0,46.481,-22.959737,-67.786899,0.20,0.00,0.10,0.00,1.60,165.90,0,1,0,97,90,-48894,14417,46481,2981.50,41,WP,1,0,0,0,0,0,0,1764518245362,3822,3816,3833,3824,3808,3806,18,,,,,,,0,0,0,-0.00,16.00,1659.00,0.00,0.00,-479.00,14,200.00,2.24,7.53,2.00,0.00,1.00,0,,,100,97,16,2,0,0,1,1,0,,,,,0.0,0.0,0.0,0.0,0.0,0.0,0
-22.959730,-67.786899,20.00,0.00,0.20,0.79,20.10,20.10,3.50,0.86,9671,2025-11-30 15:57:25.464,2025-11-30 12:57:25.464,18,0,0,46.481,-22.959737,-67.786899,0.20,0.00,0.00,-0.30,2.10,171.80,0,1,0,97,90,-48894,14417,46481,2981.50,41,WP,1,0,0,0,0,0,0,1764518245463,3822,3816,3833,3824,3808,3806,18,,,,,,,0,0,0,3.00,21.00,1718.00,0.00,-1.00,-498.00,14,200.00,2.00,7.86,2.00,0.00,0.00,0,,,100,97,16,2,0,0,1,1,0,,,,,0.0,0.0,0.0,0.0,0.0,0.0,0
-22.959730,-67.786899,20.00,0.00,0.20,0.83,20.10,20.10,3.50,0.86,9766,2025-11-30 15:57:25.559,2025-11-30 12:57:25.559,18,0,0,46.481,-22.959737,-67.786899,0.20,0.00,0.00,0.00,3.10,175.90,0,1,0,97,90,-48894,14417,46481,2981.50,41,WP,1,0,0,0,0,0,0,1764518245558,3822,3816,3833,3824,3808,3806,18,,,,,,,0,0,0,-0.00,31.00,1759.00,0.00,-1.00,-476.00,14,200.00,2.00,8.26,2.00,0.00,0.00,0,,,100,97,16,2,0,0,1,1,0,,,,,0.0,0.0,0.0,0.0,0.0,0.0,0
-22.959728,-67.786899,20.10,0.00,0.40,0.96,20.10,20.10,3.50,0.96,10073,2025-11-30 15:57:25.866,2025-11-30 12:57:25.866,18,0,0,46.481,-22.959737,-67.786899,0.40,0.00,0.00,-0.50,4.00,-179.90,0,1,0,97,90,-48894,14417,46481,2981.50,41,WP,1,0,0,0,0,0,0,1764518245865,3822,3816,3833,3824,3808,3806,18,,,,,,,0,0,0,5.00,40.00,-1799.00,-1.00,0.00,-350.00,14,201.00,4.00,9.65,4.00,0.00,0.00,0,,,100,96,16,2,0,0,1,1,0,,,,,0.0,0.0,0.0,0.0,0.0,0.0,0
-22.959728,-67.786899,20.10,0.00,0.42,1.02,20.10,20.10,3.50,1.02,10176,2025-11-30 15:57:25.968,2025-11-30 12:57:25.968,18,0,0,46.481,-22.959737,-67.786899,0.40,-0.10,-0.10,-3.50,3.60,-179.60,0,1,0,97,90,-48894,14417,46481,2981.50,41,WP,1,0,0,0,0,0,0,1764518245968,3822,3816,3833,3824,3808,3806,18,,,,,,,0,0,0,35.00,36.00,-1796.00,0.00,0.00,3292.00,14,201.00,4.24,10.24,4.00,-1.00,-1.00,0,,,100,96,16,2,0,0,1,1,0,,,,,0.0,0.0,0.0,0.0,0.0,0.0,0
-22.959727,-67.786899,20.10,0.00,0.42,1.08,20.10,20.10,3.50,1.08,10273,2025-11-30 15:57:26.065,2025-11-30 12:57:26.065,18,0,0,46.481,-22.959737,-67.786899,0.40,-0.10,-0.10,-7.40,3.10,-179.60,0,1,0,97,90,-48894,14417,46481,2981.50,41,WP,1,0,0,0,0,0,0,1764518246065,3822,3816,3833,3824,3808,3806,18,,,,,,,0,0,0,74.00,31.00,-1796.00,-2.00,0.00,3326.00,14,201.00,4.24,10.79,4.00,-1.00,-1.00,0,,,100,96,16,2,0,0,1,1,0,,,,,0.0,0.0,0.0,0.0,0.0,0.0,0
-22.959727,-67.786899,20.10,0.00,0.32,1.13,20.10,20.10,3.50,1.13,10374,2025-11-30 15:57:26.167,2025-11-30 12:57:26.167,18,0,0,46.481,-22.959737,-67.786899,0.30,-0.10,0.00,-11.50,1.80,-179.50,0,1,0,97,90,-48894,14417,46481,2981.50,41,WP,1,0,0,0,0,0,0,1764518246166,3822,3816,3833,3824,3808,3806,18,,,,,,,0,0,0,115.00,18.00,-1795.00,-2.00,0.00,3351.00,14,201.00,3.16,11.27,3.00,-1.00,0.00,0,,,100,96,16,2,0,0,1,1,0,,,,,0.0,0.0,0.0,0.0,0.0,0.0,0
-22.959727,-67.786900,20.10,0.00,0.14,1.16,20.10,20.10,3.50,1.16,10477,2025-11-30 15:57:26.270,2025-11-30 12:57:26.270,18,0,0,46.481,-22.959737,-67.786899,0.10,-0.10,0.00,-15.30,0.70,-179.30,0,1,0,97,90,-48894,14417,46481,2981.50,41,WP,1,0,0,0,0,0,0,1764518246269,3822,3816,3833,3824,3808,3806,18,,,,,,,0,0,0,153.00,7.00,-1793.00,-1.00,0.00,3370.00,14,201.00,1.41,11.56,1.00,-1.00,0.00,0,,,100,96,16,2,0,0,1,1,0,,,,,0.0,0.0,0.0,0.0,0.0,0.0,0
-22.959727,-67.786900,20.10,0.00,0.10,1.16,20.10,20.10,3.50,1.16,10575,2025-11-30 15:57:26.367,2025-11-30 12:57:26.367,18,0,0,46.481,-22.959737,-67.786899,0.00,-0.10,0.00,-18.20,-0.20,-179.10,0,1,0,97,90,-48894,14417,46481,2981.50,41,WP,1,0,0,0,0,0,0,1764518246367,3822,3816,3833,3824,3808,3806,18,,,,,,,0,0,0,182.00,-2.00,-1791.00,-2.00,0.00,3383.00,14,201.00,1.00,11.64,0.00,-1.00,0.00,0,,,100,96,16,2,0,0,1,1,0,,,,,0.0,0.0,0.0,0.0,0.0,0.0,0
-22.959727,-67.786900,20.10,0.00,0.30,1.14,20.10,20.10,3.50,1.16,10684,2025-11-30 15:57:26.476,2025-11-30 12:57:26.476,18,0,0,46.481,-22.959737,-67.786899,-0.30,0.00,0.00,-19.80,-0.30,-179.10,0,1,0,97,90,-48894,14417,46481,2981.50,41,WP,1,0,0,0,0,0,0,1764518246476,3822,3816,3833,3824,3808,3806,18,,,,,,,0,0,0,198.00,-3.00,-1791.00,-2.00,-1.00,3395.00,14,201.00,3.00,11.44,-3.00,0.00,0.00,0,,,100,98,16,2,0,0,1,1,0,,,,,0.0,0.0,0.0,0.0,0.0,0.0,0
-22.959727,-67.786900,20.10,0.00,0.60,1.08,20.10,20.10,3.50,1.16,10786,2025-11-30 15:57:26.579,2025-11-30 12:57:26.579,18,0,0,46.481,-22.959737,-67.786899,-0.60,0.00,0.00,-20.20,0.20,-179.20,0,1,0,97,90,-48894,14417,46481,2981.50,41,WP,1,0,0,0,0,0,0,1764518246578,3822,3816,3833,3824,3808,3806,18,,,,,,,0,0,0,202.00,2.00,-1792.00,-2.00,0.00,3407.00,14,201.00,6.00,10.83,-6.00,0.00,0.00,0,,,100,98,16,2,0,0,1,1,0,,,,,0.0,0.0,0.0,0.0,0.0,0.0,0
-22.959729,-67.786900,20.10,0.00,1.20,0.85,20.10,20.10,3.50,1.16,10983,2025-11-30 15:57:26.776,2025-11-30 12:57:26.776,18,0,0,46.481,-22.959737,-67.786899,-1.20,0.00,0.00,-19.00,2.10,-179.50,0,1,0,97,90,-48894,14417,46481,2981.50,41,WP,1,0,0,0,0,0,0,1764518246775,3822,3816,3833,3824,3808,3806,18,,,,,,,0,0,0,190.00,21.00,-1795.00,-1.00,0.00,3428.00,14,201.00,12.00,8.54,-12.00,0.00,0.00,0,,,100,98,16,2,0,0,1,1,0,,,,,0.0,0.0,0.0,0.0,0.0,0.0,0
-22.959731,-67.786900,20.20,0.00,1.50,0.69,20.20,20.20,3.50,1.16,11086,2025-11-30 15:57:26.879,2025-11-30 12:57:26.879,18,0,0,46.481,-22.959737,-67.786899,-1.50,0.00,0.00,-18.10,2.60,-179.50,0,1,0,97,90,-48894,14417,46481,2981.50,41,WP,1,0,0,0,0,0,0,1764518246878,3822,3816,3833,3824,3808,3806,18,,,,,,,0,0,0,181.00,26.00,-1795.00,0.00,0.00,3436.00,14,202.00,15.00,6.91,-15.00,0.00,0.00,0,,,100,98,16,2,0,0,1,1,0,,,,,0.0,0.0,0.0,0.0,0.0,0.0,0
-22.959733,-67.786900,20.20,0.00,1.70,0.48,20.20,20.20,3.50,1.16,11187,2025-11-30 15:57:26.980,2025-11-30 12:57:26.980,18,0,0,46.481,-22.959737,-67.786899,-1.70,0.00,0.00,-17.60,2.70,-179.40,0,1,0,97,90,-48894,14417,46481,2981.50,41,WP,1,0,0,0,0,0,0,1764518246979,3822,3816,3833,3824,3808,3806,18,,,,,,,0,0,0,176.00,27.00,-1794.00,0.00,0.00,3442.00,14,202.00,17.00,4.82,-17.00,0.00,0.00,0,,,100,98,16,2,0,0,1,1,0,,,,,0.0,0.0,0.0,0.0,0.0,0.0,0
-22.959735,-67.786900,20.20,0.00,2.00,0.27,20.20,20.20,3.50,1.16,11283,2025-11-30 15:57:27.076,2025-11-30 12:57:27.076,18,0,0,46.481,-22.959737,-67.786899,-2.00,0.00,0.00,-17.30,2.40,-179.40,0,1,0,97,90,-48894,14417,46481,2981.50,41,WP,1,0,0,0,0,0,0,1764518247075,3822,3816,3833,3824,3808,3806,18,,,,,,,0,0,0,173.00,24.00,-1794.00,0.00,0.00,3447.00,14,202.00,20.00,2.67,-20.00,0.00,0.00,0,,,100,98,16,2,0,0,1,1,0,,,,,0.0,0.0,0.0,0.0,0.0,0.0,0
-22.959737,-67.786900,20.20,0.00,2.20,0.11,20.20,20.20,3.50,1.16,11386,2025-11-30 15:57:27.178,2025-11-30 12:57:27.178,18,0,0,46.481,-22.959737,-67.786899,-2.20,0.00,0.00,-17.60,1.90,-179.40,0,1,0,97,90,-48894,14417,46481,2981.50,41,WP,1,0,0,0,0,0,0,1764518247178,3822,3816,3833,3824,3808,3806,18,,,,,,,0,0,0,176.00,19.00,-1794.00,0.00,0.00,3452.00,14,202.00,22.00,1.12,-22.00,0.00,0.00,0,,,100,98,16,2,0,0,1,1,0,,,,,0.0,0.0,0.0,0.0,0.0,0.0,0
-22.959740,-67.786900,20.20,0.00,2.40,0.33,20.20,20.20,3.50,1.16,11486,2025-11-30 15:57:27.279,2025-11-30 12:57:27.279,18,0,0,46.481,-22.959737,-67.786899,-2.40,0.00,0.00,-18.30,1.50,-179.40,0,1,0,97,90,-48894,14417,46481,2981.50,41,WP,1,0,0,0,0,0,0,1764518247278,3822,3816,3833,3824,3808,3806,18,,,,,,,0,0,0,183.00,15.00,-1794.00,0.00,0.00,3457.00,14,202.00,24.00,3.32,-24.00,0.00,0.00,0,,,100,98,16,2,0,0,1,1,0,,,,,0.0,0.0,0.0,0.0,0.0,0.0,0
-22.959743,-67.786900,20.30,0.00,2.60,0.64,20.30,20.30,3.50,1.16,11585,2025-11-30 15:57:27.378,2025-11-30 12:57:27.378,18,0,0,46.350,-22.959737,-67.786899,-2.60,0.00,0.00,-18.80,1.40,-179.50,0,1,0,97,90,-55395,14368,46350,2981.50,41,WP,1,0,0,0,0,0,0,1764518247377,3822,3816,3833,3824,3808,3806,18,,,,,,,0,0,0,188.00,14.00,-1795.00,-1.00,0.00,3462.00,14,203.00,26.00,6.42,-26.00,0.00,0.00,0,,,100,98,16,2,0,0,1,1,0,,,,,0.0,0.0,0.0,0.0,0.0,0.0,0
-22.959746,-67.786900,20.30,0.00,2.90,0.97,20.30,20.30,3.50,1.16,11684,2025-11-30 15:57:27.476,2025-11-30 12:57:27.476,18,0,0,46.350,-22.959737,-67.786899,-2.90,0.00,-0.10,-19.50,1.60,-179.70,0,1,0,97,90,-55395,14368,46350,2981.50,41,WP,1,0,0,0,0,0,0,1764518247476,3822,3816,3833,3824,3808,3806,18,,,,,,,0,0,0,195.00,16.00,-1797.00,-1.00,0.00,3467.00,14,203.00,29.02,9.69,-29.00,0.00,-1.00,0,,,100,98,16,2,0,0,1,1,0,,,,,0.0,0.0,0.0,0.0,0.0,0.0,0
-22.959749,-67.786900,20.30,0.00,3.20,1.34,20.30,20.30,3.50,1.34,11786,2025-11-30 15:57:27.578,2025-11-30 12:57:27.579,18,0,0,46.350,-22.959737,-67.786899,-3.20,0.00,-0.10,-20.30,2.00,-179.80,0,1,0,97,90,-55395,14368,46350,2981.50,41,WP,1,0,0,0,0,0,0,1764518247578,3822,3816,3833,3824,3808,3806,18,,,,,,,0,0,0,203.00,20.00,-1798.00,-1.00,0.00,3472.00,14,203.00,32.02,13.38,-32.00,0.00,-1.00,0,,,100,98,16,2,0,0,1,1,0,,,,,0.0,0.0,0.0,0.0,0.0,0.0,0
-22.959756,-67.786900,20.40,0.00,3.70,2.16,20.40,20.40,3.70,2.16,11988,2025-11-30 15:57:27.781,2025-11-30 12:57:27.781,18,0,0,46.350,-22.959737,-67.786899,-3.70,0.00,-0.10,-21.30,2.80,-179.70,0,1,0,97,90,-55395,14368,46350,2981.50,41,WP,1,0,0,0,0,0,0,1764518247780,3822,3816,3833,3824,3808,3806,18,,,,,,,0,0,0,213.00,28.00,-1797.00,-1.00,0.00,3477.00,14,204.00,37.01,21.56,-37.00,0.00,-1.00,0,,,100,98,16,2,0,0,1,1,0,,,,,0.0,0.0,0.0,0.0,0.0,0.0,0
-22.959761,-67.786901,20.40,0.00,4.00,2.61,20.40,20.40,4.00,2.61,12090,2025-11-30 15:57:27.883,2025-11-30 12:57:27.883,18,0,0,46.350,-22.959737,-67.786899,-4.00,-0.10,-0.10,-21.40,2.90,-179.50,0,1,0,97,90,-55395,14368,46350,2981.50,41,WP,1,0,0,0,0,0,0,1764518247882,3822,3816,3833,3824,3808,3806,18,,,,,,,0,0,0,214.00,29.00,-1795.00,-1.00,0.00,3479.00,14,204.00,40.02,26.06,-40.00,-1.00,-1.00,0,,,100,98,16,2,0,0,1,1,0,,,,,0.0,0.0,0.0,0.0,0.0,0.0,0
-22.959765,-67.786901,20.50,0.00,4.30,3.10,20.50,20.50,4.30,3.10,12190,2025-11-30 15:57:27.982,2025-11-30 12:57:27.982,18,0,0,46.350,-22.959737,-67.786899,-4.30,-0.10,0.00,-21.20,2.80,-179.40,0,1,0,97,90,-55395,14368,46350,2981.50,41,WP,1,0,0,0,0,0,0,1764518247982,3822,3816,3833,3824,3808,3806,18,,,,,,,0,0,0,212.00,28.00,-1794.00,-1.00,0.00,3480.00,14,205.00,43.01,31.01,-43.00,-1.00,0.00,0,,,100,98,16,2,0,0,1,1,0,,,,,0.0,0.0,0.0,0.0,0.0,0.0,0
-22.959770,-67.786901,20.50,0.00,4.60,3.61,20.50,20.50,4.60,3.61,12294,2025-11-30 15:57:28.086,2025-11-30 12:57:28.086,18,0,0,46.350,-22.959737,-67.786899,-4.60,-0.10,0.00,-21.10,2.20,-179.40,0,1,0,97,90,-55395,14368,46350,2981.50,41,WP,1,0,0,0,0,0,0,1764518248086,3822,3816,3833,3824,3808,3806,18,,,,,,,0,0,0,211.00,22.00,-1794.00,0.00,0.00,3482.00,14,205.00,46.01,36.09,-46.00,-1.00,0.00,0,,,100,99,16,2,0,0,1,1,0,,,,,0.0,0.0,0.0,0.0,0.0,0.0,0
-22.959775,-67.786901,20.50,0.00,4.90,4.18,20.50,20.50,4.90,4.18,12394,2025-11-30 15:57:28.187,2025-11-30 12:57:28.187,18,0,0,46.350,-22.959737,-67.786899,-4.90,-0.10,0.00,-20.60,1.70,-179.40,0,1,0,97,90,-55395,14368,46350,2981.50,41,WP,1,0,0,0,0,0,0,1764518248186,3822,3816,3833,3824,3808,3806,18,,,,,,,0,0,0,206.00,17.00,-1794.00,0.00,0.00,3484.00,14,205.00,49.01,41.76,-49.00,-1.00,0.00,0,,,100,99,16,2,0,0,1,1,0,,,,,0.0,0.0,0.0,0.0,0.0,0.0,0
-22.959780,-67.786902,20.50,0.00,5.30,4.75,20.50,20.50,5.30,4.75,12499,2025-11-30 15:57:28.291,2025-11-30 12:57:28.291,18,0,0,46.350,-22.959737,-67.786899,-5.30,-0.10,0.00,-20.40,1.30,-179.40,0,1,0,97,90,-55395,14368,46350,2981.50,41,WP,1,0,0,0,0,0,0,1764518248291,3822,3816,3833,3824,3808,3806,18,,,,,,,0,0,0,204.00,13.00,-1794.00,0.00,0.00,3487.00,14,205.00,53.01,47.55,-53.00,-1.00,0.00,0,,,100,99,16,2,0,0,1,1,0,,,,,0.0,0.0,0.0,0.0,0.0,0.0,0
-22.959785,-67.786902,20.50,0.00,5.50,5.37,20.50,20.50,5.50,5.37,12603,2025-11-30 15:57:28.395,2025-11-30 12:57:28.395,18,0,0,46.350,-22.959737,-67.786899,-5.50,-0.10,0.00,-20.20,0.80,-179.40,0,1,0,97,90,-55395,14368,46350,2981.50,41,WP,1,0,0,0,0,0,0,1764518248395,3822,3816,3833,3824,3808,3806,18,,,,,,,0,0,0,202.00,8.00,-1794.00,0.00,0.00,3488.00,14,205.00,55.01,53.71,-55.00,-1.00,0.00,0,,,100,99,16,2,0,0,1,1,0,,,,,0.0,0.0,0.0,0.0,0.0,0.0,0
-22.959791,-67.786902,20.60,0.00,5.80,6.00,20.60,20.60,5.80,6.00,12698,2025-11-30 15:57:28.491,2025-11-30 12:57:28.491,18,0,0,46.350,-22.959737,-67.786899,-5.80,-0.20,0.00,-19.80,0.30,-179.20,0,1,0,97,90,-55395,14368,46350,2981.50,41,WP,1,0,0,0,0,0,0,1764518248490,3822,3816,3833,3824,3808,3806,18,,,,,,,0,0,0,198.00,3.00,-1792.00,0.00,0.00,3489.00,14,206.00,58.03,59.96,-58.00,-2.00,0.00,0,,,100,99,16,2,0,0,1,1,0,,,,,0.0,0.0,0.0,0.0,0.0,0.0,0
-22.959797,-67.786902,20.60,0.00,6.10,6.69,20.60,20.60,6.10,6.69,12803,2025-11-30 15:57:28.595,2025-11-30 12:57:28.596,18,0,0,46.350,-22.959737,-67.786899,-6.10,-0.10,0.00,-18.80,0.00,-179.00,0,1,0,97,90,-55395,14368,46350,2981.50,41,WP,1,0,0,0,0,0,0,1764518248595,3822,3816,3833,3824,3808,3806,18,,,,,,,0,0,0,188.00,0.00,-1790.00,2.00,0.00,3489.00,14,206.00,61.01,66.89,-61.00,-1.00,0.00,0,,,100,98,16,2,0,0,1,1,0,,,,,0.0,0.0,0.0,0.0,0.0,0.0,0
-22.959810,-67.786903,20.60,0.00,6.60,8.14,20.60,20.60,6.60,8.14,12998,2025-11-30 15:57:28.790,2025-11-30 12:57:28.791,18,0,0,46.350,-22.959737,-67.786899,-6.60,-0.10,0.00,-17.20,0.50,-179.20,0,1,0,97,90,-55395,14368,46350,2981.50,41,WP,1,0,0,0,0,0,0,1764518248790,3822,3816,3833,3824,3808,3806,18,,,,,,,0,0,0,172.00,5.00,-1792.00,0.00,0.00,3493.00,14,206.00,66.01,81.42,-66.00,-1.00,0.00,0,,,100,98,16,2,0,0,1,1,0,,,,,0.0,0.0,0.0,0.0,0.0,0.0,0
-22.959817,-67.786903,20.70,0.00,6.80,8.88,20.70,20.70,6.80,8.88,13102,2025-11-30 15:57:28.895,2025-11-30 12:57:28.895,18,0,0,46.350,-22.959737,-67.786899,-6.80,-0.10,0.00,-16.10,0.40,-179.20,0,1,0,97,90,-55395,14368,46350,2981.50,41,WP,1,0,0,0,0,0,0,1764518248894,3822,3816,3833,3824,3808,3806,18,,,,,,,0,0,0,161.00,4.00,-1792.00,2.00,0.00,3496.00,14,207.00,68.01,88.83,-68.00,-1.00,0.00,0,,,100,98,16,2,0,0,1,1,0,,,,,0.0,0.0,0.0,0.0,0.0,0.0,0
-22.959824,-67.786903,20.70,0.00,7.00,9.67,20.70,20.70,7.00,9.67,13203,2025-11-30 15:57:28.995,2025-11-30 12:57:28.995,18,0,0,46.350,-22.959737,-67.786899,-7.00,-0.10,0.00,-15.10,0.70,-179.30,0,1,0,97,90,-55395,14368,46350,2981.50,41,WP,1,0,0,0,0,0,0,1764518248995,3822,3816,3833,3824,3808,3806,18,,,,,,,0,0,0,151.00,7.00,-1793.00,1.00,0.00,3498.00,14,207.00,70.01,96.68,-70.00,-1.00,0.00,0,,,100,98,16,2,0,0,1,1,0,,,,,0.0,0.0,0.0,0.0,0.0,0.0,0
-22.959831,-67.786904,20.70,0.00,7.20,10.41,20.70,20.70,7.20,10.41,13297,2025-11-30 15:57:29.090,2025-11-30 12:57:29.090,18,0,0,46.350,-22.959737,-67.786899,-7.20,-0.10,-0.10,-14.40,1.00,-179.30,0,1,0,97,90,-55395,14368,46350,2981.50,41,WP,1,0,0,0,0,0,0,1764518249089,3822,3816,3833,3824,3808,3806,18,,,,,,,0,0,0,144.00,10.00,-1793.00,2.00,0.00,3500.00,14,207.00,72.01,104.05,-72.00,-1.00,-1.00,0,,,100,97,16,2,0,0,1,1,0,,,,,0.0,0.0,0.0,0.0,0.0,0.0,0
-22.959839,-67.786904,20.80,0.00,7.40,11.25,20.80,20.80,7.40,11.25,13399,2025-11-30 15:57:29.192,2025-11-30 12:57:29.192,18,0,0,46.350,-22.959737,-67.786899,-7.40,0.00,-0.10,-14.30,0.90,-179.40,0,1,0,97,90,-55395,14368,46350,2981.50,41,WP,1,0,0,0,0,0,0,1764518249191,3822,3816,3833,3824,3808,3806,18,,,,,,,0,0,0,143.00,9.00,-1794.00,1.00,0.00,3502.00,14,208.00,74.01,112.54,-74.00,0.00,-1.00,0,,,100,97,16,2,0,0,1,1,0,,,,,0.0,0.0,0.0,0.0,0.0,0.0,0
-22.959846,-67.786904,20.80,0.00,7.60,12.05,20.80,20.80,7.60,12.05,13502,2025-11-30 15:57:29.294,2025-11-30 12:57:29.294,18,0,0,46.350,-22.959737,-67.786899,-7.60,0.00,-0.10,-14.80,1.30,-179.40,0,1,0,97,90,-55395,14368,46350,2981.50,41,WP,1,0,0,0,0,0,0,1764518249294,3822,3816,3833,3824,3808,3806,18,,,,,,,0,0,0,148.00,13.00,-1794.00,0.00,0.00,3504.00,14,208.00,76.01,120.54,-76.00,0.00,-1.00,0,,,100,97,16,2,0,0,1,1,0,,,,,0.0,0.0,0.0,0.0,0.0,0.0,0
-22.959853,-67.786904,20.90,0.00,7.70,12.90,20.90,20.90,7.70,12.90,13603,2025-11-30 15:57:29.395,2025-11-30 12:57:29.396,18,0,0,45.353,-22.959737,-67.786899,-7.70,0.00,0.00,-15.70,1.60,-179.50,0,1,0,96,90,-61816,14319,45353,2981.50,41,WP,1,0,0,0,0,0,0,1764518249395,3822,3816,3833,3824,3808,3806,18,,,,,,,0,0,0,157.00,16.00,-1795.00,0.00,0.00,3507.00,14,209.00,77.00,128.95,-77.00,0.00,0.00,0,,,100,97,16,2,0,0,1,1,0,,,,,0.0,0.0,0.0,0.0,0.0,0.0,0
-22.959861,-67.786904,20.90,0.00,7.80,13.73,20.90,20.90,7.80,13.73,13719,2025-11-30 15:57:29.511,2025-11-30 12:57:29.511,18,0,0,45.353,-22.959737,-67.786899,-7.80,0.00,0.00,-16.80,1.70,-179.50,0,1,0,96,90,-61816,14319,45353,2981.50,41,WP,1,0,0,0,0,0,0,1764518249511,3822,3816,3833,3824,3808,3806,18,,,,,,,0,0,0,168.00,17.00,-1795.00,0.00,0.00,3509.00,14,209.00,78.00,137.31,-78.00,0.00,0.00,0,,,100,97,16,2,0,0,1,1,0,,,,,0.0,0.0,0.0,0.0,0.0,0.0,0
-22.959869,-67.786904,20.90,0.00,8.00,14.57,20.90,20.90,8.00,14.57,13799,2025-11-30 15:57:29.592,2025-11-30 12:57:29.592,18,0,0,45.353,-22.959737,-67.786899,-8.00,0.00,0.00,-17.80,1.70,-179.50,0,1,0,96,90,-61816,14319,45353,2981.50,41,WP,1,0,0,0,0,0,0,1764518249591,3822,3816,3833,3824,3808,3806,18,,,,,,,0,0,0,178.00,17.00,-1795.00,0.00,0.00,3511.00,14,209.00,80.00,145.71,-80.00,0.00,0.00,0,,,100,97,16,2,0,0,1,1,0,,,,,0.0,0.0,0.0,0.0,0.0,0.0,0
-22.959884,-67.786904,20.90,0.00,8.40,16.27,20.90,20.90,8.40,16.27,14016,2025-11-30 15:57:29.809,2025-11-30 12:57:29.809,18,0,0,45.353,-22.959737,-67.786899,-8.40,0.00,0.20,-18.80,1.80,-179.50,0,1,0,96,90,-61816,14319,45353,2981.50,41,WP,1,0,0,0,0,0,0,1764518249808,3822,3816,3833,3824,3808,3806,18,,,,,,,0,0,0,188.00,18.00,-1795.00,-1.00,0.00,3512.00,14,209.00,84.02,162.65,-84.00,0.00,2.00,0,,,100,97,16,2,0,0,1,1,0,,,,,0.0,0.0,0.0,0.0,0.0,0.0,0
-22.959892,-67.786904,20.80,0.00,8.61,17.14,20.90,20.90,8.61,17.14,14102,2025-11-30 15:57:29.894,2025-11-30 12:57:29.894,18,0,0,45.353,-22.959737,-67.786899,-8.60,-0.10,0.40,-18.10,1.80,-179.50,0,1,0,96,90,-61816,14319,45353,2981.50,41,WP,1,0,0,0,0,0,0,1764518249894,3822,3816,3833,3824,3808,3806,18,,,,,,,0,0,0,181.00,18.00,-1795.00,0.00,0.00,3516.00,14,208.00,86.10,171.39,-86.00,-1.00,4.00,0,,,100,97,16,2,0,0,1,1,0,,,,,0.0,0.0,0.0,0.0,0.0,0.0,0
-22.959908,-67.786904,20.70,0.00,8.92,18.98,20.90,20.90,8.92,18.98,14304,2025-11-30 15:57:30.096,2025-11-30 12:57:30.096,18,0,0,45.353,-22.959737,-67.786899,-8.90,-0.10,0.60,-13.40,1.20,-179.30,0,1,0,96,90,-61816,14319,45353,2981.50,41,WP,1,0,0,0,0,0,0,1764518250096,3822,3816,3833,3824,3808,3806,18,,,,,,,0,0,0,134.00,12.00,-1793.00,0.00,0.00,3516.00,14,207.00,89.21,189.76,-89.00,-1.00,6.00,0,,,100,97,16,2,0,0,1,1,0,,,,,0.0,0.0,0.0,0.0,0.0,0.0,0
-22.959917,-67.786905,20.60,0.00,9.02,19.91,20.90,20.90,9.02,19.91,14421,2025-11-30 15:57:30.213,2025-11-30 12:57:30.213,18,0,0,45.353,-22.959737,-67.786899,-9.00,-0.10,0.60,-10.00,1.00,-179.10,0,1,0,96,90,-61816,14319,45353,2981.50,41,WP,1,0,0,0,0,0,0,1764518250213,3822,3816,3833,3824,3808,3806,18,,,,,,,0,0,0,100.00,10.00,-1791.00,1.00,0.00,3518.00,14,206.00,90.21,199.09,-90.00,-1.00,6.00,0,,,100,92,16,2,0,0,1,1,0,,,,,0.0,0.0,0.0,0.0,0.0,0.0,0
-22.959925,-67.786905,20.60,0.00,9.11,20.83,20.90,20.90,9.11,20.83,14505,2025-11-30 15:57:30.298,2025-11-30 12:57:30.298,18,0,0,45.353,-22.959737,-67.786899,-9.10,-0.10,0.50,-6.70,1.00,-179.10,0,1,0,96,90,-61816,14319,45353,2981.50,41,WP,1,0,0,0,0,0,0,1764518250297,3822,3816,3833,3824,3808,3806,18,,,,,,,0,0,0,67.00,10.00,-1791.00,1.00,0.00,3519.00,14,206.00,91.14,208.33,-91.00,-1.00,5.00,0,,,100,92,16,2,0,0,1,1,0,,,,,0.0,0.0,0.0,0.0,0.0,0.0,0
-22.959933,-67.786905,20.60,0.00,9.11,21.69,20.90,20.90,9.11,21.69,14617,2025-11-30 15:57:30.409,2025-11-30 12:57:30.409,18,0,0,45.353,-22.959737,-67.786899,-9.10,-0.20,0.30,-4.70,1.20,-179.10,0,1,0,96,90,-61816,14319,45353,2981.50,41,WP,1,0,0,0,0,0,0,1764518250409,3822,3816,3833,3824,3808,3806,18,,,,,,,0,0,0,47.00,12.00,-1791.00,1.00,0.00,3521.00,14,206.00,91.07,216.95,-91.00,-2.00,3.00,0,,,100,92,16,2,0,0,1,1,0,,,,,0.0,0.0,0.0,0.0,0.0,0.0,0
-22.959941,-67.786905,20.60,0.00,9.11,22.63,20.90,20.90,9.11,22.63,14711,2025-11-30 15:57:30.503,2025-11-30 12:57:30.503,18,0,0,45.353,-22.959737,-67.786899,-9.10,-0.20,0.30,-3.80,1.60,-179.20,0,1,0,96,90,-61816,14319,45353,2981.50,41,WP,1,0,0,0,0,0,0,1764518250503,3822,3816,3833,3824,3808,3806,18,,,,,,,0,0,0,38.00,16.00,-1792.00,0.00,0.00,3523.00,14,206.00,91.07,226.34,-91.00,-2.00,3.00,0,,,100,92,16,2,0,0,1,1,0,,,,,0.0,0.0,0.0,0.0,0.0,0.0,0
-22.959950,-67.786905,20.60,0.00,9.10,23.57,20.90,20.90,9.11,23.57,14817,2025-11-30 15:57:30.609,2025-11-30 12:57:30.609,18,0,0,45.353,-22.959737,-67.786899,-9.10,-0.20,0.20,-3.80,1.50,-179.30,0,1,0,96,90,-61816,14319,45353,2981.50,41,WP,1,0,0,0,0,0,0,1764518250609,3822,3816,3833,3824,3808,3806,18,,,,,,,0,0,0,38.00,15.00,-1793.00,0.00,0.00,3525.00,14,206.00,91.04,235.65,-91.00,-2.00,2.00,0,,,100,92,16,2,0,0,1,1,0,,,,,0.0,0.0,0.0,0.0,0.0,0.0,0
-22.959967,-67.786906,20.70,0.00,9.00,25.47,20.90,20.90,9.11,25.47,15016,2025-11-30 15:57:30.808,2025-11-30 12:57:30.808,18,0,0,45.353,-22.959737,-67.786899,-9.00,-0.20,0.20,-4.00,0.20,-179.40,0,1,0,96,90,-61816,14319,45353,2981.50,41,WP,1,0,0,0,0,0,0,1764518250808,3822,3816,3833,3824,3808,3806,18,,,,,,,0,0,0,40.00,2.00,-1794.00,0.00,0.00,3529.00,14,207.00,90.04,254.67,-90.00,-2.00,2.00,0,,,100,93,16,2,0,0,1,1,0,,,,,0.0,0.0,0.0,0.0,0.0,0.0,0
-22.959975,-67.786906,20.60,0.00,9.01,26.39,20.90,20.90,9.11,26.39,15114,2025-11-30 15:57:30.906,2025-11-30 12:57:30.906,18,0,0,45.353,-22.959737,-67.786899,-9.00,-0.10,0.30,-3.70,-0.20,-179.50,0,1,0,96,90,-61816,14319,45353,2981.50,41,WP,1,0,0,0,0,0,0,1764518250906,3822,3816,3833,3824,3808,3806,18,,,,,,,0,0,0,37.00,-2.00,-1795.00,0.00,0.00,3529.00,14,206.00,90.06,263.93,-90.00,-1.00,3.00,0,,,100,93,16,2,0,0,1,1,0,,,,,0.0,0.0,0.0,0.0,0.0,0.0,0
