latitude,longitude,altitude(m),ultrasonicHeight(m),speed(mps),distance(m),max_altitude(m),max_ascent(m),max_speed(mps),max_distance(m),time(millisecond),datetime(utc),datetime(local),satellites,pressure(Pa),temperature(F),voltage(v),home_latitude,home_longitude,velocityX(mps),velocityY(mps),velocityZ(mps),pitch(deg),roll(deg),yaw(deg),powerlevel,isflying,istakingphoto,remainPowerPercent,remainLifePercent,currentCurrent,currentElectricity,currentVoltage,batteryTemperature,dischargeCount,flightmode,isMotorsOn,isTakingVideo,Rc_elevator,Rc_aileron,Rc_throttle,Rc_rudder,Rc_gyro,timestamp,Battery_Cell1,Battery_Cell2,Battery_Cell3,Battery_Cell4,Battery_Cell5,Battery_Cell6,Dronetype,AppVersion,Planename,FlyControllerSerialNumber,RemoteSerialNumber,BatterySerialNumber,CENTER_BATTERY.productDate,CENTER_BATTERY.serialNo,CENTER_BATTERY.fullCapacity,CENTER_BATTERY.productDateRaw,pitchRaw,rollRaw,yawRaw,gimbalPitchRaw,gimbalRollRaw,gimbalYawRaw,flyState,altitudeRaw,speedRaw,distanceRaw,velocityXRaw,velocityYRaw,velocityZRaw,data_reuse,App_Tip,App_Warning,downlinkSignalQuality,uplinkSignalQuality,transmissionChannel,rcModeSwitch,rcHome,rcPause,rcTransform,rcJoystickMode,appMode,FlyControllerSerialNumber_legacy,RemoteSerialNumber_legacy,BatterySerialNumber_legacy,Battery2SerialNumber,frontAvoidDist,backAvoidDist,rightAvoidDist,leftAvoidDist,upAvoidDist,downAvoidDist,isBrakingToAvoid
-22.959780,-67.786894,0.60,0.00,0.63,0.21,0.60,0.60,0.63,0.21,3,2025-11-30 17:15:32.396,2025-11-30 14:15:32.396,15,0,0,52.125,-22.959780,-67.786896,0.00,0.20,-0.60,1.20,-0.40,91.70,0,1,0,100,89,-906,14111,52125,2961.50,46,TakeOff,1,0,0,0,0,0,0,1764522932395,4339,4337,4338,4337,4344,4332,18,Litchi_iOS_2.15.7,EIK Matrice 1,0670131556,03LLCA05XT,,,0,14111,0,-12.00,-4.00,917.00,0.00,3.00,49.00,11,6.00,6.32,2.14,0.00,2.00,-6.00,0,,,100,100,15,2,0,0,1,1,0,(null),(null),(null),(null),0.0,0.0,0.0,0.0,0.0,0.0,0
-22.959780,-67.786893,0.70,0.00,0.54,0.24,0.70,0.70,0.63,0.24,107,2025-11-30 17:15:32.500,2025-11-30 14:15:32.500,15,0,0,52.125,-22.959780,-67.786896,0.00,0.20,-0.50,1.80,0.00,91.70,0,1,0,100,89,-906,14111,52125,2961.50,46,TakeOff,1,0,0,0,0,0,0,1764522932499,4339,4337,4338,4337,4344,4332,18,,,,,,,0,0,0,-18.00,0.00,917.00,0.00,4.00,48.00,11,7.00,5.39,2.39,0.00,2.00,-5.00,0,,,100,100,15,2,0,0,1,1,0,,,,,0.0,0.0,0.0,0.0,0.0,0.0,0
-22.959779,-67.786893,0.70,0.00,0.32,0.28,0.70,0.70,0.63,0.28,311,2025-11-30 17:15:32.704,2025-11-30 14:15:32.704,16,0,0,52.125,-22.959780,-67.786896,0.00,0.10,-0.30,2.80,0.00,91.60,0,1,0,100,89,-906,14111,52125,2961.50,46,TakeOff,1,0,0,0,0,0,0,1764522932703,4339,4337,4338,4337,4344,4332,18,,,,,,,0,0,0,-28.00,0.00,916.00,0.00,4.00,48.00,11,7.00,3.16,2.83,0.00,1.00,-3.00,0,,,100,100,15,2,0,0,1,1,0,,,,,0.0,0.0,0.0,0.0,0.0,0.0,0
-22.959779,-67.786893,0.80,0.00,0.32,0.29,0.80,0.80,0.63,0.29,395,2025-11-30 17:15:32.787,2025-11-30 14:15:32.787,16,0,0,52.125,-22.959780,-67.786896,0.00,0.10,-0.30,2.90,0.20,91.60,0,1,0,100,89,-906,14111,52125,2961.50,46,TakeOff,1,0,0,0,0,0,0,1764522932787,4339,4337,4338,4337,4344,4332,18,,,,,,,0,0,0,-29.00,2.00,916.00,0.00,4.00,48.00,11,8.00,3.16,2.90,0.00,1.00,-3.00,0,,,100,100,15,2,0,0,1,1,0,,,,,0.0,0.0,0.0,0.0,0.0,0.0,0
-22.959779,-67.786893,0.80,0.00,0.30,0.30,0.80,0.80,0.63,0.30,498,2025-11-30 17:15:32.890,2025-11-30 14:15:32.890,16,0,0,52.125,-22.959780,-67.786896,0.00,0.00,-0.30,2.30,0.60,91.50,0,1,0,100,89,-906,14111,52125,2961.50,46,TakeOff,1,0,0,0,0,0,0,1764522932890,4339,4337,4338,4337,4344,4332,18,,,,,,,0,0,0,-23.00,6.00,915.00,0.00,3.00,49.00,11,8.00,3.00,3.00,0.00,0.00,-3.00,0,,,100,100,15,2,0,0,1,1,0,,,,,0.0,0.0,0.0,0.0,0.0,0.0,0
-22.959779,-67.786893,0.90,0.00,0.30,0.30,0.90,0.90,0.63,0.30,599,2025-11-30 17:15:32.992,2025-11-30 14:15:32.992,16,0,0,52.125,-22.959780,-67.786896,0.00,0.00,-0.30,1.80,0.90,91.50,0,1,0,100,89,-906,14111,52125,2961.50,46,TakeOff,1,0,0,0,0,0,0,1764522932991,4339,4337,4338,4337,4344,4332,18,,,,,,,0,0,0,-18.00,9.00,915.00,0.00,3.00,49.00,11,9.00,3.00,3.02,0.00,0.00,-3.00,0,,,100,100,15,2,0,0,1,1,0,,,,,0.0,0.0,0.0,0.0,0.0,0.0,0
-22.959779,-67.786893,0.90,0.00,0.30,0.31,0.90,0.90,0.63,0.31,703,2025-11-30 17:15:33.095,2025-11-30 14:15:33.096,16,0,0,52.125,-22.959780,-67.786896,0.00,0.00,-0.30,1.70,0.70,91.50,0,1,0,100,89,-906,14111,52125,2961.50,46,TakeOff,1,0,0,0,0,0,0,1764522933095,4339,4337,4338,4337,4344,4332,18,,,,,,,0,0,0,-17.00,7.00,915.00,0.00,3.00,50.00,11,9.00,3.00,3.06,0.00,0.00,-3.00,0,,,100,100,15,2,0,0,1,1,0,,,,,0.0,0.0,0.0,0.0,0.0,0.0,0
-22.959779,-67.786893,1.00,0.00,0.30,0.31,1.00,1.00,0.63,0.31,798,2025-11-30 17:15:33.191,2025-11-30 14:15:33.191,16,0,0,52.125,-22.959780,-67.786896,0.00,0.00,-0.30,1.60,0.30,91.50,0,1,0,100,89,-906,14111,52125,2961.50,46,TakeOff,1,0,0,0,0,0,0,1764522933190,4339,4337,4338,4337,4344,4332,18,,,,,,,0,0,0,-16.00,3.00,915.00,0.00,3.00,50.00,11,10.00,3.00,3.09,0.00,0.00,-3.00,0,,,100,100,15,2,0,0,1,1,0,,,,,0.0,0.0,0.0,0.0,0.0,0.0,0
-22.959779,-67.786893,1.00,0.00,0.40,0.31,1.00,1.00,0.63,0.31,901,2025-11-30 17:15:33.293,2025-11-30 14:15:33.293,16,0,0,52.125,-22.959780,-67.786896,0.00,0.00,-0.40,1.40,0.00,91.50,0,1,0,100,89,-906,14111,52125,2961.50,46,GPS,1,0,0,0,0,0,0,1764522933293,4339,4337,4338,4337,4344,4332,18,,,,,,,0,0,0,-14.00,0.00,915.00,0.00,3.00,49.00,6,10.00,4.00,3.13,0.00,0.00,-4.00,0,,,100,100,15,2,0,0,1,1,0,,,,,0.0,0.0,0.0,0.0,0.0,0.0,0
-22.959779,-67.786893,1.10,0.00,0.30,0.31,1.10,1.10,0.63,0.31,1003,2025-11-30 17:15:33.395,2025-11-30 14:15:33.396,16,0,0,52.125,-22.959780,-67.786896,0.00,0.00,-0.30,1.30,-0.10,91.40,0,1,0,100,89,-906,14111,52125,2961.50,46,WP,1,0,0,0,0,0,0,1764522933395,4339,4337,4338,4337,4344,4332,18,,,,,,,0,0,0,-13.00,-1.00,914.00,0.00,3.00,49.00,14,11.00,3.00,3.10,0.00,0.00,-3.00,0,,,100,100,15,2,0,0,1,1,0,,,,,0.0,0.0,0.0,0.0,0.0,0.0,0
-22.959779,-67.786893,1.20,0.00,0.30,0.31,1.20,1.20,0.63,0.31,1115,2025-11-30 17:15:33.507,2025-11-30 14:15:33.507,16,0,0,52.125,-22.959780,-67.786896,0.00,0.00,-0.30,0.70,-0.30,91.40,0,1,0,100,89,-906,14111,52125,2961.50,46,WP,1,0,0,0,0,0,0,1764522933507,4339,4337,4338,4337,4344,4332,18,,,,,,,0,0,0,-7.00,-3.00,914.00,0.00,3.00,50.00,14,12.00,3.00,3.10,0.00,0.00,-3.00,0,,,100,100,15,2,0,0,1,1,0,,,,,0.0,0.0,0.0,0.0,0.0,0.0,0
-22.959779,-67.786893,1.20,0.00,0.20,0.31,1.20,1.20,0.63,0.31,1315,2025-11-30 17:15:33.707,2025-11-30 14:15:33.708,16,0,0,51.353,-22.959780,-67.786896,0.00,0.00,-0.20,0.10,0.10,91.30,0,1,0,100,89,-43461,14111,51353,2961.50,46,WP,1,0,0,0,0,0,0,1764522933707,4339,4337,4338,4337,4344,4332,18,,,,,,,0,0,0,-1.00,1.00,913.00,0.00,4.00,50.00,14,12.00,2.00,3.05,0.00,0.00,-2.00,0,,,100,100,15,2,0,0,1,1,0,,,,,0.0,0.0,0.0,0.0,0.0,0.0,0
-22.959779,-67.786893,1.30,0.00,0.30,0.31,1.30,1.30,0.63,0.31,1403,2025-11-30 17:15:33.796,2025-11-30 14:15:33.796,16,0,0,51.353,-22.959780,-67.786896,0.00,0.00,-0.30,0.00,0.30,91.40,0,1,0,100,89,-43461,14111,51353,2961.50,46,WP,1,0,0,0,0,0,0,1764522933795,4339,4337,4338,4337,4344,4332,18,,,,,,,0,0,0,-0.00,3.00,914.00,0.00,4.00,49.00,14,13.00,3.00,3.05,0.00,0.00,-3.00,0,,,100,100,15,2,0,0,1,1,0,,,,,0.0,0.0,0.0,0.0,0.0,0.0,0
-22.959779,-67.786893,1.30,0.00,0.40,0.31,1.30,1.30,0.63,0.31,1513,2025-11-30 17:15:33.906,2025-11-30 14:15:33.906,16,0,0,51.353,-22.959780,-67.786896,0.00,0.00,-0.40,0.00,0.40,91.50,0,1,0,100,89,-43461,14111,51353,2961.50,46,WP,1,0,0,0,0,0,0,1764522933905,4339,4337,4338,4337,4344,4332,18,,,,,,,0,0,0,-0.00,4.00,915.00,0.00,4.00,49.00,14,13.00,4.00,3.10,0.00,0.00,-4.00,0,,,100,100,15,2,0,0,1,1,0,,,,,0.0,0.0,0.0,0.0,0.0,0.0,0
-22.959778,-67.786893,1.40,0.00,0.60,0.32,1.40,1.40,0.63,0.32,1603,2025-11-30 17:15:33.996,2025-11-30 14:15:33.996,16,0,0,51.353,-22.959780,-67.786896,0.00,0.00,-0.60,0.00,0.60,91.50,0,1,0,100,89,-43461,14111,51353,2961.50,46,WP,1,0,0,0,0,0,0,1764522933995,4339,4337,4338,4337,4344,4332,18,,,,,,,0,0,0,-0.00,6.00,915.00,0.00,4.00,48.00,14,14.00,6.00,3.19,0.00,0.00,-6.00,0,,,100,100,15,2,0,0,1,1,0,,,,,0.0,0.0,0.0,0.0,0.0,0.0,0
-22.959778,-67.786893,1.50,0.00,0.70,0.33,1.50,1.50,0.70,0.33,1707,2025-11-30 17:15:34.100,2025-11-30 14:15:34.100,16,0,0,51.353,-22.959780,-67.786896,0.00,0.00,-0.70,0.30,0.70,91.60,0,1,0,100,89,-43461,14111,51353,2961.50,46,WP,1,0,0,0,0,0,0,1764522934099,4339,4337,4338,4337,4344,4332,18,,,,,,,0,0,0,-3.00,7.00,916.00,0.00,4.00,48.00,14,15.00,7.00,3.29,0.00,0.00,-7.00,0,,,100,100,15,2,0,0,1,1,0,,,,,0.0,0.0,0.0,0.0,0.0,0.0,0
-22.959778,-67.786893,1.60,0.00,1.00,0.34,1.60,1.60,1.00,0.34,1815,2025-11-30 17:15:34.208,2025-11-30 14:15:34.208,16,0,0,51.353,-22.959780,-67.786896,0.00,0.00,-1.00,0.70,0.60,91.60,0,1,0,100,89,-43461,14111,51353,2961.50,46,WP,1,0,0,0,0,0,0,1764522934207,4339,4337,4338,4337,4344,4332,18,,,,,,,0,0,0,-7.00,6.00,916.00,0.00,4.00,47.00,14,16.00,10.00,3.43,0.00,0.00,-10.00,0,,,100,100,15,2,0,0,1,1,0,,,,,0.0,0.0,0.0,0.0,0.0,0.0,0
-22.959778,-67.786893,1.70,0.00,1.30,0.36,1.70,1.70,1.30,0.36,1911,2025-11-30 17:15:34.303,2025-11-30 14:15:34.303,16,0,0,51.353,-22.959780,-67.786896,0.00,0.00,-1.30,1.00,0.40,91.60,0,1,0,100,89,-43461,14111,51353,2961.50,46,WP,1,0,0,0,0,0,0,1764522934303,4339,4337,4338,4337,4344,4332,18,,,,,,,0,0,0,-10.00,4.00,916.00,0.00,4.00,47.00,14,17.00,13.00,3.56,0.00,0.00,-13.00,0,,,100,100,15,2,0,0,1,1,0,,,,,0.0,0.0,0.0,0.0,0.0,0.0,0
-22.959778,-67.786892,1.90,0.00,1.60,0.37,1.90,1.90,1.60,0.37,2009,2025-11-30 17:15:34.402,2025-11-30 14:15:34.402,16,0,0,51.353,-22.959780,-67.786896,0.00,0.00,-1.60,0.90,0.00,91.60,0,1,0,100,89,-43461,14111,51353,2961.50,46,WP,1,0,0,0,0,0,0,1764522934401,4339,4337,4338,4337,4344,4332,18,,,,,,,0,0,0,-9.00,0.00,916.00,0.00,3.00,47.00,14,19.00,16.00,3.72,0.00,0.00,-16.00,0,,,100,100,15,2,0,0,1,1,0,,,,,0.0,0.0,0.0,0.0,0.0,0.0,0
-22.959778,-67.786892,2.50,0.00,2.50,0.41,2.50,2.50,2.50,0.41,2311,2025-11-30 17:15:34.704,2025-11-30 14:15:34.704,16,0,0,51.353,-22.959780,-67.786896,0.10,0.10,-2.50,1.50,0.30,91.20,0,1,0,100,89,-43461,14111,51353,2961.50,46,WP,1,0,0,0,0,0,0,1764522934703,4339,4337,4338,4337,4344,4332,18,,,,,,,0,0,0,-15.00,3.00,912.00,0.00,3.00,49.00,14,25.00,25.04,4.08,1.00,1.00,-25.00,0,,,100,99,15,2,0,0,1,1,0,,,,,0.0,0.0,0.0,0.0,0.0,0.0,0
-22.959778,-67.786892,2.80,0.00,2.80,0.42,2.80,2.80,2.80,0.42,2416,2025-11-30 17:15:34.808,2025-11-30 14:15:34.808,16,0,0,51.353,-22.959780,-67.786896,0.00,0.10,-2.80,1.70,1.50,91.20,0,1,0,100,89,-43461,14111,51353,2961.50,46,WP,1,0,0,0,0,0,0,1764522934808,4339,4337,4338,4337,4344,4332,18,,,,,,,0,0,0,-17.00,15.00,912.00,0.00,4.00,50.00,14,28.00,28.02,4.23,0.00,1.00,-28.00,0,,,100,99,15,2,0,0,1,1,0,,,,,0.0,0.0,0.0,0.0,0.0,0.0,0
-22.959777,-67.786892,3.10,0.00,3.00,0.44,3.10,3.10,3.00,0.44,2513,2025-11-30 17:15:34.905,2025-11-30 14:15:34.905,16,0,0,51.353,-22.959780,-67.786896,0.00,0.10,-3.00,1.60,2.50,91.30,0,1,0,100,89,-43461,14111,51353,2961.50,46,WP,1,0,0,0,0,0,0,1764522934905,4339,4337,4338,4337,4344,4332,18,,,,,,,0,0,0,-16.00,25.00,913.00,0.00,4.00,50.00,14,31.00,30.02,4.35,0.00,1.00,-30.00,0,,,100,99,15,2,0,0,1,1,0,,,,,0.0,0.0,0.0,0.0,0.0,0.0,0
-22.959777,-67.786892,3.40,0.00,3.20,0.44,3.40,3.40,3.20,0.44,2611,2025-11-30 17:15:35.003,2025-11-30 14:15:35.003,16,0,0,51.353,-22.959780,-67.786896,0.00,0.00,-3.20,1.60,2.50,91.40,0,1,0,100,89,-43461,14111,51353,2961.50,46,WP,1,0,0,0,0,0,0,1764522935003,4339,4337,4338,4337,4344,4332,18,,,,,,,0,0,0,-16.00,25.00,914.00,0.00,4.00,48.00,14,34.00,32.00,4.37,0.00,0.00,-32.00,0,,,100,99,15,2,0,0,1,1,0,,,,,0.0,0.0,0.0,0.0,0.0,0.0,0
-22.959777,-67.786892,3.80,0.00,3.40,0.43,3.80,3.80,3.40,0.44,2715,2025-11-30 17:15:35.108,2025-11-30 14:15:35.108,16,0,0,51.353,-22.959780,-67.786896,0.00,0.00,-3.40,1.70,1.70,91.50,0,1,0,100,89,-43461,14111,51353,2961.50,46,WP,1,0,0,0,0,0,0,1764522935107,4339,4337,4338,4337,4344,4332,18,,,,,,,0,0,0,-17.00,17.00,915.00,0.00,4.00,47.00,14,38.00,34.00,4.34,0.00,0.00,-34.00,0,,,100,99,15,2,0,0,1,1,0,,,,,0.0,0.0,0.0,0.0,0.0,0.0,0
-22.959777,-67.786892,4.10,0.00,3.50,0.43,4.10,4.10,3.50,0.44,2814,2025-11-30 17:15:35.207,2025-11-30 14:15:35.207,16,0,0,51.353,-22.959780,-67.786896,0.00,0.00,-3.50,1.70,0.50,91.50,0,1,0,100,89,-43461,14111,51353,2961.50,46,WP,1,0,0,0,0,0,0,1764522935206,4339,4337,4338,4337,4344,4332,18,,,,,,,0,0,0,-17.00,5.00,915.00,0.00,3.00,46.00,14,41.00,35.00,4.32,0.00,0.00,-35.00,0,,,100,99,15,2,0,0,1,1,0,,,,,0.0,0.0,0.0,0.0,0.0,0.0,0
-22.959777,-67.786892,4.50,0.00,3.60,0.43,4.50,4.50,3.60,0.44,2913,2025-11-30 17:15:35.305,2025-11-30 14:15:35.305,16,0,0,51.353,-22.959780,-67.786896,0.00,0.00,-3.60,1.50,-0.60,91.30,0,1,0,100,89,-43461,14111,51353,2961.50,46,WP,1,0,0,0,0,0,0,1764522935305,4339,4337,4338,4337,4344,4332,18,,,,,,,0,0,0,-15.00,-6.00,913.00,0.00,3.00,46.00,14,45.00,36.00,4.28,0.00,0.00,-36.00,0,,,100,99,15,2,0,0,1,1,0,,,,,0.0,0.0,0.0,0.0,0.0,0.0,0
-22.959777,-67.786892,4.80,0.00,3.50,0.42,4.80,4.80,3.60,0.44,3015,2025-11-30 17:15:35.408,2025-11-30 14:15:35.408,16,0,0,51.353,-22.959780,-67.786896,0.00,0.00,-3.50,1.40,-1.20,91.20,0,1,0,100,89,-43461,14111,51353,2961.50,46,WP,1,0,0,0,0,0,0,1764522935407,4339,4337,4338,4337,4344,4332,18,,,,,,,0,0,0,-14.00,-12.00,912.00,0.00,4.00,47.00,14,48.00,35.00,4.23,0.00,0.00,-35.00,0,,,100,99,15,2,0,0,1,1,0,,,,,0.0,0.0,0.0,0.0,0.0,0.0,0
-22.959777,-67.786892,5.10,0.00,3.50,0.42,5.10,5.10,3.60,0.44,3114,2025-11-30 17:15:35.506,2025-11-30 14:15:35.506,16,0,0,51.353,-22.959780,-67.786896,0.00,0.00,-3.50,1.50,-1.10,91.10,0,1,0,100,89,-43461,14111,51353,2961.50,46,WP,1,0,0,0,0,0,0,1764522935506,4339,4337,4338,4337,4344,4332,18,,,,,,,0,0,0,-15.00,-11.00,911.00,0.00,4.00,49.00,14,51.00,35.00,4.18,0.00,0.00,-35.00,0,,,100,99,15,2,0,0,1,1,0,,,,,0.0,0.0,0.0,0.0,0.0,0.0,0
-22.959777,-67.786892,5.70,0.00,3.20,0.41,5.70,5.70,3.60,0.44,3315,2025-11-30 17:15:35.708,2025-11-30 14:15:35.708,16,0,0,48.319,-22.959780,-67.786896,0.00,0.00,-3.20,0.90,0.80,91.30,0,1,0,99,89,-49735,14023,48319,2961.50,46,WP,1,0,0,0,0,0,0,1764522935707,4339,4337,4338,4337,4344,4332,18,,,,,,,0,0,0,-9.00,8.00,913.00,0.00,4.00,49.00,14,57.00,32.00,4.15,0.00,0.00,-32.00,0,,,100,98,15,2,0,0,1,1,0,,,,,0.0,0.0,0.0,0.0,0.0,0.0,0
-22.959777,-67.786892,6.00,0.00,3.10,0.43,6.00,6.00,3.60,0.44,3420,2025-11-30 17:15:35.812,2025-11-30 14:15:35.812,16,0,0,48.319,-22.959780,-67.786896,0.00,0.00,-3.10,0.50,1.80,91.40,0,1,0,99,89,-49735,14023,48319,2961.50,46,WP,1,0,0,0,0,0,0,1764522935812,4339,4337,4338,4337,4344,4332,18,,,,,,,0,0,0,-5.00,18.00,914.00,0.00,4.00,48.00,14,60.00,31.00,4.26,0.00,0.00,-31.00,0,,,100,98,15,2,0,0,1,1,0,,,,,0.0,0.0,0.0,0.0,0.0,0.0,0
-22.959777,-67.786893,6.30,0.00,3.10,0.43,6.30,6.30,3.60,0.44,3517,2025-11-30 17:15:35.910,2025-11-30 14:15:35.910,16,0,0,48.319,-22.959780,-67.786896,0.00,0.00,-3.10,0.30,2.10,91.50,0,1,0,99,89,-49735,14023,48319,2961.50,46,WP,1,0,0,0,0,0,0,1764522935909,4339,4337,4338,4337,4344,4332,18,,,,,,,0,0,0,-3.00,21.00,915.00,0.00,4.00,47.00,14,63.00,31.00,4.34,0.00,0.00,-31.00,0,,,100,98,15,2,0,0,1,1,0,,,,,0.0,0.0,0.0,0.0,0.0,0.0,0
-22.959777,-67.786893,6.60,0.00,3.00,0.45,6.60,6.60,3.60,0.45,3619,2025-11-30 17:15:36.011,2025-11-30 14:15:36.011,16,0,0,48.319,-22.959780,-67.786896,0.00,0.00,-3.00,0.30,2.10,91.60,0,1,0,99,89,-49735,14023,48319,2961.50,46,WP,1,0,0,0,0,0,0,1764522936011,4339,4337,4338,4337,4344,4332,18,,,,,,,0,0,0,-3.00,21.00,916.00,0.00,4.00,46.00,14,66.00,30.00,4.50,0.00,0.00,-30.00,0,,,100,98,15,2,0,0,1,1,0,,,,,0.0,0.0,0.0,0.0,0.0,0.0,0
-22.959777,-67.786893,6.90,0.00,2.90,0.46,6.90,6.90,3.60,0.46,3722,2025-11-30 17:15:36.115,2025-11-30 14:15:36.115,16,0,0,48.319,-22.959780,-67.786896,0.00,0.00,-2.90,0.40,2.00,91.50,0,1,0,99,89,-49735,14023,48319,2961.50,46,WP,1,0,0,0,0,0,0,1764522936114,4339,4337,4338,4337,4344,4332,18,,,,,,,0,0,0,-4.00,20.00,915.00,0.00,4.00,45.00,14,69.00,29.00,4.58,0.00,0.00,-29.00,0,,,100,99,15,2,0,0,1,1,0,,,,,0.0,0.0,0.0,0.0,0.0,0.0,0
-22.959776,-67.786893,7.20,0.00,2.90,0.47,7.20,7.20,3.60,0.47,3819,2025-11-30 17:15:36.212,2025-11-30 14:15:36.212,16,0,0,48.319,-22.959780,-67.786896,0.00,0.00,-2.90,0.50,1.80,91.50,0,1,0,99,89,-49735,14023,48319,2961.50,46,WP,1,0,0,0,0,0,0,1764522936211,4339,4337,4338,4337,4344,4332,18,,,,,,,0,0,0,-5.00,18.00,915.00,0.00,4.00,45.00,14,72.00,29.00,4.72,0.00,0.00,-29.00,0,,,100,99,15,2,0,0,1,1,0,,,,,0.0,0.0,0.0,0.0,0.0,0.0,0
-22.959776,-67.786893,7.50,0.00,2.90,0.48,7.50,7.50,3.60,0.48,3929,2025-11-30 17:15:36.321,2025-11-30 14:15:36.321,16,0,0,48.319,-22.959780,-67.786896,0.00,0.00,-2.90,0.80,1.30,91.40,0,1,0,99,89,-49735,14023,48319,2961.50,46,WP,1,0,0,0,0,0,0,1764522936321,4339,4337,4338,4337,4344,4332,18,,,,,,,0,0,0,-8.00,13.00,914.00,0.00,4.00,46.00,14,75.00,29.00,4.82,0.00,0.00,-29.00,0,,,100,99,15,2,0,0,1,1,0,,,,,0.0,0.0,0.0,0.0,0.0,0.0,0
-22.959776,-67.786893,7.80,0.00,2.90,0.50,7.80,7.80,3.60,0.50,4023,2025-11-30 17:15:36.415,2025-11-30 14:15:36.416,16,0,0,48.319,-22.959780,-67.786896,0.00,0.00,-2.90,1.10,1.20,91.40,0,1,0,99,89,-49735,14023,48319,2961.50,46,WP,1,0,0,0,0,0,0,1764522936415,4339,4337,4338,4337,4344,4332,18,,,,,,,0,0,0,-11.00,12.00,914.00,0.00,4.00,46.00,14,78.00,29.00,4.96,0.00,0.00,-29.00,0,,,100,99,15,2,0,0,1,1,0,,,,,0.0,0.0,0.0,0.0,0.0,0.0,0
-22.959776,-67.786892,8.10,0.00,3.00,0.51,8.10,8.10,3.60,0.51,4128,2025-11-30 17:15:36.521,2025-11-30 14:15:36.521,16,0,0,48.319,-22.959780,-67.786896,0.00,0.00,-3.00,1.30,1.50,91.50,0,1,0,99,89,-49735,14023,48319,2961.50,46,WP,1,0,0,0,0,0,0,1764522936520,4339,4337,4338,4337,4344,4332,18,,,,,,,0,0,0,-13.00,15.00,915.00,0.00,4.00,47.00,14,81.00,30.00,5.07,0.00,0.00,-30.00,0,,,100,99,15,2,0,0,1,1,0,,,,,0.0,0.0,0.0,0.0,0.0,0.0,0
-22.959776,-67.786892,8.80,0.00,3.10,0.52,8.80,8.80,3.60,0.52,4327,2025-11-30 17:15:36.720,2025-11-30 14:15:36.720,16,0,0,48.319,-22.959780,-67.786896,0.00,0.00,-3.10,1.20,2.60,91.50,0,1,0,99,89,-49735,14023,48319,2961.50,46,WP,1,0,0,0,0,0,0,1764522936719,4339,4337,4338,4337,4344,4332,18,,,,,,,0,0,0,-12.00,26.00,915.00,0.00,4.00,46.00,14,88.00,31.00,5.23,0.00,0.00,-31.00,0,,,100,97,15,2,0,0,1,1,0,,,,,0.0,0.0,0.0,0.0,0.0,0.0,0
-22.959776,-67.786892,9.10,0.00,3.10,0.53,9.10,9.10,3.60,0.53,4430,2025-11-30 17:15:36.823,2025-11-30 14:15:36.823,16,0,0,48.319,-22.959780,-67.786896,0.00,0.00,-3.10,1.30,2.90,91.50,0,1,0,99,89,-49735,14023,48319,2961.50,46,WP,1,0,0,0,0,0,0,1764522936822,4339,4337,4338,4337,4344,4332,18,,,,,,,0,0,0,-13.00,29.00,915.00,0.00,3.00,46.00,14,91.00,31.00,5.31,0.00,0.00,-31.00,0,,,100,97,15,2,0,0,1,1,0,,,,,0.0,0.0,0.0,0.0,0.0,0.0,0
-22.959776,-67.786892,9.40,0.00,3.10,0.53,9.40,9.40,3.60,0.53,4438,2025-11-30 17:15:36.830,2025-11-30 14:15:36.830,16,0,0,48.319,-22.959780,-67.786896,0.00,0.00,-3.10,1.40,3.00,91.50,0,1,0,99,89,-49735,14023,48319,2961.50,46,WP,1,0,0,0,0,0,0,1764522936830,4339,4337,4338,4337,4344,4332,18,,,,,,,0,0,0,-14.00,30.00,915.00,0.00,4.00,46.00,14,94.00,31.00,5.34,0.00,0.00,-31.00,0,,,100,97,15,2,0,0,1,1,0,,,,,0.0,0.0,0.0,0.0,0.0,0.0,0
-22.959776,-67.786892,9.70,0.00,3.10,0.53,9.70,9.70,3.60,0.53,4646,2025-11-30 17:15:37.038,2025-11-30 14:15:37.038,16,0,0,48.319,-22.959780,-67.786896,0.00,0.00,-3.10,1.50,2.80,91.50,0,1,0,99,89,-49735,14023,48319,2961.50,46,WP,1,0,0,0,0,0,0,1764522937038,4339,4337,4338,4337,4344,4332,18,,,,,,,0,0,0,-15.00,28.00,915.00,0.00,4.00,46.00,14,97.00,31.00,5.34,0.00,0.00,-31.00,0,,,100,97,15,2,0,0,1,1,0,,,,,0.0,0.0,0.0,0.0,0.0,0.0,0
-22.959776,-67.786892,10.10,0.00,3.10,0.53,10.10,10.10,3.60,0.53,4650,2025-11-30 17:15:37.042,2025-11-30 14:15:37.042,16,0,0,48.319,-22.959780,-67.786896,-0.10,0.00,-3.10,1.60,2.70,91.40,0,1,0,99,89,-49735,14023,48319,2961.50,46,WP,1,0,0,0,0,0,0,1764522937042,4339,4337,4338,4337,4344,4332,18,,,,,,,0,0,0,-16.00,27.00,914.00,0.00,3.00,46.00,14,101.00,31.02,5.32,-1.00,0.00,-31.00,0,,,100,97,15,2,0,0,1,1,0,,,,,0.0,0.0,0.0,0.0,0.0,0.0,0
-22.959776,-67.786892,10.40,0.00,3.10,0.53,10.40,10.40,3.60,0.53,4828,2025-11-30 17:15:37.221,2025-11-30 14:15:37.221,16,0,0,48.319,-22.959780,-67.786896,-0.10,0.00,-3.10,1.70,2.50,91.40,0,1,0,99,89,-49735,14023,48319,2961.50,46,WP,1,0,0,0,0,0,0,1764522937220,4339,4337,4338,4337,4344,4332,18,,,,,,,0,0,0,-17.00,25.00,914.00,0.00,3.00,47.00,14,104.00,31.02,5.27,-1.00,0.00,-31.00,0,,,100,97,15,2,0,0,1,1,0,,,,,0.0,0.0,0.0,0.0,0.0,0.0,0
-22.959776,-67.786892,10.70,0.00,3.10,0.52,10.70,10.70,3.60,0.53,4931,2025-11-30 17:15:37.323,2025-11-30 14:15:37.324,16,0,0,48.319,-22.959780,-67.786896,-0.10,0.10,-3.10,1.90,2.20,91.40,0,1,0,99,89,-49735,14023,48319,2961.50,46,WP,1,0,0,0,0,0,0,1764522937323,4339,4337,4338,4337,4344,4332,18,,,,,,,0,0,0,-19.00,22.00,914.00,0.00,3.00,48.00,14,107.00,31.03,5.22,-1.00,1.00,-31.00,0,,,100,97,15,2,0,0,1,1,0,,,,,0.0,0.0,0.0,0.0,0.0,0.0,0
-22.959776,-67.786892,11.00,0.00,3.11,0.51,11.00,11.00,3.60,0.53,5031,2025-11-30 17:15:37.424,2025-11-30 14:15:37.424,16,0,0,48.319,-22.959780,-67.786896,-0.20,0.10,-3.10,2.10,1.70,91.60,0,1,0,99,89,-49735,14023,48319,2961.50,46,WP,1,0,0,0,0,0,0,1764522937423,4339,4337,4338,4337,4344,4332,18,,,,,,,0,0,0,-21.00,17.00,916.00,0.00,3.00,47.00,14,110.00,31.08,5.14,-2.00,1.00,-31.00,0,,,100,97,15,2,0,0,1,1,0,,,,,0.0,0.0,0.0,0.0,0.0,0.0,0
-22.959777,-67.786892,11.40,0.00,3.01,0.51,11.40,11.40,3.60,0.53,5130,2025-11-30 17:15:37.523,2025-11-30 14:15:37.523,16,0,0,47.312,-22.959780,-67.786896,-0.20,0.10,-3.00,2.20,1.00,91.70,0,1,0,99,89,-68972,14023,47312,2961.50,46,WP,1,0,0,0,0,0,0,1764522937522,4339,4337,4338,4337,4344,4332,18,,,,,,,0,0,0,-22.00,10.00,917.00,0.00,4.00,46.00,14,114.00,30.08,5.08,-2.00,1.00,-30.00,0,,,100,97,15,2,0,0,1,1,0,,,,,0.0,0.0,0.0,0.0,0.0,0.0,0
-22.959777,-67.786891,12.00,0.00,3.01,0.50,12.00,12.00,3.60,0.53,5234,2025-11-30 17:15:37.626,2025-11-30 14:15:37.626,16,0,0,47.312,-22.959780,-67.786896,-0.20,0.10,-3.00,2.30,0.50,91.60,0,1,0,99,89,-68972,14023,47312,2961.50,46,WP,1,0,0,0,0,0,0,1764522937626,4339,4337,4338,4337,4344,4332,18,,,,,,,0,0,0,-23.00,5.00,916.00,0.00,3.00,44.00,14,120.00,30.08,4.98,-2.00,1.00,-30.00,0,,,100,97,15,2,0,0,1,1,0,,,,,0.0,0.0,0.0,0.0,0.0,0.0,0
-22.959777,-67.786891,12.30,0.00,3.01,0.50,12.30,12.30,3.60,0.53,5336,2025-11-30 17:15:37.729,2025-11-30 14:15:37.729,16,0,0,47.312,-22.959780,-67.786896,-0.20,0.10,-3.00,2.60,0.30,91.60,0,1,0,99,89,-68972,14023,47312,2961.50,46,WP,1,0,0,0,0,0,0,1764522937728,4339,4337,4338,4337,4344,4332,18,,,,,,,0,0,0,-26.00,3.00,916.00,0.00,3.00,45.00,14,123.00,30.08,5.00,-2.00,1.00,-30.00,0,,,100,97,15,2,0,0,1,1,0,,,,,0.0,0.0,0.0,0.0,0.0,0.0,0
-22.959778,-67.786891,12.60,0.00,2.91,0.50,12.60,12.60,3.60,0.53,5534,2025-11-30 17:15:37.927,2025-11-30 14:15:37.927,16,0,0,47.312,-22.959780,-67.786896,-0.20,0.10,-2.90,2.70,0.00,91.60,0,1,0,99,89,-68972,14023,47312,2961.50,46,WP,1,0,0,0,0,0,0,1764522937926,4339,4337,4338,4337,4344,4332,18,,,,,,,0,0,0,-27.00,0.00,916.00,0.00,3.00,45.00,14,126.00,29.09,5.02,-2.00,1.00,-29.00,0,,,100,97,15,2,0,0,1,1,0,,,,,0.0,0.0,0.0,0.0,0.0,0.0,0
-22.959778,-67.786891,12.90,0.00,2.91,0.50,12.90,12.90,3.60,0.53,5548,2025-11-30 17:15:37.941,2025-11-30 14:15:37.941,16,0,0,47.312,-22.959780,-67.786896,-0.20,0.10,-2.90,2.90,-0.30,91.70,0,1,0,99,89,-68972,14023,47312,2961.50,46,WP,1,0,0,0,0,0,0,1764522937940,4339,4337,4338,4337,4344,4332,18,,,,,,,0,0,0,-29.00,-3.00,917.00,0.00,3.00,45.00,14,129.00,29.09,5.05,-2.00,1.00,-29.00,0,,,100,97,15,2,0,0,1,1,0,,,,,0.0,0.0,0.0,0.0,0.0,0.0,0
-22.959778,-67.786891,13.20,0.00,2.91,0.51,13.20,13.20,3.60,0.53,5736,2025-11-30 17:15:38.128,2025-11-30 14:15:38.129,16,0,0,47.312,-22.959780,-67.786896,-0.20,0.10,-2.90,3.10,-0.50,91.70,0,1,0,99,89,-68972,14023,47312,2961.50,46,WP,1,0,0,0,0,0,0,1764522938128,4339,4337,4338,4337,4344,4332,18,,,,,,,0,0,0,-31.00,-5.00,917.00,0.00,3.00,45.00,14,132.00,29.09,5.09,-2.00,1.00,-29.00,0,,,100,97,15,2,0,0,1,1,0,,,,,0.0,0.0,0.0,0.0,0.0,0.0,0
-22.959778,-67.786891,13.50,0.00,2.90,0.52,13.50,13.50,3.60,0.53,5749,2025-11-30 17:15:38.141,2025-11-30 14:15:38.142,16,0,0,47.312,-22.959780,-67.786896,-0.10,0.10,-2.90,3.30,-0.80,91.70,0,1,0,99,89,-68972,14023,47312,2961.50,46,WP,1,0,0,0,0,0,0,1764522938141,4339,4337,4338,4337,4344,4332,18,,,,,,,0,0,0,-33.00,-8.00,917.00,0.00,4.00,44.00,14,135.00,29.03,5.17,-1.00,1.00,-29.00,0,,,100,97,15,2,0,0,1,1,0,,,,,0.0,0.0,0.0,0.0,0.0,0.0,0
-22.959778,-67.786891,13.80,0.00,2.90,0.52,13.80,13.80,3.60,0.53,5840,2025-11-30 17:15:38.232,2025-11-30 14:15:38.232,16,0,0,47.312,-22.959780,-67.786896,-0.10,0.00,-2.90,3.60,-1.10,91.60,0,1,0,99,89,-68972,14023,47312,2961.50,46,WP,1,0,0,0,0,0,0,1764522938232,4339,4337,4338,4337,4344,4332,18,,,,,,,0,0,0,-36.00,-11.00,916.00,0.00,4.00,44.00,14,138.00,29.02,5.24,-1.00,0.00,-29.00,0,,,100,100,15,2,0,0,1,1,0,,,,,0.0,0.0,0.0,0.0,0.0,0.0,0
-22.959778,-67.786891,14.10,0.00,2.90,0.53,14.10,14.10,3.60,0.53,5944,2025-11-30 17:15:38.336,2025-11-30 14:15:38.336,16,0,0,47.312,-22.959780,-67.786896,0.00,0.00,-2.90,3.60,-1.00,91.50,0,1,0,99,89,-68972,14023,47312,2961.50,46,WP,1,0,0,0,0,0,0,1764522938336,4339,4337,4338,4337,4344,4332,18,,,,,,,0,0,0,-36.00,-10.00,915.00,0.00,4.00,45.00,14,141.00,29.00,5.28,0.00,0.00,-29.00,0,,,100,100,15,2,0,0,1,1,0,,,,,0.0,0.0,0.0,0.0,0.0,0.0,0
-22.959778,-67.786891,15.00,0.00,3.00,0.54,15.00,15.00,3.60,0.54,6244,2025-11-30 17:15:38.636,2025-11-30 14:15:38.636,16,0,0,47.312,-22.959780,-67.786896,0.00,0.00,-3.00,3.20,-0.30,91.50,0,1,0,99,89,-68972,14023,47312,2961.50,46,WP,1,0,0,0,0,0,0,1764522938636,4339,4337,4338,4337,4344,4332,18,,,,,,,0,0,0,-32.00,-3.00,915.00,0.00,4.00,46.00,14,150.00,30.00,5.43,0.00,0.00,-30.00,0,,,100,100,15,2,0,0,1,1,0,,,,,0.0,0.0,0.0,0.0,0.0,0.0,0
-22.959778,-67.786891,15.30,0.00,3.00,0.55,15.30,15.30,3.60,0.55,6347,2025-11-30 17:15:38.739,2025-11-30 14:15:38.739,16,0,0,47.312,-22.959780,-67.786896,0.10,0.00,-3.00,3.10,0.00,91.60,0,1,0,99,89,-68972,14023,47312,2961.50,46,WP,1,0,0,0,0,0,0,1764522938739,4339,4337,4338,4337,4344,4332,18,,,,,,,0,0,0,-31.00,0.00,916.00,0.00,3.00,46.00,14,153.00,30.02,5.48,1.00,0.00,-30.00,0,,,100,100,15,2,0,0,1,1,0,,,,,0.0,0.0,0.0,0.0,0.0,0.0,0
-22.959778,-67.786891,15.60,0.00,3.00,0.55,15.60,15.60,3.60,0.55,6448,2025-11-30 17:15:38.841,2025-11-30 14:15:38.841,16,0,0,47.312,-22.959780,-67.786896,0.10,0.00,-3.00,3.20,0.90,91.60,0,1,0,99,89,-68972,14023,47312,2961.50,46,WP,1,0,0,0,0,0,0,1764522938840,4339,4337,4338,4337,4344,4332,18,,,,,,,0,0,0,-32.00,9.00,916.00,0.00,4.00,45.00,14,156.00,30.02,5.55,1.00,0.00,-30.00,0,,,100,100,15,2,0,0,1,1,0,,,,,0.0,0.0,0.0,0.0,0.0,0.0,0
-22.959777,-67.786891,15.90,0.00,2.90,0.56,15.90,15.90,3.60,0.56,6548,2025-11-30 17:15:38.941,2025-11-30 14:15:38.941,16,0,0,47.312,-22.959780,-67.786896,0.10,0.00,-2.90,3.50,1.90,91.60,0,1,0,99,89,-68972,14023,47312,2961.50,46,WP,1,0,0,0,0,0,0,1764522938940,4339,4337,4338,4337,4344,4332,18,,,,,,,0,0,0,-35.00,19.00,916.00,0.00,4.00,45.00,14,159.00,29.02,5.64,1.00,0.00,-29.00,0,,,100,100,15,2,0,0,1,1,0,,,,,0.0,0.0,0.0,0.0,0.0,0.0,0
-22.959777,-67.786891,16.20,0.00,2.80,0.57,16.20,16.20,3.60,0.57,6645,2025-11-30 17:15:39.037,2025-11-30 14:15:39.037,16,0,0,47.312,-22.959780,-67.786896,0.10,0.00,-2.80,3.80,3.00,91.60,0,1,0,99,89,-68972,14023,47312,2961.50,46,WP,1,0,0,0,0,0,0,1764522939037,4339,4337,4338,4337,4344,4332,18,,,,,,,0,0,0,-38.00,30.00,916.00,0.00,3.00,45.00,14,162.00,28.02,5.74,1.00,0.00,-28.00,0,,,100,100,15,2,0,0,1,1,0,,,,,0.0,0.0,0.0,0.0,0.0,0.0,0
-22.959777,-67.786891,16.50,0.00,2.70,0.58,16.50,16.50,3.60,0.58,6749,2025-11-30 17:15:39.142,2025-11-30 14:15:39.142,16,0,0,47.312,-22.959780,-67.786896,0.10,0.00,-2.70,4.30,3.70,91.60,0,1,0,99,89,-68972,14023,47312,2961.50,46,WP,1,0,0,0,0,0,0,1764522939141,4339,4337,4338,4337,4344,4332,18,,,,,,,0,0,0,-43.00,37.00,916.00,0.00,4.00,45.00,14,165.00,27.02,5.81,1.00,0.00,-27.00,0,,,100,100,15,2,0,0,1,1,0,,,,,0.0,0.0,0.0,0.0,0.0,0.0,0
-22.959777,-67.786891,16.80,0.00,2.50,0.59,16.80,16.80,3.60,0.59,6849,2025-11-30 17:15:39.242,2025-11-30 14:15:39.242,16,0,0,47.312,-22.959780,-67.786896,0.00,0.00,-2.50,4.40,4.10,91.70,0,1,0,99,89,-68972,14023,47312,2961.50,46,WP,1,0,0,0,0,0,0,1764522939241,4339,4337,4338,4337,4344,4332,18,,,,,,,0,0,0,-44.00,41.00,917.00,0.00,4.00,45.00,14,168.00,25.00,5.88,0.00,0.00,-25.00,0,,,100,99,15,2,0,0,1,1,0,,,,,0.0,0.0,0.0,0.0,0.0,0.0,0
-22.959777,-67.786891,17.00,0.00,2.30,0.59,17.00,17.00,3.60,0.59,6949,2025-11-30 17:15:39.342,2025-11-30 14:15:39.342,16,0,0,47.312,-22.959780,-67.786896,0.00,0.00,-2.30,4.70,4.20,91.70,0,1,0,99,89,-68972,14023,47312,2961.50,46,WP,1,0,0,0,0,0,0,1764522939341,4339,4337,4338,4337,4344,4332,18,,,,,,,0,0,0,-47.00,42.00,917.00,0.00,3.00,44.00,14,170.00,23.00,5.93,0.00,0.00,-23.00,0,,,100,99,15,2,0,0,1,1,0,,,,,0.0,0.0,0.0,0.0,0.0,0.0,0
-22.959777,-67.786891,17.70,0.00,1.80,0.59,17.70,17.70,3.60,0.59,7247,2025-11-30 17:15:39.640,2025-11-30 14:15:39.640,16,0,0,47.384,-22.959780,-67.786896,0.00,0.00,-1.80,4.40,4.10,91.50,0,1,0,97,89,-55765,13828,47384,2961.50,46,WP,1,0,0,0,0,0,0,1764522939639,4339,4337,4338,4337,4344,4332,18,,,,,,,0,0,0,-44.00,41.00,915.00,0.00,3.00,46.00,14,177.00,18.00,5.88,0.00,0.00,-18.00,0,,,100,99,15,2,0,0,1,1,0,,,,,0.0,0.0,0.0,0.0,0.0,0.0,0
-22.959777,-67.786891,17.90,0.00,1.60,0.57,17.90,17.90,3.60,0.59,7349,2025-11-30 17:15:39.742,2025-11-30 14:15:39.742,16,0,0,47.384,-22.959780,-67.786896,-0.10,0.00,-1.60,3.90,3.80,91.60,0,1,0,97,89,-55765,13828,47384,2961.50,46,WP,1,0,0,0,0,0,0,1764522939741,4339,4337,4338,4337,4344,4332,18,,,,,,,0,0,0,-39.00,38.00,916.00,-1.00,3.00,46.00,14,179.00,16.03,5.73,-1.00,0.00,-16.00,0,,,100,99,15,2,0,0,1,1,0,,,,,0.0,0.0,0.0,0.0,0.0,0.0,0
-22.959777,-67.786891,18.00,0.00,1.41,0.55,18.00,18.00,3.60,0.59,7453,2025-11-30 17:15:39.846,2025-11-30 14:15:39.846,16,0,0,47.384,-22.959780,-67.786896,-0.10,-0.10,-1.40,3.80,3.50,91.70,0,1,0,97,89,-55765,13828,47384,2961.50,46,WP,1,0,0,0,0,0,0,1764522939845,4339,4337,4338,4337,4344,4332,18,,,,,,,0,0,0,-38.00,35.00,917.00,-1.00,3.00,45.00,14,180.00,14.07,5.54,-1.00,-1.00,-14.00,0,,,100,99,15,2,0,0,1,1,0,,,,,0.0,0.0,0.0,0.0,0.0,0.0,0
-22.959777,-67.786891,18.20,0.00,1.32,0.53,18.20,18.20,3.60,0.59,7548,2025-11-30 17:15:39.941,2025-11-30 14:15:39.941,16,0,0,47.384,-22.959780,-67.786896,-0.20,-0.10,-1.30,3.80,2.80,91.60,0,1,0,97,89,-55765,13828,47384,2961.50,46,WP,1,0,0,0,0,0,0,1764522939940,4339,4337,4338,4337,4344,4332,18,,,,,,,0,0,0,-38.00,28.00,916.00,-1.00,3.00,45.00,14,182.00,13.19,5.30,-2.00,-1.00,-13.00,0,,,100,99,15,2,0,0,1,1,0,,,,,0.0,0.0,0.0,0.0,0.0,0.0,0
-22.959777,-67.786891,18.40,0.00,1.22,0.51,18.40,18.40,3.60,0.59,7650,2025-11-30 17:15:40.043,2025-11-30 14:15:40.043,16,0,0,47.384,-22.959780,-67.786896,-0.20,-0.10,-1.20,3.90,1.90,91.60,0,1,0,97,89,-55765,13828,47384,2961.50,46,WP,1,0,0,0,0,0,0,1764522940042,4339,4337,4338,4337,4344,4332,18,,,,,,,0,0,0,-39.00,19.00,916.00,0.00,3.00,45.00,14,184.00,12.21,5.07,-2.00,-1.00,-12.00,0,,,100,99,15,2,0,0,1,1,0,,,,,0.0,0.0,0.0,0.0,0.0,0.0,0
-22.959778,-67.786891,18.50,0.00,1.22,0.48,18.50,18.50,3.60,0.59,7754,2025-11-30 17:15:40.146,2025-11-30 14:15:40.146,16,0,0,47.384,-22.959780,-67.786896,-0.20,-0.10,-1.20,4.20,0.90,91.60,0,1,0,97,89,-55765,13828,47384,2961.50,46,WP,1,0,0,0,0,0,0,1764522940146,4339,4337,4338,4337,4344,4332,18,,,,,,,0,0,0,-42.00,9.00,916.00,0.00,3.00,45.00,14,185.00,12.21,4.84,-2.00,-1.00,-12.00,0,,,100,99,15,2,0,0,1,1,0,,,,,0.0,0.0,0.0,0.0,0.0,0.0,0
-22.959778,-67.786892,18.80,0.00,1.12,0.44,18.80,18.80,3.60,0.59,7953,2025-11-30 17:15:40.345,2025-11-30 14:15:40.345,16,0,0,47.384,-22.959780,-67.786896,-0.20,-0.10,-1.10,4.70,-0.20,91.50,0,1,0,97,89,-55765,13828,47384,2961.50,46,WP,1,0,0,0,0,0,0,1764522940345,4339,4337,4338,4337,4344,4332,18,,,,,,,0,0,0,-47.00,-2.00,915.00,0.00,4.00,46.00,14,188.00,11.22,4.37,-2.00,-1.00,-11.00,0,,,100,99,15,2,0,0,1,1,0,,,,,0.0,0.0,0.0,0.0,0.0,0.0,0
-22.959778,-67.786892,18.90,0.00,1.02,0.41,18.90,18.90,3.60,0.59,8055,2025-11-30 17:15:40.447,2025-11-30 14:15:40.447,16,0,0,47.384,-22.959780,-67.786896,-0.10,-0.20,-1.00,4.40,0.00,91.50,0,1,0,97,89,-55765,13828,47384,2961.50,46,WP,1,0,0,0,0,0,0,1764522940447,4339,4337,4338,4337,4344,4332,18,,,,,,,0,0,0,-44.00,0.00,915.00,0.00,4.00,46.00,14,189.00,10.25,4.09,-1.00,-2.00,-10.00,0,,,100,99,15,2,0,0,1,1,0,,,,,0.0,0.0,0.0,0.0,0.0,0.0,0
-22.959779,-67.786892,19.20,0.00,1.12,0.35,19.20,19.20,3.60,0.59,8261,2025-11-30 17:15:40.654,2025-11-30 14:15:40.654,16,0,0,47.384,-22.959780,-67.786896,-0.10,-0.20,-1.10,2.10,0.70,91.60,0,1,0,97,89,-55765,13828,47384,2961.50,46,WP,1,0,0,0,0,0,0,1764522940653,4339,4337,4338,4337,4344,4332,18,,,,,,,0,0,0,-21.00,7.00,916.00,0.00,4.00,46.00,14,192.00,11.22,3.51,-1.00,-2.00,-11.00,0,,,100,99,15,2,0,0,1,1,0,,,,,0.0,0.0,0.0,0.0,0.0,0.0,0
-22.959779,-67.786893,19.30,0.00,1.12,0.33,19.30,19.30,3.60,0.59,8365,2025-11-30 17:15:40.758,2025-11-30 14:15:40.758,16,0,0,47.384,-22.959780,-67.786896,0.00,-0.20,-1.10,1.20,0.80,91.50,0,1,0,97,89,-55765,13828,47384,2961.50,46,WP,1,0,0,0,0,0,0,1764522940757,4339,4337,4338,4337,4344,4332,18,,,,,,,0,0,0,-12.00,8.00,915.00,0.00,4.00,45.00,14,193.00,11.18,3.27,0.00,-2.00,-11.00,0,,,100,99,15,2,0,0,1,1,0,,,,,0.0,0.0,0.0,0.0,0.0,0.0,0
-22.959779,-67.786893,19.40,0.00,1.00,0.30,19.40,19.40,3.60,0.59,8465,2025-11-30 17:15:40.858,2025-11-30 14:15:40.858,16,0,0,47.384,-22.959780,-67.786896,0.00,-0.10,-1.00,0.90,0.70,91.40,0,1,0,97,89,-55765,13828,47384,2961.50,46,WP,1,0,0,0,0,0,0,1764522940857,4339,4337,4338,4337,4344,4332,18,,,,,,,0,0,0,-9.00,7.00,914.00,-1.00,4.00,46.00,14,194.00,10.05,3.04,0.00,-1.00,-10.00,0,,,100,99,15,2,0,0,1,1,0,,,,,0.0,0.0,0.0,0.0,0.0,0.0,0
-22.959779,-67.786893,19.50,0.00,1.00,0.29,19.50,19.50,3.60,0.59,8566,2025-11-30 17:15:40.958,2025-11-30 14:15:40.958,16,0,0,47.384,-22.959780,-67.786896,0.00,-0.10,-1.00,1.00,0.70,91.50,0,1,0,97,89,-55765,13828,47384,2961.50,46,WP,1,0,0,0,0,0,0,1764522940958,4339,4337,4338,4337,4344,4332,18,,,,,,,0,0,0,-10.00,7.00,915.00,-1.00,4.00,46.00,14,195.00,10.05,2.93,0.00,-1.00,-10.00,0,,,100,99,15,2,0,0,1,1,0,,,,,0.0,0.0,0.0,0.0,0.0,0.0,0
-22.959779,-67.786893,19.70,0.00,1.00,0.28,19.70,19.70,3.60,0.59,8654,2025-11-30 17:15:41.047,2025-11-30 14:15:41.047,16,0,0,47.384,-22.959780,-67.786896,0.00,-0.10,-1.00,1.60,0.80,91.50,0,1,0,97,89,-55765,13828,47384,2961.50,46,WP,1,0,0,0,0,0,0,1764522941046,4339,4337,4338,4337,4344,4332,18,,,,,,,0,0,0,-16.00,8.00,915.00,0.00,4.00,46.00,14,197.00,10.05,2.81,0.00,-1.00,-10.00,0,,,100,99,15,2,0,0,1,1,0,,,,,0.0,0.0,0.0,0.0,0.0,0.0,0
-22.959778,-67.786893,19.80,0.00,0.91,0.27,19.80,19.80,3.60,0.59,8765,2025-11-30 17:15:41.157,2025-11-30 14:15:41.157,16,0,0,47.384,-22.959780,-67.786896,0.00,-0.10,-0.90,2.00,1.00,92.10,0,1,0,97,89,-55765,13828,47384,2961.50,46,WP,1,0,0,0,0,0,0,1764522941157,4339,4337,4338,4337,4344,4332,18,,,,,,,0,0,0,-20.00,10.00,921.00,0.00,3.00,47.00,14,198.00,9.06,2.73,0.00,-1.00,-9.00,0,,,100,99,15,2,0,0,1,1,0,,,,,0.0,0.0,0.0,0.0,0.0,0.0,0
-22.959778,-67.786893,19.90,0.00,0.70,0.26,19.90,19.90,3.60,0.59,8865,2025-11-30 17:15:41.258,2025-11-30 14:15:41.258,16,0,0,47.384,-22.959780,-67.786896,0.00,0.00,-0.70,1.90,1.20,96.30,0,1,0,97,89,-55765,13828,47384,2961.50,46,WP,1,0,0,0,0,0,0,1764522941257,4339,4337,4338,4337,4344,4332,18,,,,,,,0,0,0,-19.00,12.00,963.00,0.00,3.00,42.00,14,199.00,7.00,2.64,0.00,0.00,-7.00,0,,,100,99,15,2,0,0,1,1,0,,,,,0.0,0.0,0.0,0.0,0.0,0.0,0
-22.959778,-67.786893,19.90,0.00,0.50,0.27,19.90,19.90,3.60,0.59,8964,2025-11-30 17:15:41.357,2025-11-30 14:15:41.357,16,0,0,47.384,-22.959780,-67.786896,0.00,0.00,-0.50,1.20,1.60,103.30,0,1,0,97,89,-55765,13828,47384,2961.50,46,WP,1,0,0,0,0,0,0,1764522941356,4339,4337,4338,4337,4344,4332,18,,,,,,,0,0,0,-12.00,16.00,1033.00,0.00,3.00,3.00,14,199.00,5.00,2.71,0.00,0.00,-5.00,0,,,100,99,15,2,0,0,1,1,0,,,,,0.0,0.0,0.0,0.0,0.0,0.0,0
-22.959778,-67.786893,20.00,0.00,0.20,0.27,20.00,20.00,3.60,0.59,9065,2025-11-30 17:15:41.457,2025-11-30 14:15:41.458,16,0,0,47.384,-22.959780,-67.786896,0.00,0.00,-0.20,0.40,1.90,112.60,0,1,0,97,89,-55765,13828,47384,2961.50,46,WP,1,0,0,0,0,0,0,1764522941457,4339,4337,4338,4337,4344,4332,18,,,,,,,0,0,0,-4.00,19.00,1126.00,-1.00,3.00,-65.00,14,200.00,2.00,2.69,0.00,0.00,-2.00,0,,,100,99,15,2,0,0,1,1,0,,,,,0.0,0.0,0.0,0.0,0.0,0.0,0
-22.959778,-67.786893,20.00,0.00,0.00,0.28,20.00,20.00,3.60,0.59,9262,2025-11-30 17:15:41.654,2025-11-30 14:15:41.654,16,0,0,47.906,-22.959780,-67.786896,0.00,0.00,0.00,1.10,1.10,131.30,0,1,0,97,89,-46323,13828,47906,2971.50,46,WP,1,0,0,0,0,0,0,1764522941654,4339,4337,4338,4337,4344,4332,18,,,,,,,0,0,0,-11.00,11.00,1313.00,0.00,3.00,-242.00,14,200.00,0.00,2.81,0.00,0.00,0.00,0,,,100,99,15,2,0,0,1,1,0,,,,,0.0,0.0,0.0,0.0,0.0,0.0,0
-22.959778,-67.786893,20.00,0.00,0.10,0.30,20.00,20.00,3.60,0.59,9365,2025-11-30 17:15:41.758,2025-11-30 14:15:41.758,16,0,0,47.906,-22.959780,-67.786896,0.00,0.00,0.10,1.90,0.10,140.60,0,1,0,97,89,-46323,13828,47906,2971.50,46,WP,1,0,0,0,0,0,0,1764522941757,4339,4337,4338,4337,4344,4332,18,,,,,,,0,0,0,-19.00,1.00,1406.00,-1.00,3.00,-314.00,14,200.00,1.00,3.00,0.00,0.00,1.00,0,,,100,98,15,2,0,0,1,1,0,,,,,0.0,0.0,0.0,0.0,0.0,0.0,0
-22.959778,-67.786893,20.00,0.00,0.10,0.31,20.00,20.00,3.60,0.59,9469,2025-11-30 17:15:41.861,2025-11-30 14:15:41.862,16,0,0,47.906,-22.959780,-67.786896,0.00,0.00,0.10,2.10,-0.40,149.80,0,1,0,97,89,-46323,13828,47906,2971.50,46,WP,1,0,0,0,0,0,0,1764522941861,4339,4337,4338,4337,4344,4332,18,,,,,,,0,0,0,-21.00,-4.00,1498.00,0.00,3.00,-377.00,14,200.00,1.00,3.12,0.00,0.00,1.00,0,,,100,98,15,2,0,0,1,1,0,,,,,0.0,0.0,0.0,0.0,0.0,0.0,0
-22.959777,-67.786893,19.90,0.00,0.14,0.34,20.00,20.00,3.60,0.59,9564,2025-11-30 17:15:41.956,2025-11-30 14:15:41.956,16,0,0,47.906,-22.959780,-67.786896,0.10,0.00,0.10,1.80,-0.70,158.90,0,1,0,97,89,-46323,13828,47906,2971.50,46,WP,1,0,0,0,0,0,0,1764522941956,4339,4337,4338,4337,4344,4332,18,,,,,,,0,0,0,-18.00,-7.00,1589.00,-1.00,3.00,-427.00,14,199.00,1.41,3.37,1.00,0.00,1.00,0,,,100,98,15,2,0,0,1,1,0,,,,,0.0,0.0,0.0,0.0,0.0,0.0,0
-22.959777,-67.786893,19.90,0.00,0.14,0.36,20.00,20.00,3.60,0.59,9679,2025-11-30 17:15:42.071,2025-11-30 14:15:42.071,16,0,0,47.906,-22.959780,-67.786896,0.10,0.00,0.10,1.00,-0.40,166.60,0,1,0,97,89,-46323,13828,47906,2971.50,46,WP,1,0,0,0,0,0,0,1764522942071,4339,4337,4338,4337,4344,4332,18,,,,,,,0,0,0,-10.00,-4.00,1666.00,-1.00,4.00,-464.00,14,199.00,1.41,3.59,1.00,0.00,1.00,0,,,100,98,15,2,0,0,1,1,0,,,,,0.0,0.0,0.0,0.0,0.0,0.0,0
-22.959777,-67.786893,19.90,0.00,0.22,0.40,20.00,20.00,3.60,0.59,9781,2025-11-30 17:15:42.174,2025-11-30 14:15:42.174,16,0,0,47.906,-22.959780,-67.786896,0.20,0.00,0.10,0.50,0.80,172.20,0,1,0,97,89,-46323,13828,47906,2971.50,46,WP,1,0,0,0,0,0,0,1764522942173,4339,4337,4338,4337,4344,4332,18,,,,,,,0,0,0,-5.00,8.00,1722.00,0.00,4.00,-481.00,14,199.00,2.24,4.04,2.00,0.00,1.00,0,,,100,98,15,2,0,0,1,1,0,,,,,0.0,0.0,0.0,0.0,0.0,0.0,0
-22.959776,-67.786893,19.90,0.00,0.20,0.44,20.00,20.00,3.60,0.59,9866,2025-11-30 17:15:42.258,2025-11-30 14:15:42.258,16,0,0,47.906,-22.959780,-67.786896,0.20,0.00,0.00,0.10,2.20,176.00,0,1,0,97,89,-46323,13828,47906,2971.50,46,WP,1,0,0,0,0,0,0,1764522942258,4339,4337,4338,4337,4344,4332,18,,,,,,,0,0,0,-1.00,22.00,1760.00,0.00,3.00,-471.00,14,199.00,2.00,4.42,2.00,0.00,0.00,0,,,100,98,15,2,0,0,1,1,0,,,,,0.0,0.0,0.0,0.0,0.0,0.0,0
-22.959776,-67.786893,20.00,0.00,0.30,0.49,20.00,20.00,3.60,0.59,9969,2025-11-30 17:15:42.362,2025-11-30 14:15:42.362,16,0,0,47.906,-22.959780,-67.786896,0.30,0.00,0.00,-0.30,3.10,178.40,0,1,0,97,89,-46323,13828,47906,2971.50,46,WP,1,0,0,0,0,0,0,1764522942361,3926,3940,3900,3933,3932,3935,18,,,,,,,0,0,0,3.00,31.00,1784.00,0.00,3.00,-443.00,14,200.00,3.00,4.87,3.00,0.00,0.00,0,,,100,98,15,2,0,0,1,1,0,,,,,0.0,0.0,0.0,0.0,0.0,0.0,0
-22.959776,-67.786893,20.10,0.00,0.32,0.52,20.10,20.10,3.60,0.59,10072,2025-11-30 17:15:42.465,2025-11-30 14:15:42.465,16,0,0,47.906,-22.959780,-67.786896,0.30,0.00,-0.10,-0.50,3.30,179.20,0,1,0,97,89,-46323,13828,47906,2971.50,46,WP,1,0,0,0,0,0,0,1764522942464,3926,3940,3900,3933,3932,3935,18,,,,,,,0,0,0,5.00,33.00,1792.00,0.00,2.00,-405.00,14,201.00,3.16,5.25,3.00,0.00,-1.00,0,,,100,98,15,2,0,0,1,1,0,,,,,0.0,0.0,0.0,0.0,0.0,0.0,0
-22.959775,-67.786893,20.10,0.00,0.32,0.61,20.10,20.10,3.60,0.61,10277,2025-11-30 17:15:42.669,2025-11-30 14:15:42.669,16,0,0,47.906,-22.959780,-67.786896,0.30,0.00,-0.10,-4.10,2.70,179.80,0,1,0,97,89,-46323,13828,47906,2971.50,46,WP,1,0,0,0,0,0,0,1764522942669,3926,3940,3900,3933,3932,3935,18,,,,,,,0,0,0,41.00,27.00,1798.00,-1.00,3.00,-313.00,14,201.00,3.16,6.12,3.00,0.00,-1.00,0,,,100,98,15,2,0,0,1,1,0,,,,,0.0,0.0,0.0,0.0,0.0,0.0,0
-22.959774,-67.786893,20.20,0.00,0.22,0.66,20.20,20.20,3.60,0.66,10378,2025-11-30 17:15:42.770,2025-11-30 14:15:42.770,16,0,0,47.906,-22.959780,-67.786896,0.20,0.00,-0.10,-7.70,2.20,179.70,0,1,0,97,89,-46323,13828,47906,2971.50,46,WP,1,0,0,0,0,0,0,1764522942770,3926,3940,3900,3933,3932,3935,18,,,,,,,0,0,0,77.00,22.00,1797.00,-2.00,3.00,-279.00,14,202.00,2.24,6.57,2.00,0.00,-1.00,0,,,100,97,15,2,0,0,1,1,0,,,,,0.0,0.0,0.0,0.0,0.0,0.0,0
-22.959774,-67.786893,20.20,0.00,0.14,0.68,20.20,20.20,3.60,0.68,10481,2025-11-30 17:15:42.873,2025-11-30 14:15:42.874,16,0,0,47.906,-22.959780,-67.786896,0.10,0.00,-0.10,-11.30,1.60,179.70,0,1,0,97,89,-46323,13828,47906,2971.50,46,WP,1,0,0,0,0,0,0,1764522942873,3926,3940,3900,3933,3932,3935,18,,,,,,,0,0,0,113.00,16.00,1797.00,-2.00,3.00,-251.00,14,202.00,1.41,6.83,1.00,0.00,-1.00,0,,,100,97,15,2,0,0,1,1,0,,,,,0.0,0.0,0.0,0.0,0.0,0.0,0
-22.959774,-67.786893,20.20,0.00,0.00,0.70,20.20,20.20,3.60,0.70,10582,2025-11-30 17:15:42.974,2025-11-30 14:15:42.974,16,0,0,47.906,-22.959780,-67.786896,0.00,0.00,0.00,-14.40,1.20,179.60,0,1,0,97,89,-46323,13828,47906,2971.50,46,WP,1,0,0,0,0,0,0,1764522942974,3926,3940,3900,3933,3932,3935,18,,,,,,,0,0,0,144.00,12.00,1796.00,-1.00,3.00,-230.00,14,202.00,0.00,6.96,0.00,0.00,0.00,0,,,100,97,15,2,0,0,1,1,0,,,,,0.0,0.0,0.0,0.0,0.0,0.0,0
-22.959774,-67.786892,20.20,0.00,0.20,0.69,20.20,20.20,3.60,0.70,10679,2025-11-30 17:15:43.071,2025-11-30 14:15:43.071,16,0,0,47.906,-22.959780,-67.786896,-0.20,0.00,0.00,-16.50,1.30,179.60,0,1,0,97,89,-46323,13828,47906,2971.50,46,WP,1,0,0,0,0,0,0,1764522943071,3926,3940,3900,3933,3932,3935,18,,,,,,,0,0,0,165.00,13.00,1796.00,-1.00,3.00,-214.00,14,202.00,2.00,6.88,-2.00,0.00,0.00,0,,,100,97,15,2,0,0,1,1,0,,,,,0.0,0.0,0.0,0.0,0.0,0.0,0
-22.959774,-67.786892,20.20,0.00,0.50,0.65,20.20,20.20,3.60,0.70,10777,2025-11-30 17:15:43.169,2025-11-30 14:15:43.169,16,0,0,47.906,-22.959780,-67.786896,-0.50,0.00,0.00,-17.40,2.00,179.50,0,1,0,97,89,-46323,13828,47906,2971.50,46,WP,1,0,0,0,0,0,0,1764522943169,3926,3940,3900,3933,3932,3935,18,,,,,,,0,0,0,174.00,20.00,1795.00,-1.00,3.00,-201.00,14,202.00,5.00,6.51,-5.00,0.00,0.00,0,,,100,97,15,2,0,0,1,1,0,,,,,0.0,0.0,0.0,0.0,0.0,0.0,0
-22.959775,-67.786892,20.30,0.00,0.71,0.60,20.30,20.30,3.60,0.70,10873,2025-11-30 17:15:43.266,2025-11-30 14:15:43.266,16,0,0,47.906,-22.959780,-67.786896,-0.70,0.10,0.00,-17.40,2.80,179.40,0,1,0,97,89,-46323,13828,47906,2971.50,46,WP,1,0,0,0,0,0,0,1764522943265,3926,3940,3900,3933,3932,3935,18,,,,,,,0,0,0,174.00,28.00,1794.00,-2.00,3.00,-189.00,14,203.00,7.07,5.97,-7.00,1.00,0.00,0,,,100,99,15,2,0,0,1,1,0,,,,,0.0,0.0,0.0,0.0,0.0,0.0,0
-22.959776,-67.786892,20.20,0.00,1.00,0.52,20.30,20.30,3.60,0.70,10980,2025-11-30 17:15:43.373,2025-11-30 14:15:43.373,16,0,0,47.906,-22.959780,-67.786896,-1.00,0.10,0.00,-17.30,3.20,179.20,0,1,0,97,89,-46323,13828,47906,2971.50,46,WP,1,0,0,0,0,0,0,1764522943372,3926,3940,3900,3933,3932,3935,18,,,,,,,0,0,0,173.00,32.00,1792.00,-1.00,3.00,-178.00,14,202.00,10.05,5.19,-10.00,1.00,0.00,0,,,100,99,15,2,0,0,1,1,0,,,,,0.0,0.0,0.0,0.0,0.0,0.0,0
-22.959781,-67.786892,20.20,0.00,1.80,0.44,20.30,20.30,3.60,0.70,11282,2025-11-30 17:15:43.674,2025-11-30 14:15:43.674,16,0,0,47.906,-22.959780,-67.786896,-1.80,0.00,0.00,-17.70,3.40,179.20,0,1,0,97,89,-46323,13828,47906,2971.50,46,WP,1,0,0,0,0,0,0,1764522943674,3926,3940,3900,3933,3932,3935,18,,,,,,,0,0,0,177.00,34.00,1792.00,-2.00,3.00,-155.00,14,202.00,18.00,4.35,-18.00,0.00,0.00,0,,,100,99,15,2,0,0,1,1,0,,,,,0.0,0.0,0.0,0.0,0.0,0.0,0
-22.959783,-67.786891,20.30,0.00,2.10,0.59,20.30,20.30,3.60,0.70,11380,2025-11-30 17:15:43.772,2025-11-30 14:15:43.772,16,0,0,47.906,-22.959780,-67.786896,-2.10,0.00,0.00,-17.80,3.70,179.20,0,1,0,97,89,-46323,13828,47906,2971.50,46,WP,1,0,0,0,0,0,0,1764522943772,3926,3940,3900,3933,3932,3935,18,,,,,,,0,0,0,178.00,37.00,1792.00,-2.00,3.00,-150.00,14,203.00,21.00,5.95,-21.00,0.00,0.00,0,,,100,99,15,2,0,0,1,1,0,,,,,0.0,0.0,0.0,0.0,0.0,0.0,0
-22.959786,-67.786891,20.30,0.00,2.40,0.82,20.30,20.30,3.60,0.82,11481,2025-11-30 17:15:43.874,2025-11-30 14:15:43.874,16,0,0,47.906,-22.959780,-67.786896,-2.40,0.00,0.00,-17.80,3.90,179.20,0,1,0,97,89,-46323,13828,47906,2971.50,46,WP,1,0,0,0,0,0,0,1764522943873,3926,3940,3900,3933,3932,3935,18,,,,,,,0,0,0,178.00,39.00,1792.00,-2.00,3.00,-145.00,14,203.00,24.00,8.24,-24.00,0.00,0.00,0,,,100,99,15,2,0,0,1,1,0,,,,,0.0,0.0,0.0,0.0,0.0,0.0,0
-22.959789,-67.786891,20.30,0.00,2.60,1.10,20.30,20.30,3.60,1.10,11577,2025-11-30 17:15:43.970,2025-11-30 14:15:43.970,16,0,0,47.906,-22.959780,-67.786896,-2.60,0.00,0.00,-17.60,3.90,179.30,0,1,0,97,89,-46323,13828,47906,2971.50,46,WP,1,0,0,0,0,0,0,1764522943969,3926,3940,3900,3933,3932,3935,18,,,,,,,0,0,0,176.00,39.00,1793.00,-2.00,3.00,-141.00,14,203.00,26.00,11.04,-26.00,0.00,0.00,0,,,100,99,15,2,0,0,1,1,0,,,,,0.0,0.0,0.0,0.0,0.0,0.0,0
-22.959792,-67.786891,20.30,0.00,2.90,1.41,20.30,20.30,3.60,1.41,11680,2025-11-30 17:15:44.073,2025-11-30 14:15:44.073,16,0,0,47.906,-22.959780,-67.786896,-2.90,0.00,0.00,-17.60,3.80,179.40,0,1,0,97,89,-46323,13828,47906,2971.50,46,WP,1,0,0,0,0,0,0,1764522944072,3926,3940,3900,3933,3932,3935,18,,,,,,,0,0,0,176.00,38.00,1794.00,-2.00,3.00,-137.00,14,203.00,29.00,14.13,-29.00,0.00,0.00,0,,,100,99,15,2,0,0,1,1,0,,,,,0.0,0.0,0.0,0.0,0.0,0.0,0
-22.959795,-67.786891,20.30,0.00,3.10,1.76,20.30,20.30,3.60,1.76,11781,2025-11-30 17:15:44.174,2025-11-30 14:15:44.174,16,0,0,47.906,-22.959780,-67.786896,-3.10,0.00,0.00,-17.40,3.80,179.50,0,1,0,97,89,-46323,13828,47906,2971.50,46,WP,1,0,0,0,0,0,0,1764522944173,3926,3940,3900,3933,3932,3935,18,,,,,,,0,0,0,174.00,38.00,1795.00,-1.00,3.00,-134.00,14,203.00,31.00,17.61,-31.00,0.00,0.00,0,,,100,99,15,2,0,0,1,1,0,,,,,0.0,0.0,0.0,0.0,0.0,0.0,0
-22.959798,-67.786891,20.40,0.00,3.30,2.12,20.40,20.40,3.60,2.12,11884,2025-11-30 17:15:44.277,2025-11-30 14:15:44.277,16,0,0,47.906,-22.959780,-67.786896,-3.30,0.00,0.00,-17.40,3.90,179.50,0,1,0,97,89,-46323,13828,47906,2971.50,46,WP,1,0,0,0,0,0,0,1764522944276,3926,3940,3900,3933,3932,3935,18,,,,,,,0,0,0,174.00,39.00,1795.00,-1.00,3.00,-134.00,14,204.00,33.00,21.24,-33.00,0.00,0.00,0,,,100,100,15,2,0,0,1,1,0,,,,,0.0,0.0,0.0,0.0,0.0,0.0,0
-22.959802,-67.786891,20.40,0.00,3.60,2.54,20.40,20.40,3.60,2.54,11980,2025-11-30 17:15:44.373,2025-11-30 14:15:44.373,16,0,0,47.906,-22.959780,-67.786896,-3.60,0.00,0.00,-17.70,4.10,179.50,0,1,0,97,89,-46323,13828,47906,2971.50,46,WP,1,0,0,0,0,0,0,1764522944372,3926,3940,3900,3933,3932,3935,18,,,,,,,0,0,0,177.00,41.00,1795.00,-1.00,3.00,-128.00,14,204.00,36.00,25.42,-36.00,0.00,0.00,0,,,100,100,15,2,0,0,1,1,0,,,,,0.0,0.0,0.0,0.0,0.0,0.0,0
-22.959814,-67.786890,20.50,0.00,4.30,3.90,20.50,20.50,4.30,3.90,12288,2025-11-30 17:15:44.681,2025-11-30 14:15:44.681,16,0,0,47.906,-22.959780,-67.786896,-4.30,0.00,0.00,-17.80,5.20,179.40,0,1,0,97,89,-46323,13828,47906,2971.50,46,WP,1,0,0,0,0,0,0,1764522944680,3926,3940,3900,3933,3932,3935,18,,,,,,,0,0,0,178.00,52.00,1794.00,3.00,4.00,-120.00,14,205.00,43.00,38.95,-43.00,0.00,0.00,0,,,100,100,15,2,0,0,1,1,0,,,,,0.0,0.0,0.0,0.0,0.0,0.0,0
-22.959819,-67.786890,20.50,0.00,4.60,4.41,20.50,20.50,4.60,4.41,12384,2025-11-30 17:15:44.777,2025-11-30 14:15:44.777,16,0,0,47.906,-22.959780,-67.786896,-4.60,0.00,0.00,-17.90,5.30,179.20,0,1,0,97,89,-46323,13828,47906,2971.50,46,WP,1,0,0,0,0,0,0,1764522944776,3926,3940,3900,3933,3932,3935,18,,,,,,,0,0,0,179.00,53.00,1792.00,2.00,3.00,-115.00,14,205.00,46.00,44.13,-46.00,0.00,0.00,0,,,100,99,15,2,0,0,1,1,0,,,,,0.0,0.0,0.0,0.0,0.0,0.0,0
-22.959824,-67.786890,20.50,0.00,4.80,4.94,20.50,20.50,4.80,4.94,12492,2025-11-30 17:15:44.885,2025-11-30 14:15:44.885,16,0,0,47.906,-22.959780,-67.786896,-4.80,0.00,0.00,-18.00,5.20,179.10,0,1,0,97,89,-46323,13828,47906,2971.50,46,WP,1,0,0,0,0,0,0,1764522944884,3926,3940,3900,3933,3932,3935,18,,,,,,,0,0,0,180.00,52.00,1791.00,1.00,3.00,-112.00,14,205.00,48.00,49.40,-48.00,0.00,0.00,0,,,100,99,15,2,0,0,1,1,0,,,,,0.0,0.0,0.0,0.0,0.0,0.0,0
-22.959839,-67.786889,20.50,0.00,5.50,6.66,20.50,20.50,5.50,6.66,12793,2025-11-30 17:15:45.186,2025-11-30 14:15:45.186,16,0,0,47.906,-22.959780,-67.786896,-5.50,0.10,0.10,-18.00,5.20,179.00,0,1,0,97,89,-46323,13828,47906,2971.50,46,WP,1,0,0,0,0,0,0,1764522945185,3926,3940,3900,3933,3932,3935,18,,,,,,,0,0,0,180.00,52.00,1790.00,1.00,3.00,-105.00,14,205.00,55.02,66.63,-55.00,1.00,1.00,0,,,100,99,15,2,0,0,1,1,0,,,,,0.0,0.0,0.0,0.0,0.0,0.0,0
-22.959851,-67.786889,20.50,0.00,5.90,7.93,20.50,20.50,5.90,7.93,12996,2025-11-30 17:15:45.389,2025-11-30 14:15:45.389,16,0,0,47.906,-22.959780,-67.786896,-5.90,0.10,0.10,-18.60,6.80,178.80,0,1,0,97,89,-46323,13828,47906,2971.50,46,WP,1,0,0,0,0,0,0,1764522945388,3926,3940,3900,3933,3932,3935,18,,,,,,,0,0,0,186.00,68.00,1788.00,3.00,4.00,-99.00,14,205.00,59.02,79.28,-59.00,1.00,1.00,0,,,100,92,15,2,0,0,1,1,0,,,,,0.0,0.0,0.0,0.0,0.0,0.0,0
-22.959857,-67.786889,20.50,0.00,6.20,8.59,20.50,20.50,6.20,8.59,13097,2025-11-30 17:15:45.490,2025-11-30 14:15:45.490,16,0,0,47.906,-22.959780,-67.786896,-6.20,0.10,0.10,-18.80,6.70,178.80,0,1,0,97,89,-46323,13828,47906,2971.50,46,WP,1,0,0,0,0,0,0,1764522945489,3926,3940,3900,3933,3932,3935,18,,,,,,,0,0,0,188.00,67.00,1788.00,2.00,3.00,-97.00,14,205.00,62.02,85.86,-62.00,1.00,1.00,0,,,100,92,15,2,0,0,1,1,0,,,,,0.0,0.0,0.0,0.0,0.0,0.0,0
-22.959869,-67.786889,20.60,0.00,6.70,9.96,20.60,20.60,6.70,9.96,13294,2025-11-30 17:15:45.686,2025-11-30 14:15:45.687,16,0,0,46.941,-22.959780,-67.786896,-6.70,0.10,0.00,-18.00,6.40,178.70,0,1,0,97,89,-60668,13784,46941,2971.50,46,WP,1,0,0,0,0,0,0,1764522945686,3926,3940,3900,3933,3932,3935,18,,,,,,,0,0,0,180.00,64.00,1787.00,3.00,3.00,-93.00,14,206.00,67.01,99.63,-67.00,1.00,0.00,0,,,100,92,15,2,0,0,1,1,0,,,,,0.0,0.0,0.0,0.0,0.0,0.0,0
-22.959876,-67.786888,20.60,0.00,6.90,10.74,20.60,20.60,6.90,10.74,13414,2025-11-30 17:15:45.806,2025-11-30 14:15:45.806,16,0,0,46.941,-22.959780,-67.786896,-6.90,0.00,0.00,-17.60,6.50,178.70,0,1,0,97,89,-60668,13784,46941,2971.50,46,WP,1,0,0,0,0,0,0,1764522945806,3926,3940,3900,3933,3932,3935,18,,,,,,,0,0,0,176.00,65.00,1787.00,2.00,3.00,-91.00,14,206.00,69.00,107.39,-69.00,0.00,0.00,0,,,100,92,15,2,0,0,1,1,0,,,,,0.0,0.0,0.0,0.0,0.0,0.0,0
-22.959883,-67.786888,20.70,0.00,7.20,11.51,20.70,20.70,7.20,11.51,13492,2025-11-30 17:15:45.884,2025-11-30 14:15:45.884,16,0,0,46.941,-22.959780,-67.786896,-7.20,0.00,0.00,-17.60,7.00,178.70,0,1,0,97,89,-60668,13784,46941,2971.50,46,WP,1,0,0,0,0,0,0,1764522945884,3926,3940,3900,3933,3932,3935,18,,,,,,,0,0,0,176.00,70.00,1787.00,4.00,3.00,-89.00,14,207.00,72.00,115.07,-72.00,0.00,0.00,0,,,100,92,15,2,0,0,1,1,0,,,,,0.0,0.0,0.0,0.0,0.0,0.0,0
-22.959890,-67.786888,20.70,0.00,7.50,12.31,20.70,20.70,7.50,12.31,13596,2025-11-30 17:15:45.989,2025-11-30 14:15:45.989,16,0,0,46.941,-22.959780,-67.786896,-7.50,0.00,0.00,-17.50,7.40,178.60,0,1,0,97,89,-60668,13784,46941,2971.50,46,WP,1,0,0,0,0,0,0,1764522945988,3926,3940,3900,3933,3932,3935,18,,,,,,,0,0,0,175.00,74.00,1786.00,4.00,3.00,-89.00,14,207.00,75.00,123.09,-75.00,0.00,0.00,0,,,100,92,15,2,0,0,1,1,0,,,,,0.0,0.0,0.0,0.0,0.0,0.0,0
-22.959898,-67.786888,20.70,0.00,7.70,13.11,20.70,20.70,7.70,13.11,13697,2025-11-30 17:15:46.090,2025-11-30 14:15:46.090,16,0,0,46.941,-22.959780,-67.786896,-7.70,0.00,0.00,-17.30,7.50,178.60,0,1,0,97,89,-60668,13784,46941,2971.50,46,WP,1,0,0,0,0,0,0,1764522946089,3926,3940,3900,3933,3932,3935,18,,,,,,,0,0,0,173.00,75.00,1786.00,2.00,3.00,-85.00,14,207.00,77.00,131.10,-77.00,0.00,0.00,0,,,100,92,15,2,0,0,1,1,0,,,,,0.0,0.0,0.0,0.0,0.0,0.0,0
-22.959905,-67.786888,20.80,0.00,7.90,13.97,20.80,20.80,7.90,13.97,13811,2025-11-30 17:15:46.204,2025-11-30 14:15:46.204,16,0,0,46.941,-22.959780,-67.786896,-7.90,0.00,0.00,-16.90,7.30,178.60,0,1,0,97,89,-60668,13784,46941,2971.50,46,WP,1,0,0,0,0,0,0,1764522946203,3926,3940,3900,3933,3932,3935,18,,,,,,,0,0,0,169.00,73.00,1786.00,1.00,3.00,-84.00,14,208.00,79.00,139.67,-79.00,0.00,0.00,0,,,100,92,15,2,0,0,1,1,0,,,,,0.0,0.0,0.0,0.0,0.0,0.0,0
-22.959913,-67.786888,20.80,0.00,8.10,14.82,20.80,20.80,8.10,14.82,13910,2025-11-30 17:15:46.302,2025-11-30 14:15:46.302,16,0,0,46.941,-22.959780,-67.786896,-8.10,0.00,0.00,-16.70,7.90,178.60,0,1,0,97,89,-60668,13784,46941,2971.50,46,WP,1,0,0,0,0,0,0,1764522946302,3926,3940,3900,3933,3932,3935,18,,,,,,,0,0,0,167.00,79.00,1786.00,3.00,3.00,-81.00,14,208.00,81.00,148.18,-81.00,0.00,0.00,0,,,100,92,15,2,0,0,1,1,0,,,,,0.0,0.0,0.0,0.0,0.0,0.0,0
-22.959921,-67.786888,20.90,0.00,8.30,15.71,20.90,20.90,8.30,15.71,13996,2025-11-30 17:15:46.388,2025-11-30 14:15:46.388,16,0,0,46.941,-22.959780,-67.786896,-8.30,0.00,0.00,-16.50,8.10,178.70,0,1,0,97,89,-60668,13784,46941,2971.50,46,WP,1,0,0,0,0,0,0,1764522946388,3926,3940,3900,3933,3932,3935,18,,,,,,,0,0,0,165.00,81.00,1787.00,2.00,3.00,-80.00,14,209.00,83.00,157.15,-83.00,0.00,0.00,0,,,100,92,15,2,0,0,1,1,0,,,,,0.0,0.0,0.0,0.0,0.0,0.0,0
-22.959929,-67.786888,20.90,0.00,8.50,16.60,20.90,20.90,8.50,16.60,14097,2025-11-30 17:15:46.490,2025-11-30 14:15:46.490,16,0,0,46.941,-22.959780,-67.786896,-8.50,-0.10,0.00,-16.50,8.40,178.60,0,1,0,97,89,-60668,13784,46941,2971.50,46,WP,1,0,0,0,0,0,0,1764522946489,3926,3940,3900,3933,3932,3935,18,,,,,,,0,0,0,165.00,84.00,1786.00,4.00,4.00,-78.00,14,209.00,85.01,166.03,-85.00,-1.00,0.00,0,,,100,92,15,2,0,0,1,1,0,,,,,0.0,0.0,0.0,0.0,0.0,0.0,0
-22.959946,-67.786889,21.00,0.00,8.90,18.46,21.00,21.00,8.90,18.46,14298,2025-11-30 17:15:46.691,2025-11-30 14:15:46.691,16,0,0,46.941,-22.959780,-67.786896,-8.90,-0.10,0.00,-14.30,8.90,178.80,0,1,0,97,89,-60668,13784,46941,2971.50,46,WP,1,0,0,0,0,0,0,1764522946690,3926,3940,3900,3933,3932,3935,18,,,,,,,0,0,0,143.00,89.00,1788.00,3.00,4.00,-75.00,14,210.00,89.01,184.60,-89.00,-1.00,0.00,0,,,100,92,15,2,0,0,1,1,0,,,,,0.0,0.0,0.0,0.0,0.0,0.0,0
-22.959955,-67.786889,21.00,0.00,9.00,19.42,21.00,21.00,9.00,19.42,14402,2025-11-30 17:15:46.794,2025-11-30 14:15:46.794,16,0,0,46.941,-22.959780,-67.786896,-9.00,-0.20,0.00,-11.80,8.70,179.30,0,1,0,97,89,-60668,13784,46941,2971.50,46,WP,1,0,0,0,0,0,0,1764522946794,3926,3940,3900,3933,3932,3935,18,,,,,,,0,0,0,118.00,87.00,1793.00,7.00,4.00,-76.00,14,210.00,90.02,194.19,-90.00,-2.00,0.00,0,,,100,100,15,2,0,0,1,1,0,,,,,0.0,0.0,0.0,0.0,0.0,0.0,0
-22.959963,-67.786889,21.00,0.00,9.10,20.37,21.00,21.00,9.10,20.37,14499,2025-11-30 17:15:46.892,2025-11-30 14:15:46.892,16,0,0,46.941,-22.959780,-67.786896,-9.10,-0.20,0.10,-9.40,8.90,179.50,0,1,0,97,89,-60668,13784,46941,2971.50,46,WP,1,0,0,0,0,0,0,1764522946891,3926,3940,3900,3933,3932,3935,18,,,,,,,0,0,0,94.00,89.00,1795.00,11.00,4.00,-78.00,14,210.00,91.03,203.65,-91.00,-2.00,1.00,0,,,100,100,15,2,0,0,1,1,0,,,,,0.0,0.0,0.0,0.0,0.0,0.0,0
-22.959972,-67.786889,21.00,0.00,9.10,21.32,21.00,21.00,9.10,21.32,14602,2025-11-30 17:15:46.995,2025-11-30 14:15:46.995,16,0,0,46.941,-22.959780,-67.786896,-9.10,-0.20,0.10,-6.70,8.80,179.60,0,1,0,97,89,-60668,13784,46941,2971.50,46,WP,1,0,0,0,0,0,0,1764522946994,3926,3940,3900,3933,3932,3935,18,,,,,,,0,0,0,67.00,88.00,1796.00,6.00,4.00,-78.00,14,210.00,91.03,213.20,-91.00,-2.00,1.00,0,,,100,100,15,2,0,0,1,1,0,,,,,0.0,0.0,0.0,0.0,0.0,0.0,0
-22.959981,-67.786890,21.00,0.00,9.11,22.31,21.00,21.00,9.11,22.31,14715,2025-11-30 17:15:47.107,2025-11-30 14:15:47.108,16,0,0,46.941,-22.959780,-67.786896,-9.10,-0.30,0.10,-4.90,8.70,179.70,0,1,0,97,89,-60668,13784,46941,2971.50,46,WP,1,0,0,0,0,0,0,1764522947107,3926,3940,3900,3933,3932,3935,18,,,,,,,0,0,0,49.00,87.00,1797.00,2.00,2.00,-78.00,14,210.00,91.05,223.10,-91.00,-3.00,1.00,0,,,100,100,15,2,0,0,1,1,0,,,,,0.0,0.0,0.0,0.0,0.0,0.0,0
-22.959989,-67.786890,21.00,0.00,9.11,23.19,21.00,21.00,9.11,23.19,14801,2025-11-30 17:15:47.194,2025-11-30 14:15:47.194,16,0,0,46.941,-22.959780,-67.786896,-9.10,-0.30,0.10,-4.30,8.20,179.70,0,1,0,97,89,-60668,13784,46941,2971.50,46,WP,1,0,0,0,0,0,0,1764522947193,3926,3940,3900,3933,3932,3935,18,,,,,,,0,0,0,43.00,82.00,1797.00,1.00,4.00,-76.00,14,210.00,91.05,231.88,-91.00,-3.00,1.00,0,,,100,100,15,2,0,0,1,1,0,,,,,0.0,0.0,0.0,0.0,0.0,0.0,0
-22.959997,-67.786890,21.00,0.00,9.11,24.11,21.00,21.00,9.11,24.11,14911,2025-11-30 17:15:47.304,2025-11-30 14:15:47.304,16,0,0,46.941,-22.959780,-67.786896,-9.10,-0.40,0.10,-3.60,8.90,179.70,0,1,0,97,89,-60668,13784,46941,2971.50,46,WP,1,0,0,0,0,0,0,1764522947303,3926,3940,3900,3933,3932,3935,18,,,,,,,0,0,0,36.00,89.00,1797.00,0.00,4.00,-74.00,14,210.00,91.09,241.10,-91.00,-4.00,1.00,0,,,100,100,15,2,0,0,1,1,0,,,,,0.0,0.0,0.0,0.0,0.0,0.0,0
-22.960006,-67.786891,21.00,0.00,9.01,25.05,21.00,21.00,9.11,25.05,15009,2025-11-30 17:15:47.401,2025-11-30 14:15:47.401,16,0,0,46.941,-22.959780,-67.786896,-9.00,-0.40,0.20,-2.80,8.90,179.90,0,1,0,97,89,-60668,13784,46941,2971.50,46,WP,1,0,0,0,0,0,0,1764522947401,3926,3940,3900,3933,3932,3935,18,,,,,,,0,0,0,28.00,89.00,1799.00,0.00,4.00,-73.00,14,210.00,90.11,250.45,-90.00,-4.00,2.00,0,,,100,100,15,2,0,0,1,1,0,,,,,0.0,0.0,0.0,0.0,0.0,0.0,0
-22.960014,-67.786891,21.00,0.00,8.91,25.97,21.00,21.00,9.11,25.97,15114,2025-11-30 17:15:47.507,2025-11-30 14:15:47.507,16,0,0,46.941,-22.959780,-67.786896,-8.90,-0.40,0.10,-2.50,8.40,-179.90,0,1,0,97,89,-60668,13784,46941,2971.50,46,WP,1,0,0,0,0,0,0,1764522947506,3926,3940,3900,3933,3932,3935,18,,,,,,,0,0,0,25.00,84.00,-1799.00,2.00,3.00,-74.00,14,210.00,89.10,259.69,-89.00,-4.00,1.00,0,,,100,100,15,2,0,0,1,1,0,,,,,0.0,0.0,0.0,0.0,0.0,0.0,0
-22.960030,-67.786892,21.10,0.00,8.82,27.77,21.10,21.10,9.11,27.77,15310,2025-11-30 17:15:47.703,2025-11-30 14:15:47.703,16,0,0,46.612,-22.959780,-67.786896,-8.80,-0.60,0.20,-1.90,7.00,179.80,0,1,0,97,89,-60815,13784,46612,2971.50,46,WP,1,0,0,0,0,0,0,1764522947702,3926,3940,3900,3933,3932,3935,18,,,,,,,0,0,0,19.00,70.00,1798.00,2.00,2.00,-71.00,14,211.00,88.23,277.71,-88.00,-6.00,2.00,0,,,100,100,15,2,0,0,1,1,0,,,,,0.0,0.0,0.0,0.0,0.0,0.0,0
-22.960038,-67.786893,21.10,0.00,8.82,28.64,21.10,21.10,9.11,28.64,15414,2025-11-30 17:15:47.806,2025-11-30 14:15:47.806,16,0,0,46.612,-22.959780,-67.786896,-8.80,-0.60,0.20,-1.90,5.70,179.70,0,1,0,97,89,-60815,13784,46612,2971.50,46,WP,1,0,0,0,0,0,0,1764522947806,3926,3940,3900,3933,3932,3935,18,,,,,,,0,0,0,19.00,57.00,1797.00,2.00,2.00,-71.00,14,211.00,88.23,286.44,-88.00,-6.00,2.00,0,,,100,98,15,2,0,0,1,1,0,,,,,0.0,0.0,0.0,0.0,0.0,0.0,0
-22.960046,-67.786894,21.10,0.00,8.72,29.52,21.10,21.10,9.11,29.52,15514,2025-11-30 17:15:47.907,2025-11-30 14:15:47.907,16,0,0,46.612,-22.959780,-67.786896,-8.70,-0.60,0.20,-2.00,5.00,179.70,0,1,0,97,89,-60815,13784,46612,2971.50,46,WP,1,0,0,0,0,0,0,1764522947906,3926,3940,3900,3933,3932,3935,18,,,,,,,0,0,0,20.00,50.00,1797.00,2.00,4.00,-65.00,14,211.00,87.23,295.17,-87.00,-6.00,2.00,0,,,100,98,15,2,0,0,1,1,0,,,,,0.0,0.0,0.0,0.0,0.0,0.0,0
-22.960054,-67.786894,21.00,0.00,8.73,30.37,21.10,21.10,9.11,30.37,15607,2025-11-30 17:15:47.999,2025-11-30 14:15:47.999,16,0,0,46.612,-22.959780,-67.786896,-8.70,-0.60,0.30,-2.00,4.10,179.70,0,1,0,97,89,-60815,13784,46612,2971.50,46,WP,1,0,0,0,0,0,0,1764522947999,3926,3940,3900,3933,3932,3935,18,,,,,,,0,0,0,20.00,41.00,1797.00,1.00,4.00,-63.00,14,210.00,87.26,303.73,-87.00,-6.00,3.00,0,,,100,98,15,2,0,0,1,1,0,,,,,0.0,0.0,0.0,0.0,0.0,0.0,0
-22.960062,-67.786895,21.00,0.00,8.73,31.23,21.10,21.10,9.11,31.23,15709,2025-11-30 17:15:48.102,2025-11-30 14:15:48.102,16,0,0,46.612,-22.959780,-67.786896,-8.70,-0.60,0.30,-1.70,3.50,179.70,0,1,0,97,89,-60815,13784,46612,2971.50,46,WP,1,0,0,0,0,0,0,1764522948101,3926,3940,3900,3933,3932,3935,18,,,,,,,0,0,0,17.00,35.00,1797.00,1.00,4.00,-61.00,14,210.00,87.26,312.31,-87.00,-6.00,3.00,0,,,100,98,15,2,0,0,1,1,0,,,,,0.0,0.0,0.0,0.0,0.0,0.0,0
-22.960069,-67.786895,21.00,0.00,8.63,32.07,21.10,21.10,9.11,32.07,15813,2025-11-30 17:15:48.206,2025-11-30 14:15:48.206,16,0,0,46.612,-22.959780,-67.786896,-8.60,-0.60,0.30,-1.30,3.50,179.70,0,1,0,97,89,-60815,13784,46612,2971.50,46,WP,1,0,0,0,0,0,0,1764522948205,3926,3940,3900,3933,3932,3935,18,,,,,,,0,0,0,13.00,35.00,1797.00,2.00,3.00,-60.00,14,210.00,86.26,320.71,-86.00,-6.00,3.00,0,,,100,98,15,2,0,0,1,1,0,,,,,0.0,0.0,0.0,0.0,0.0,0.0,0
