latitude,longitude,altitude(m),ultrasonicHeight(m),speed(mps),distance(m),max_altitude(m),max_ascent(m),max_speed(mps),max_distance(m),time(millisecond),datetime(utc),datetime(local),satellites,pressure(Pa),temperature(F),voltage(v),home_latitude,home_longitude,velocityX(mps),velocityY(mps),velocityZ(mps),pitch(deg),roll(deg),yaw(deg),powerlevel,isflying,istakingphoto,remainPowerPercent,remainLifePercent,currentCurrent,currentElectricity,currentVoltage,batteryTemperature,dischargeCount,flightmode,isMotorsOn,isTakingVideo,Rc_elevator,Rc_aileron,Rc_throttle,Rc_rudder,Rc_gyro,timestamp,Battery_Cell1,Battery_Cell2,Battery_Cell3,Battery_Cell4,Battery_Cell5,Battery_Cell6,Dronetype,AppVersion,Planename,FlyControllerSerialNumber,RemoteSerialNumber,BatterySerialNumber,CENTER_BATTERY.productDate,CENTER_BATTERY.serialNo,CENTER_BATTERY.fullCapacity,CENTER_BATTERY.productDateRaw,pitchRaw,rollRaw,yawRaw,gimbalPitchRaw,gimbalRollRaw,gimbalYawRaw,flyState,altitudeRaw,speedRaw,distanceRaw,velocityXRaw,velocityYRaw,velocityZRaw,data_reuse,App_Tip,App_Warning,downlinkSignalQuality,uplinkSignalQuality,transmissionChannel,rcModeSwitch,rcHome,rcPause,rcTransform,rcJoystickMode,appMode,FlyControllerSerialNumber_legacy,RemoteSerialNumber_legacy,BatterySerialNumber_legacy,Battery2SerialNumber,frontAvoidDist,backAvoidDist,rightAvoidDist,leftAvoidDist,upAvoidDist,downAvoidDist,isBrakingToAvoid
-22.959772,-67.786895,0.60,0.00,0.64,0.19,0.60,0.60,0.64,0.19,3,2025-11-30 17:37:51.395,2025-11-30 14:37:51.396,15,0,0,51.674,-22.959772,-67.786893,0.20,0.10,-0.60,-1.00,1.50,97.90,0,1,0,97,91,-988,10841,51674,2961.50,36,TakeOff,1,0,0,0,0,0,0,1764524271395,4304,4309,4308,4307,4314,4305,18,Litchi_iOS_2.15.7,EIK Matrice 1,0670131556,03LLCA05XT,,,0,11064,0,10.00,15.00,979.00,0.00,1.00,27.00,11,6.00,6.40,1.89,2.00,1.00,-6.00,0,,,100,99,20,2,0,0,1,1,0,(null),(null),(null),(null),0.0,0.0,0.0,0.0,0.0,0.0,0
-22.959771,-67.786894,0.60,0.00,0.64,0.19,0.60,0.60,0.64,0.19,106,2025-11-30 17:37:51.499,2025-11-30 14:37:51.499,14,0,0,51.674,-22.959772,-67.786893,0.20,0.10,-0.60,-0.70,2.30,97.80,0,1,0,97,91,-988,10841,51674,2961.50,36,TakeOff,1,0,0,0,0,0,0,1764524271498,4304,4309,4308,4307,4314,4305,18,,,,,,,0,0,0,7.00,23.00,978.00,0.00,1.00,26.00,11,6.00,6.40,1.86,2.00,1.00,-6.00,0,,,100,99,20,2,0,0,1,1,0,,,,,0.0,0.0,0.0,0.0,0.0,0.0,0
-22.959771,-67.786894,0.70,0.00,0.64,0.19,0.70,0.70,0.64,0.19,310,2025-11-30 17:37:51.703,2025-11-30 14:37:51.703,14,0,0,51.674,-22.959772,-67.786893,0.20,0.10,-0.60,0.00,2.80,97.90,0,1,0,97,91,-988,10841,51674,2961.50,36,TakeOff,1,0,0,0,0,0,0,1764524271702,4304,4309,4308,4307,4314,4305,18,,,,,,,0,0,0,-0.00,28.00,979.00,0.00,1.00,26.00,11,7.00,6.40,1.87,2.00,1.00,-6.00,0,,,100,99,20,2,0,0,1,1,0,,,,,0.0,0.0,0.0,0.0,0.0,0.0,0
-22.959771,-67.786894,0.80,0.00,0.52,0.19,0.80,0.80,0.64,0.19,314,2025-11-30 17:37:51.707,2025-11-30 14:37:51.707,14,0,0,51.674,-22.959772,-67.786893,0.10,0.10,-0.50,0.50,3.00,97.90,0,1,0,97,91,-988,10841,51674,2961.50,36,TakeOff,1,0,0,0,0,0,0,1764524271706,4304,4309,4308,4307,4314,4305,18,,,,,,,0,0,0,-5.00,30.00,979.00,0.00,1.00,25.00,11,8.00,5.20,1.86,1.00,1.00,-5.00,0,,,100,99,20,2,0,0,1,1,0,,,,,0.0,0.0,0.0,0.0,0.0,0.0,0
-22.959771,-67.786894,0.90,0.00,0.52,0.36,0.90,0.90,0.64,0.36,400,2025-11-30 17:37:51.792,2025-11-30 14:37:51.793,14,0,0,51.674,-22.959774,-67.786893,0.10,0.10,-0.50,0.70,2.70,97.90,0,1,0,97,91,-988,10841,51674,2961.50,36,TakeOff,1,0,0,0,0,0,0,1764524271792,4304,4309,4308,4307,4314,4305,18,,,,,,,0,0,0,-7.00,27.00,979.00,0.00,1.00,25.00,11,9.00,5.20,3.61,1.00,1.00,-5.00,0,,,100,99,20,2,0,0,1,1,0,,,,,0.0,0.0,0.0,0.0,0.0,0.0,0
-22.959771,-67.786893,0.90,0.00,0.52,0.37,0.90,0.90,0.64,0.37,502,2025-11-30 17:37:51.895,2025-11-30 14:37:51.895,14,0,0,51.674,-22.959774,-67.786893,0.10,0.10,-0.50,0.70,2.00,97.80,0,1,0,97,91,-988,10841,51674,2961.50,36,TakeOff,1,0,0,0,0,0,0,1764524271894,4304,4309,4308,4307,4314,4305,18,,,,,,,0,0,0,-7.00,20.00,978.00,0.00,1.00,26.00,11,9.00,5.20,3.69,1.00,1.00,-5.00,0,,,100,99,20,2,0,0,1,1,0,,,,,0.0,0.0,0.0,0.0,0.0,0.0,0
-22.959771,-67.786893,1.00,0.00,0.42,0.38,1.00,1.00,0.64,0.38,605,2025-11-30 17:37:51.998,2025-11-30 14:37:51.998,14,0,0,51.674,-22.959774,-67.786893,0.10,0.10,-0.40,0.90,1.80,97.90,0,1,0,97,91,-988,10841,51674,2961.50,36,TakeOff,1,0,0,0,0,0,0,1764524271997,4304,4309,4308,4307,4314,4305,18,,,,,,,0,0,0,-9.00,18.00,979.00,0.00,1.00,27.00,11,10.00,4.24,3.78,1.00,1.00,-4.00,0,,,100,99,20,2,0,0,1,1,0,,,,,0.0,0.0,0.0,0.0,0.0,0.0,0
-22.959771,-67.786893,1.10,0.00,0.42,0.39,1.10,1.10,0.64,0.39,714,2025-11-30 17:37:52.107,2025-11-30 14:37:52.107,14,0,0,51.674,-22.959774,-67.786893,0.10,0.10,-0.40,1.50,2.20,97.90,0,1,0,97,91,-988,10841,51674,2961.50,36,WP,1,0,0,0,0,0,0,1764524272106,4304,4309,4308,4307,4314,4305,18,,,,,,,0,0,0,-15.00,22.00,979.00,0.00,1.00,26.00,14,11.00,4.24,3.86,1.00,1.00,-4.00,0,,,100,99,20,2,0,0,1,1,0,,,,,0.0,0.0,0.0,0.0,0.0,0.0,0
-22.959770,-67.786893,1.10,0.00,0.30,0.39,1.10,1.10,0.64,0.39,802,2025-11-30 17:37:52.195,2025-11-30 14:37:52.195,14,0,0,51.674,-22.959774,-67.786893,0.00,0.00,-0.30,2.20,3.00,97.90,0,1,0,97,91,-988,10841,51674,2961.50,36,WP,1,0,0,0,0,0,0,1764524272194,4304,4309,4308,4307,4314,4305,18,,,,,,,0,0,0,-22.00,30.00,979.00,0.00,1.00,26.00,14,11.00,3.00,3.94,0.00,0.00,-3.00,0,,,100,100,20,2,0,0,1,1,0,,,,,0.0,0.0,0.0,0.0,0.0,0.0,0
-22.959770,-67.786893,1.10,0.00,0.30,0.40,1.10,1.10,0.64,0.40,912,2025-11-30 17:37:52.304,2025-11-30 14:37:52.304,15,0,0,51.674,-22.959774,-67.786893,0.00,0.00,-0.30,2.20,1.90,97.80,0,1,0,97,91,-988,10841,51674,2961.50,36,WP,1,0,0,0,0,0,0,1764524272304,4304,4309,4308,4307,4314,4305,18,,,,,,,0,0,0,-22.00,19.00,978.00,0.00,1.00,25.00,14,11.00,3.00,4.04,0.00,0.00,-3.00,0,,,100,100,20,2,0,0,1,1,0,,,,,0.0,0.0,0.0,0.0,0.0,0.0,0
-22.959770,-67.786893,1.20,0.00,0.20,0.41,1.20,1.20,0.64,0.41,1016,2025-11-30 17:37:52.409,2025-11-30 14:37:52.409,15,0,0,51.674,-22.959774,-67.786893,0.00,0.00,-0.20,1.70,1.30,97.80,0,1,0,97,91,-988,10841,51674,2961.50,36,WP,1,0,0,0,0,0,0,1764524272408,4304,4309,4308,4307,4314,4305,18,,,,,,,0,0,0,-17.00,13.00,978.00,0.00,1.00,27.00,14,12.00,2.00,4.13,0.00,0.00,-2.00,0,,,100,100,20,2,0,0,1,1,0,,,,,0.0,0.0,0.0,0.0,0.0,0.0,0
-22.959770,-67.786893,1.20,0.00,0.10,0.42,1.20,1.20,0.64,0.42,1106,2025-11-30 17:37:52.498,2025-11-30 14:37:52.498,15,0,0,51.674,-22.959774,-67.786893,0.00,0.00,-0.10,1.10,1.00,97.90,0,1,0,97,91,-988,10841,51674,2961.50,36,WP,1,0,0,0,0,0,0,1764524272498,4304,4309,4308,4307,4314,4305,18,,,,,,,0,0,0,-11.00,10.00,979.00,0.00,1.00,26.00,14,12.00,1.00,4.21,0.00,0.00,-1.00,0,,,100,100,20,2,0,0,1,1,0,,,,,0.0,0.0,0.0,0.0,0.0,0.0,0
-22.959770,-67.786893,1.20,0.00,0.20,0.43,1.20,1.20,0.64,0.43,1210,2025-11-30 17:37:52.602,2025-11-30 14:37:52.602,15,0,0,51.674,-22.959774,-67.786893,0.00,0.00,-0.20,0.60,1.00,97.80,0,1,0,97,91,-988,10841,51674,2961.50,36,WP,1,0,0,0,0,0,0,1764524272602,4304,4309,4308,4307,4314,4305,18,,,,,,,0,0,0,-6.00,10.00,978.00,0.00,1.00,26.00,14,12.00,2.00,4.26,0.00,0.00,-2.00,0,,,100,100,20,2,0,0,1,1,0,,,,,0.0,0.0,0.0,0.0,0.0,0.0,0
-22.959770,-67.786893,1.20,0.00,0.30,0.43,1.20,1.20,0.64,0.43,1315,2025-11-30 17:37:52.708,2025-11-30 14:37:52.708,15,0,0,51.674,-22.959774,-67.786893,0.00,0.00,-0.30,0.40,0.80,97.70,0,1,0,97,91,-988,10841,51674,2961.50,36,WP,1,0,0,0,0,0,0,1764524272707,4304,4309,4308,4307,4314,4305,18,,,,,,,0,0,0,-4.00,8.00,977.00,0.00,1.00,27.00,14,12.00,3.00,4.32,0.00,0.00,-3.00,0,,,100,100,20,2,0,0,1,1,0,,,,,0.0,0.0,0.0,0.0,0.0,0.0,0
-22.959770,-67.786892,1.30,0.00,0.40,0.43,1.30,1.30,0.64,0.43,1406,2025-11-30 17:37:52.799,2025-11-30 14:37:52.799,15,0,0,51.674,-22.959774,-67.786893,0.00,0.00,-0.40,0.60,0.30,97.70,0,1,0,97,91,-988,10841,51674,2961.50,36,WP,1,0,0,0,0,0,0,1764524272798,4304,4309,4308,4307,4314,4305,18,,,,,,,0,0,0,-6.00,3.00,977.00,0.00,1.00,28.00,14,13.00,4.00,4.34,0.00,0.00,-4.00,0,,,100,100,20,2,0,0,1,1,0,,,,,0.0,0.0,0.0,0.0,0.0,0.0,0
-22.959770,-67.786892,1.30,0.00,0.70,0.44,1.30,1.30,0.70,0.44,1511,2025-11-30 17:37:52.903,2025-11-30 14:37:52.903,15,0,0,50.938,-22.959774,-67.786893,0.00,0.00,-0.70,1.00,-0.30,97.70,0,1,0,97,91,-25069,10841,50938,2961.50,36,WP,1,0,0,0,0,0,0,1764524272903,4304,4309,4308,4307,4314,4305,18,,,,,,,0,0,0,-10.00,-3.00,977.00,0.00,1.00,28.00,14,13.00,7.00,4.37,0.00,0.00,-7.00,0,,,100,100,20,2,0,0,1,1,0,,,,,0.0,0.0,0.0,0.0,0.0,0.0,0
-22.959770,-67.786892,1.40,0.00,1.00,0.44,1.40,1.40,1.00,0.44,1614,2025-11-30 17:37:53.007,2025-11-30 14:37:53.007,15,0,0,50.938,-22.959774,-67.786893,0.00,0.10,-1.00,0.90,-0.50,97.70,0,1,0,97,91,-25069,10841,50938,2961.50,36,WP,1,0,0,0,0,0,0,1764524273006,4304,4309,4308,4307,4314,4305,18,,,,,,,0,0,0,-9.00,-5.00,977.00,0.00,1.00,28.00,14,14.00,10.05,4.39,0.00,1.00,-10.00,0,,,100,100,20,2,0,0,1,1,0,,,,,0.0,0.0,0.0,0.0,0.0,0.0,0
-22.959770,-67.786892,1.50,0.00,1.30,0.45,1.50,1.50,1.30,0.45,1715,2025-11-30 17:37:53.108,2025-11-30 14:37:53.108,14,0,0,50.938,-22.959774,-67.786893,0.00,0.10,-1.30,0.20,0.00,97.70,0,1,0,97,91,-25069,10841,50938,2961.50,36,WP,1,0,0,0,0,0,0,1764524273107,4304,4309,4308,4307,4314,4305,18,,,,,,,0,0,0,-2.00,0.00,977.00,0.00,1.00,28.00,14,15.00,13.04,4.45,0.00,1.00,-13.00,0,,,100,100,20,2,0,0,1,1,0,,,,,0.0,0.0,0.0,0.0,0.0,0.0,0
-22.959770,-67.786892,1.70,0.00,1.60,0.45,1.70,1.70,1.60,0.45,1815,2025-11-30 17:37:53.208,2025-11-30 14:37:53.208,14,0,0,50.938,-22.959774,-67.786893,0.00,0.10,-1.60,0.00,0.80,97.80,0,1,0,97,91,-25069,10841,50938,2961.50,36,WP,1,0,0,0,0,0,0,1764524273207,4304,4309,4308,4307,4314,4305,18,,,,,,,0,0,0,-0.00,8.00,978.00,0.00,1.00,28.00,14,17.00,16.03,4.48,0.00,1.00,-16.00,0,,,100,100,20,2,0,0,1,1,0,,,,,0.0,0.0,0.0,0.0,0.0,0.0,0
-22.959770,-67.786892,1.90,0.00,1.90,0.45,1.90,1.90,1.90,0.45,1914,2025-11-30 17:37:53.306,2025-11-30 14:37:53.306,14,0,0,50.938,-22.959774,-67.786893,0.00,0.10,-1.90,0.60,1.50,98.00,0,1,0,97,91,-25069,10841,50938,2961.50,36,WP,1,0,0,0,0,0,0,1764524273306,4304,4309,4308,4307,4314,4305,18,,,,,,,0,0,0,-6.00,15.00,980.00,0.00,1.00,27.00,14,19.00,19.03,4.53,0.00,1.00,-19.00,0,,,100,100,20,2,0,0,1,1,0,,,,,0.0,0.0,0.0,0.0,0.0,0.0,0
-22.959770,-67.786891,2.10,0.00,2.10,0.45,2.10,2.10,2.10,0.45,2009,2025-11-30 17:37:53.402,2025-11-30 14:37:53.402,14,0,0,50.938,-22.959774,-67.786893,0.00,0.10,-2.10,1.40,1.50,98.10,0,1,0,97,91,-25069,10841,50938,2961.50,36,WP,1,0,0,0,0,0,0,1764524273401,4304,4309,4308,4307,4314,4305,18,,,,,,,0,0,0,-14.00,15.00,981.00,0.00,1.00,25.00,14,21.00,21.02,4.55,0.00,1.00,-21.00,0,,,100,100,20,2,0,0,1,1,0,,,,,0.0,0.0,0.0,0.0,0.0,0.0,0
-22.959770,-67.786891,2.40,0.00,2.40,0.46,2.40,2.40,2.40,0.46,2112,2025-11-30 17:37:53.505,2025-11-30 14:37:53.505,15,0,0,50.938,-22.959774,-67.786893,0.00,0.10,-2.40,2.00,0.90,98.00,0,1,0,97,91,-25069,10841,50938,2961.50,36,WP,1,0,0,0,0,0,0,1764524273504,4304,4309,4308,4307,4314,4305,18,,,,,,,0,0,0,-20.00,9.00,980.00,0.00,1.00,24.00,14,24.00,24.02,4.59,0.00,1.00,-24.00,0,,,100,100,20,2,0,0,1,1,0,,,,,0.0,0.0,0.0,0.0,0.0,0.0,0
-22.959770,-67.786891,2.60,0.00,2.70,0.46,2.60,2.60,2.70,0.46,2216,2025-11-30 17:37:53.608,2025-11-30 14:37:53.608,15,0,0,50.938,-22.959774,-67.786893,0.00,0.10,-2.70,2.10,0.40,97.80,0,1,0,97,91,-25069,10841,50938,2961.50,36,WP,1,0,0,0,0,0,0,1764524273608,4304,4309,4308,4307,4314,4305,18,,,,,,,0,0,0,-21.00,4.00,978.00,0.00,1.00,25.00,14,26.00,27.02,4.60,0.00,1.00,-27.00,0,,,100,100,20,2,0,0,1,1,0,,,,,0.0,0.0,0.0,0.0,0.0,0.0,0
-22.959770,-67.786891,2.90,0.00,3.00,0.47,2.90,2.90,3.00,0.47,2312,2025-11-30 17:37:53.705,2025-11-30 14:37:53.705,15,0,0,50.938,-22.959774,-67.786893,0.00,0.10,-3.00,1.80,0.20,97.70,0,1,0,97,91,-25069,10841,50938,2961.50,36,WP,1,0,0,0,0,0,0,1764524273704,4304,4309,4308,4307,4314,4305,18,,,,,,,0,0,0,-18.00,2.00,977.00,0.00,1.00,27.00,14,29.00,30.02,4.66,0.00,1.00,-30.00,0,,,100,100,20,2,0,0,1,1,0,,,,,0.0,0.0,0.0,0.0,0.0,0.0,0
-22.959770,-67.786891,3.20,0.00,3.20,0.47,3.20,3.20,3.20,0.47,2416,2025-11-30 17:37:53.808,2025-11-30 14:37:53.808,15,0,0,50.938,-22.959774,-67.786893,0.00,0.10,-3.20,1.50,0.10,97.70,0,1,0,97,91,-25069,10841,50938,2961.50,36,WP,1,0,0,0,0,0,0,1764524273808,4304,4309,4308,4307,4314,4305,18,,,,,,,0,0,0,-15.00,1.00,977.00,0.00,1.00,28.00,14,32.00,32.02,4.69,0.00,1.00,-32.00,0,,,100,100,20,2,0,0,1,1,0,,,,,0.0,0.0,0.0,0.0,0.0,0.0,0
-22.959771,-67.786890,3.50,0.00,3.30,0.47,3.50,3.50,3.30,0.47,2519,2025-11-30 17:37:53.912,2025-11-30 14:37:53.912,15,0,0,50.938,-22.959774,-67.786893,0.00,0.10,-3.30,1.70,0.20,97.80,0,1,0,97,91,-25069,10841,50938,2961.50,36,WP,1,0,0,0,0,0,0,1764524273911,4304,4309,4308,4307,4314,4305,18,,,,,,,0,0,0,-17.00,2.00,978.00,0.00,1.00,27.00,14,35.00,33.02,4.74,0.00,1.00,-33.00,0,,,100,100,20,2,0,0,1,1,0,,,,,0.0,0.0,0.0,0.0,0.0,0.0,0
-22.959771,-67.786890,3.80,0.00,3.50,0.48,3.80,3.80,3.50,0.48,2614,2025-11-30 17:37:54.007,2025-11-30 14:37:54.007,15,0,0,50.938,-22.959774,-67.786893,0.00,0.10,-3.50,2.10,0.40,97.80,0,1,0,97,91,-25069,10841,50938,2961.50,36,WP,1,0,0,0,0,0,0,1764524274006,4304,4309,4308,4307,4314,4305,18,,,,,,,0,0,0,-21.00,4.00,978.00,0.00,1.00,27.00,14,38.00,35.01,4.76,0.00,1.00,-35.00,0,,,100,100,20,2,0,0,1,1,0,,,,,0.0,0.0,0.0,0.0,0.0,0.0,0
-22.959771,-67.786890,4.20,0.00,3.50,0.48,4.20,4.20,3.50,0.48,2718,2025-11-30 17:37:54.111,2025-11-30 14:37:54.111,15,0,0,50.938,-22.959774,-67.786893,0.00,0.10,-3.50,2.40,0.60,97.70,0,1,0,97,91,-25069,10841,50938,2961.50,36,WP,1,0,0,0,0,0,0,1764524274110,4304,4309,4308,4307,4314,4305,18,,,,,,,0,0,0,-24.00,6.00,977.00,0.00,1.00,27.00,14,42.00,35.01,4.80,0.00,1.00,-35.00,0,,,100,100,20,2,0,0,1,1,0,,,,,0.0,0.0,0.0,0.0,0.0,0.0,0
-22.959771,-67.786890,4.50,0.00,3.60,0.48,4.50,4.50,3.60,0.48,2820,2025-11-30 17:37:54.213,2025-11-30 14:37:54.213,15,0,0,50.938,-22.959774,-67.786893,0.00,0.10,-3.60,2.20,0.60,97.60,0,1,0,97,91,-25069,10841,50938,2961.50,36,WP,1,0,0,0,0,0,0,1764524274212,4304,4309,4308,4307,4314,4305,18,,,,,,,0,0,0,-22.00,6.00,976.00,0.00,1.00,27.00,14,45.00,36.01,4.81,0.00,1.00,-36.00,0,,,100,100,20,2,0,0,1,1,0,,,,,0.0,0.0,0.0,0.0,0.0,0.0,0
-22.959771,-67.786890,4.90,0.00,3.60,0.48,4.90,4.90,3.60,0.48,2916,2025-11-30 17:37:54.309,2025-11-30 14:37:54.309,15,0,0,50.938,-22.959774,-67.786893,0.00,0.10,-3.60,1.80,0.60,97.70,0,1,0,97,91,-25069,10841,50938,2961.50,36,WP,1,0,0,0,0,0,0,1764524274308,4304,4309,4308,4307,4314,4305,18,,,,,,,0,0,0,-18.00,6.00,977.00,0.00,1.00,28.00,14,49.00,36.01,4.83,0.00,1.00,-36.00,0,,,100,100,20,2,0,0,1,1,0,,,,,0.0,0.0,0.0,0.0,0.0,0.0,0
-22.959771,-67.786890,5.20,0.00,3.50,0.48,5.20,5.20,3.60,0.48,3020,2025-11-30 17:37:54.412,2025-11-30 14:37:54.412,15,0,0,50.938,-22.959774,-67.786893,0.00,0.10,-3.50,1.40,0.80,97.80,0,1,0,97,91,-25069,10841,50938,2961.50,36,WP,1,0,0,0,0,0,0,1764524274412,4304,4309,4308,4307,4314,4305,18,,,,,,,0,0,0,-14.00,8.00,978.00,0.00,1.00,28.00,14,52.00,35.01,4.82,0.00,1.00,-35.00,0,,,100,100,20,2,0,0,1,1,0,,,,,0.0,0.0,0.0,0.0,0.0,0.0,0
-22.959771,-67.786889,5.50,0.00,3.40,0.48,5.50,5.50,3.60,0.48,3132,2025-11-30 17:37:54.524,2025-11-30 14:37:54.524,15,0,0,50.938,-22.959774,-67.786893,-0.10,0.10,-3.40,1.40,0.90,97.80,0,1,0,97,91,-25069,10841,50938,2961.50,36,WP,1,0,0,0,0,0,0,1764524274524,4304,4309,4308,4307,4314,4305,18,,,,,,,0,0,0,-14.00,9.00,978.00,0.00,1.00,27.00,14,55.00,34.03,4.84,-1.00,1.00,-34.00,0,,,100,100,20,2,0,0,1,1,0,,,,,0.0,0.0,0.0,0.0,0.0,0.0,0
-22.959771,-67.786889,5.80,0.00,3.30,0.49,5.80,5.80,3.60,0.49,3225,2025-11-30 17:37:54.618,2025-11-30 14:37:54.618,15,0,0,50.938,-22.959774,-67.786893,-0.10,0.10,-3.30,1.70,0.50,97.80,0,1,0,97,91,-25069,10841,50938,2961.50,36,WP,1,0,0,0,0,0,0,1764524274617,4304,4309,4308,4307,4314,4305,18,,,,,,,0,0,0,-17.00,5.00,978.00,0.00,1.00,26.00,14,58.00,33.03,4.87,-1.00,1.00,-33.00,0,,,100,100,20,2,0,0,1,1,0,,,,,0.0,0.0,0.0,0.0,0.0,0.0,0
-22.959771,-67.786889,6.20,0.00,3.20,0.50,6.20,6.20,3.60,0.50,3327,2025-11-30 17:37:54.719,2025-11-30 14:37:54.719,15,0,0,50.938,-22.959774,-67.786893,-0.10,0.10,-3.20,2.00,0.00,97.70,0,1,0,97,91,-25069,10841,50938,2961.50,36,WP,1,0,0,0,0,0,0,1764524274719,4304,4309,4308,4307,4314,4305,18,,,,,,,0,0,0,-20.00,0.00,977.00,0.00,1.00,27.00,14,62.00,32.03,4.96,-1.00,1.00,-32.00,0,,,100,100,20,2,0,0,1,1,0,,,,,0.0,0.0,0.0,0.0,0.0,0.0,0
-22.959772,-67.786889,6.80,0.00,3.10,0.52,6.80,6.80,3.60,0.52,3527,2025-11-30 17:37:54.920,2025-11-30 14:37:54.920,15,0,0,46.134,-22.959774,-67.786893,0.00,0.10,-3.10,2.90,-1.50,97.50,0,1,0,97,91,-60785,10841,46134,2961.50,36,WP,1,0,0,0,0,0,0,1764524274919,4304,4309,4308,4307,4314,4305,18,,,,,,,0,0,0,-29.00,-15.00,975.00,0.00,1.00,29.00,14,68.00,31.02,5.22,0.00,1.00,-31.00,0,,,100,100,20,2,0,0,1,1,0,,,,,0.0,0.0,0.0,0.0,0.0,0.0,0
-22.959772,-67.786888,7.10,0.00,3.00,0.54,7.10,7.10,3.60,0.54,3633,2025-11-30 17:37:55.026,2025-11-30 14:37:55.026,15,0,0,46.134,-22.959774,-67.786893,0.00,0.10,-3.00,3.60,-1.60,97.60,0,1,0,97,91,-60785,10841,46134,2961.50,36,WP,1,0,0,0,0,0,0,1764524275025,4304,4309,4308,4307,4314,4305,18,,,,,,,0,0,0,-36.00,-16.00,976.00,0.00,1.00,29.00,14,71.00,30.02,5.38,0.00,1.00,-30.00,0,,,100,100,20,2,0,0,1,1,0,,,,,0.0,0.0,0.0,0.0,0.0,0.0,0
-22.959772,-67.786888,7.40,0.00,3.00,0.57,7.40,7.40,3.60,0.57,3723,2025-11-30 17:37:55.115,2025-11-30 14:37:55.115,15,0,0,46.134,-22.959774,-67.786893,0.00,0.10,-3.00,4.20,-1.10,97.80,0,1,0,97,91,-60785,10841,46134,2961.50,36,WP,1,0,0,0,0,0,0,1764524275115,4304,4309,4308,4307,4314,4305,18,,,,,,,0,0,0,-42.00,-11.00,978.00,0.00,1.00,28.00,14,74.00,30.02,5.65,0.00,1.00,-30.00,0,,,100,100,20,2,0,0,1,1,0,,,,,0.0,0.0,0.0,0.0,0.0,0.0,0
-22.959771,-67.786888,7.70,0.00,3.00,0.59,7.70,7.70,3.60,0.59,3829,2025-11-30 17:37:55.221,2025-11-30 14:37:55.221,15,0,0,46.134,-22.959774,-67.786893,0.00,0.10,-3.00,4.60,-0.30,98.00,0,1,0,97,91,-60785,10841,46134,2961.50,36,WP,1,0,0,0,0,0,0,1764524275221,4304,4309,4308,4307,4314,4305,18,,,,,,,0,0,0,-46.00,-3.00,980.00,0.00,1.00,27.00,14,77.00,30.02,5.88,0.00,1.00,-30.00,0,,,100,100,20,2,0,0,1,1,0,,,,,0.0,0.0,0.0,0.0,0.0,0.0,0
-22.959771,-67.786888,8.00,0.00,3.00,0.61,8.00,8.00,3.60,0.61,3929,2025-11-30 17:37:55.322,2025-11-30 14:37:55.322,15,0,0,46.134,-22.959774,-67.786893,0.00,0.10,-3.00,4.50,0.50,98.10,0,1,0,97,91,-60785,10841,46134,2961.50,36,WP,1,0,0,0,0,0,0,1764524275321,4304,4309,4308,4307,4314,4305,18,,,,,,,0,0,0,-45.00,5.00,981.00,0.00,1.00,25.00,14,80.00,30.02,6.15,0.00,1.00,-30.00,0,,,100,100,20,2,0,0,1,1,0,,,,,0.0,0.0,0.0,0.0,0.0,0.0,0
-22.959771,-67.786888,8.30,0.00,3.00,0.63,8.30,8.30,3.60,0.63,4128,2025-11-30 17:37:55.520,2025-11-30 14:37:55.520,15,0,0,46.134,-22.959774,-67.786893,0.00,0.10,-3.00,4.10,1.10,98.10,0,1,0,97,91,-60785,10841,46134,2961.50,36,WP,1,0,0,0,0,0,0,1764524275520,4304,4309,4308,4307,4314,4305,18,,,,,,,0,0,0,-41.00,11.00,981.00,0.00,1.00,24.00,14,83.00,30.02,6.35,0.00,1.00,-30.00,0,,,100,100,20,2,0,0,1,1,0,,,,,0.0,0.0,0.0,0.0,0.0,0.0,0
-22.959771,-67.786887,8.60,0.00,3.10,0.66,8.60,8.60,3.60,0.66,4133,2025-11-30 17:37:55.526,2025-11-30 14:37:55.526,15,0,0,46.134,-22.959774,-67.786893,0.00,0.00,-3.10,3.90,0.90,98.00,0,1,0,97,91,-60785,10841,46134,2961.50,36,WP,1,0,0,0,0,0,0,1764524275525,4304,4309,4308,4307,4314,4305,18,,,,,,,0,0,0,-39.00,9.00,980.00,0.00,1.00,23.00,14,86.00,31.00,6.58,0.00,0.00,-31.00,0,,,100,100,20,2,0,0,1,1,0,,,,,0.0,0.0,0.0,0.0,0.0,0.0,0
-22.959771,-67.786887,8.90,0.00,3.20,0.68,8.90,8.90,3.60,0.68,4227,2025-11-30 17:37:55.619,2025-11-30 14:37:55.619,15,0,0,46.134,-22.959774,-67.786893,0.10,0.00,-3.20,3.90,0.50,97.80,0,1,0,97,91,-60785,10841,46134,2961.50,36,WP,1,0,0,0,0,0,0,1764524275619,4304,4309,4308,4307,4314,4305,18,,,,,,,0,0,0,-39.00,5.00,978.00,0.00,1.00,24.00,14,89.00,32.02,6.77,1.00,0.00,-32.00,0,,,100,100,20,2,0,0,1,1,0,,,,,0.0,0.0,0.0,0.0,0.0,0.0,0
-22.959771,-67.786887,9.30,0.00,3.20,0.70,9.30,9.30,3.60,0.70,4329,2025-11-30 17:37:55.722,2025-11-30 14:37:55.722,15,0,0,46.134,-22.959774,-67.786893,0.10,0.00,-3.20,3.70,0.60,97.70,0,1,0,97,91,-60785,10841,46134,2961.50,36,WP,1,0,0,0,0,0,0,1764524275721,4304,4309,4308,4307,4314,4305,18,,,,,,,0,0,0,-37.00,6.00,977.00,0.00,1.00,27.00,14,93.00,32.02,7.05,1.00,0.00,-32.00,0,,,100,100,20,2,0,0,1,1,0,,,,,0.0,0.0,0.0,0.0,0.0,0.0,0
-22.959770,-67.786887,9.60,0.00,3.20,0.73,9.60,9.60,3.60,0.73,4432,2025-11-30 17:37:55.825,2025-11-30 14:37:55.825,15,0,0,46.134,-22.959774,-67.786893,0.10,0.00,-3.20,3.70,1.10,97.80,0,1,0,97,91,-60785,10841,46134,2961.50,36,WP,1,0,0,0,0,0,0,1764524275824,4304,4309,4308,4307,4314,4305,18,,,,,,,0,0,0,-37.00,11.00,978.00,0.00,1.00,28.00,14,96.00,32.02,7.29,1.00,0.00,-32.00,0,,,100,100,20,2,0,0,1,1,0,,,,,0.0,0.0,0.0,0.0,0.0,0.0,0
-22.959770,-67.786887,10.00,0.00,3.21,0.76,10.00,10.00,3.60,0.76,4532,2025-11-30 17:37:55.924,2025-11-30 14:37:55.924,15,0,0,46.134,-22.959774,-67.786893,0.20,0.00,-3.20,4.10,1.90,97.90,0,1,0,97,91,-60785,10841,46134,2961.50,36,WP,1,0,0,0,0,0,0,1764524275924,3648,3681,3699,3681,3685,3642,18,,,,,,,0,0,0,-41.00,19.00,979.00,0.00,1.00,26.00,14,100.00,32.06,7.55,2.00,0.00,-32.00,0,,,100,99,20,2,0,0,1,1,0,,,,,0.0,0.0,0.0,0.0,0.0,0.0,0
-22.959770,-67.786887,10.30,0.00,3.21,0.77,10.30,10.30,3.60,0.77,4630,2025-11-30 17:37:56.022,2025-11-30 14:37:56.022,15,0,0,46.134,-22.959774,-67.786893,0.20,0.00,-3.20,4.50,2.60,98.00,0,1,0,97,91,-60785,10841,46134,2961.50,36,WP,1,0,0,0,0,0,0,1764524276022,3648,3681,3699,3681,3685,3642,18,,,,,,,0,0,0,-45.00,26.00,980.00,0.00,1.00,25.00,14,103.00,32.06,7.74,2.00,0.00,-32.00,0,,,100,99,20,2,0,0,1,1,0,,,,,0.0,0.0,0.0,0.0,0.0,0.0,0
-22.959770,-67.786887,10.60,0.00,3.20,0.79,10.60,10.60,3.60,0.79,4731,2025-11-30 17:37:56.123,2025-11-30 14:37:56.123,15,0,0,46.134,-22.959774,-67.786893,0.10,0.00,-3.20,4.70,3.10,97.90,0,1,0,97,91,-60785,10841,46134,2961.50,36,WP,1,0,0,0,0,0,0,1764524276123,3648,3681,3699,3681,3685,3642,18,,,,,,,0,0,0,-47.00,31.00,979.00,0.00,1.00,25.00,14,106.00,32.02,7.94,1.00,0.00,-32.00,0,,,100,99,20,2,0,0,1,1,0,,,,,0.0,0.0,0.0,0.0,0.0,0.0,0
-22.959769,-67.786887,10.90,0.00,3.20,0.81,10.90,10.90,3.60,0.81,4832,2025-11-30 17:37:56.225,2025-11-30 14:37:56.225,15,0,0,46.134,-22.959774,-67.786893,0.10,0.00,-3.20,4.60,3.50,97.90,0,1,0,97,91,-60785,10841,46134,2961.50,36,WP,1,0,0,0,0,0,0,1764524276224,3648,3681,3699,3681,3685,3642,18,,,,,,,0,0,0,-46.00,35.00,979.00,0.00,1.00,25.00,14,109.00,32.02,8.07,1.00,0.00,-32.00,0,,,100,99,20,2,0,0,1,1,0,,,,,0.0,0.0,0.0,0.0,0.0,0.0,0
-22.959769,-67.786887,11.30,0.00,3.10,0.82,11.30,11.30,3.60,0.82,4935,2025-11-30 17:37:56.327,2025-11-30 14:37:56.327,15,0,0,46.134,-22.959774,-67.786893,0.10,0.00,-3.10,4.40,3.50,97.90,0,1,0,97,91,-60785,10841,46134,2961.50,36,WP,1,0,0,0,0,0,0,1764524276327,3648,3681,3699,3681,3685,3642,18,,,,,,,0,0,0,-44.00,35.00,979.00,0.00,1.00,25.00,14,113.00,31.02,8.18,1.00,0.00,-31.00,0,,,100,99,20,2,0,0,1,1,0,,,,,0.0,0.0,0.0,0.0,0.0,0.0,0
-22.959769,-67.786887,11.90,0.00,3.10,0.83,11.90,11.90,3.60,0.83,5134,2025-11-30 17:37:56.527,2025-11-30 14:37:56.527,15,0,0,46.134,-22.959774,-67.786893,0.10,0.00,-3.10,4.10,3.20,97.90,0,1,0,97,91,-60785,10841,46134,2961.50,36,WP,1,0,0,0,0,0,0,1764524276526,3648,3681,3699,3681,3685,3642,18,,,,,,,0,0,0,-41.00,32.00,979.00,0.00,1.00,25.00,14,119.00,31.02,8.28,1.00,0.00,-31.00,0,,,100,97,20,2,0,0,1,1,0,,,,,0.0,0.0,0.0,0.0,0.0,0.0,0
-22.959769,-67.786887,12.20,0.00,3.10,0.83,12.20,12.20,3.60,0.83,5238,2025-11-30 17:37:56.631,2025-11-30 14:37:56.631,15,0,0,46.134,-22.959774,-67.786893,0.10,0.00,-3.10,4.20,3.20,97.90,0,1,0,97,91,-60785,10841,46134,2961.50,36,WP,1,0,0,0,0,0,0,1764524276630,3648,3681,3699,3681,3685,3642,18,,,,,,,0,0,0,-42.00,32.00,979.00,0.00,1.00,26.00,14,122.00,31.02,8.28,1.00,0.00,-31.00,0,,,100,97,20,2,0,0,1,1,0,,,,,0.0,0.0,0.0,0.0,0.0,0.0,0
-22.959769,-67.786887,12.50,0.00,3.00,0.83,12.50,12.50,3.60,0.83,5346,2025-11-30 17:37:56.738,2025-11-30 14:37:56.739,15,0,0,44.568,-22.959774,-67.786893,0.10,0.00,-3.00,4.20,3.00,97.90,0,1,0,97,91,-57936,10767,44568,2961.50,36,WP,1,0,0,0,0,0,0,1764524276738,3648,3681,3699,3681,3685,3642,18,,,,,,,0,0,0,-42.00,30.00,979.00,0.00,1.00,25.00,14,125.00,30.02,8.28,1.00,0.00,-30.00,0,,,100,97,20,2,0,0,1,1,0,,,,,0.0,0.0,0.0,0.0,0.0,0.0,0
-22.959769,-67.786887,12.90,0.00,3.10,0.83,12.90,12.90,3.60,0.83,5448,2025-11-30 17:37:56.841,2025-11-30 14:37:56.841,15,0,0,44.568,-22.959774,-67.786893,0.10,0.00,-3.10,4.20,2.60,97.90,0,1,0,97,91,-57936,10767,44568,2961.50,36,WP,1,0,0,0,0,0,0,1764524276840,3648,3681,3699,3681,3685,3642,18,,,,,,,0,0,0,-42.00,26.00,979.00,0.00,1.00,25.00,14,129.00,31.02,8.26,1.00,0.00,-31.00,0,,,100,97,20,2,0,0,1,1,0,,,,,0.0,0.0,0.0,0.0,0.0,0.0,0
-22.959769,-67.786888,13.20,0.00,3.00,0.82,13.20,13.20,3.60,0.83,5541,2025-11-30 17:37:56.933,2025-11-30 14:37:56.933,15,0,0,44.568,-22.959774,-67.786893,0.10,0.00,-3.00,4.00,2.60,97.90,0,1,0,97,91,-57936,10767,44568,2961.50,36,WP,1,0,0,0,0,0,0,1764524276933,3648,3681,3699,3681,3685,3642,18,,,,,,,0,0,0,-40.00,26.00,979.00,0.00,1.00,25.00,14,132.00,30.02,8.21,1.00,0.00,-30.00,0,,,100,97,20,2,0,0,1,1,0,,,,,0.0,0.0,0.0,0.0,0.0,0.0,0
-22.959768,-67.786888,13.50,0.00,3.00,0.81,13.50,13.50,3.60,0.83,5647,2025-11-30 17:37:57.040,2025-11-30 14:37:57.040,15,0,0,44.568,-22.959774,-67.786893,0.10,-0.10,-3.00,3.70,2.80,97.90,0,1,0,97,91,-57936,10767,44568,2961.50,36,WP,1,0,0,0,0,0,0,1764524277039,3648,3681,3699,3681,3685,3642,18,,,,,,,0,0,0,-37.00,28.00,979.00,0.00,1.00,25.00,14,135.00,30.03,8.14,1.00,-1.00,-30.00,0,,,100,97,20,2,0,0,1,1,0,,,,,0.0,0.0,0.0,0.0,0.0,0.0,0
-22.959768,-67.786888,13.80,0.00,2.90,0.81,13.80,13.80,3.60,0.83,5742,2025-11-30 17:37:57.135,2025-11-30 14:37:57.135,15,0,0,44.568,-22.959774,-67.786893,0.10,-0.10,-2.90,3.50,2.80,97.90,0,1,0,97,91,-57936,10767,44568,2961.50,36,WP,1,0,0,0,0,0,0,1764524277134,3648,3681,3699,3681,3685,3642,18,,,,,,,0,0,0,-35.00,28.00,979.00,0.00,1.00,25.00,14,138.00,29.03,8.12,1.00,-1.00,-29.00,0,,,100,97,20,2,0,0,1,1,0,,,,,0.0,0.0,0.0,0.0,0.0,0.0,0
-22.959768,-67.786888,14.10,0.00,2.90,0.81,14.10,14.10,3.60,0.83,5846,2025-11-30 17:37:57.238,2025-11-30 14:37:57.238,15,0,0,44.568,-22.959774,-67.786893,0.10,-0.10,-2.90,3.30,3.00,98.00,0,1,0,97,91,-57936,10767,44568,2961.50,36,WP,1,0,0,0,0,0,0,1764524277238,3648,3681,3699,3681,3685,3642,18,,,,,,,0,0,0,-33.00,30.00,980.00,0.00,1.00,25.00,14,141.00,29.03,8.10,1.00,-1.00,-29.00,0,,,100,97,20,2,0,0,1,1,0,,,,,0.0,0.0,0.0,0.0,0.0,0.0,0
-22.959768,-67.786888,14.40,0.00,2.90,0.81,14.40,14.40,3.60,0.83,5948,2025-11-30 17:37:57.341,2025-11-30 14:37:57.341,15,0,0,44.568,-22.959774,-67.786893,0.10,-0.10,-2.90,3.10,3.20,97.90,0,1,0,97,91,-57936,10767,44568,2961.50,36,WP,1,0,0,0,0,0,0,1764524277340,3648,3681,3699,3681,3685,3642,18,,,,,,,0,0,0,-31.00,32.00,979.00,-1.00,1.00,25.00,14,144.00,29.03,8.11,1.00,-1.00,-29.00,0,,,100,97,20,2,0,0,1,1,0,,,,,0.0,0.0,0.0,0.0,0.0,0.0,0
-22.959768,-67.786888,14.70,0.00,3.00,0.81,14.70,14.70,3.60,0.83,6047,2025-11-30 17:37:57.439,2025-11-30 14:37:57.439,15,0,0,44.568,-22.959774,-67.786893,0.10,-0.10,-3.00,3.10,3.40,97.90,0,1,0,97,91,-57936,10767,44568,2961.50,36,WP,1,0,0,0,0,0,0,1764524277439,3648,3681,3699,3681,3685,3642,18,,,,,,,0,0,0,-31.00,34.00,979.00,-1.00,1.00,25.00,14,147.00,30.03,8.09,1.00,-1.00,-30.00,0,,,100,97,20,2,0,0,1,1,0,,,,,0.0,0.0,0.0,0.0,0.0,0.0,0
-22.959768,-67.786889,15.00,0.00,3.00,0.81,15.00,15.00,3.60,0.83,6143,2025-11-30 17:37:57.535,2025-11-30 14:37:57.535,15,0,0,44.568,-22.959774,-67.786893,0.10,-0.10,-3.00,3.00,3.60,97.90,0,1,0,97,91,-57936,10767,44568,2961.50,36,WP,1,0,0,0,0,0,0,1764524277535,3648,3681,3699,3681,3685,3642,18,,,,,,,0,0,0,-30.00,36.00,979.00,0.00,1.00,25.00,14,150.00,30.03,8.11,1.00,-1.00,-30.00,0,,,100,94,20,2,0,0,1,1,0,,,,,0.0,0.0,0.0,0.0,0.0,0.0,0
-22.959768,-67.786889,15.40,0.00,3.00,0.81,15.40,15.40,3.60,0.83,6246,2025-11-30 17:37:57.638,2025-11-30 14:37:57.638,15,0,0,44.568,-22.959774,-67.786893,0.00,-0.10,-3.00,2.90,3.80,97.90,0,1,0,97,91,-57936,10767,44568,2961.50,36,WP,1,0,0,0,0,0,0,1764524277638,3648,3681,3699,3681,3685,3642,18,,,,,,,0,0,0,-29.00,38.00,979.00,-1.00,1.00,25.00,14,154.00,30.02,8.10,0.00,-1.00,-30.00,0,,,100,94,20,2,0,0,1,1,0,,,,,0.0,0.0,0.0,0.0,0.0,0.0,0
-22.959768,-67.786889,15.70,0.00,3.00,0.81,15.70,15.70,3.60,0.83,6344,2025-11-30 17:37:57.736,2025-11-30 14:37:57.736,15,0,0,44.568,-22.959774,-67.786893,0.00,-0.10,-3.00,2.80,4.00,97.90,0,1,0,97,91,-57936,10767,44568,2961.50,36,WP,1,0,0,0,0,0,0,1764524277736,3648,3681,3699,3681,3685,3642,18,,,,,,,0,0,0,-28.00,40.00,979.00,-1.00,1.00,25.00,14,157.00,30.02,8.13,0.00,-1.00,-30.00,0,,,100,94,20,2,0,0,1,1,0,,,,,0.0,0.0,0.0,0.0,0.0,0.0,0
-22.959768,-67.786889,16.10,0.00,3.10,0.81,16.10,16.10,3.60,0.83,6442,2025-11-30 17:37:57.834,2025-11-30 14:37:57.834,15,0,0,44.568,-22.959774,-67.786893,0.00,-0.10,-3.10,2.80,4.10,98.00,0,1,0,97,91,-57936,10767,44568,2961.50,36,WP,1,0,0,0,0,0,0,1764524277834,3648,3681,3699,3681,3685,3642,18,,,,,,,0,0,0,-28.00,41.00,980.00,0.00,1.00,25.00,14,161.00,31.02,8.12,0.00,-1.00,-31.00,0,,,100,94,20,2,0,0,1,1,0,,,,,0.0,0.0,0.0,0.0,0.0,0.0,0
-22.959768,-67.786889,16.40,0.00,3.00,0.81,16.40,16.40,3.60,0.83,6543,2025-11-30 17:37:57.935,2025-11-30 14:37:57.935,15,0,0,44.568,-22.959774,-67.786893,0.00,-0.10,-3.00,3.30,4.30,98.00,0,1,0,97,91,-57936,10767,44568,2961.50,36,WP,1,0,0,0,0,0,0,1764524277935,3648,3681,3699,3681,3685,3642,18,,,,,,,0,0,0,-33.00,43.00,980.00,0.00,1.00,25.00,14,164.00,30.02,8.11,0.00,-1.00,-30.00,0,,,100,94,20,2,0,0,1,1,0,,,,,0.0,0.0,0.0,0.0,0.0,0.0,0
-22.959768,-67.786889,16.70,0.00,2.90,0.80,16.70,16.70,3.60,0.83,6647,2025-11-30 17:37:58.039,2025-11-30 14:37:58.040,15,0,0,44.568,-22.959774,-67.786893,0.00,-0.10,-2.90,4.20,4.70,98.00,0,1,0,97,91,-57936,10767,44568,2961.50,36,WP,1,0,0,0,0,0,0,1764524278039,3648,3681,3699,3681,3685,3642,18,,,,,,,0,0,0,-42.00,47.00,980.00,0.00,1.00,25.00,14,167.00,29.02,8.05,0.00,-1.00,-29.00,0,,,100,94,20,2,0,0,1,1,0,,,,,0.0,0.0,0.0,0.0,0.0,0.0,0
-22.959768,-67.786890,17.00,0.00,2.70,0.79,17.00,17.00,3.60,0.83,6747,2025-11-30 17:37:58.140,2025-11-30 14:37:58.140,15,0,0,44.568,-22.959774,-67.786893,0.00,-0.10,-2.70,5.20,5.10,98.00,0,1,0,97,91,-57936,10767,44568,2961.50,36,WP,1,0,0,0,0,0,0,1764524278139,3648,3681,3699,3681,3685,3642,18,,,,,,,0,0,0,-52.00,51.00,980.00,0.00,1.00,25.00,14,170.00,27.02,7.94,0.00,-1.00,-27.00,0,,,100,96,20,2,0,0,1,1,0,,,,,0.0,0.0,0.0,0.0,0.0,0.0,0
-22.959768,-67.786890,17.30,0.00,2.50,0.78,17.30,17.30,3.60,0.83,6846,2025-11-30 17:37:58.238,2025-11-30 14:37:58.238,15,0,0,44.568,-22.959774,-67.786893,0.00,-0.10,-2.50,6.00,5.40,98.10,0,1,0,97,91,-57936,10767,44568,2961.50,36,WP,1,0,0,0,0,0,0,1764524278238,3648,3681,3699,3681,3685,3642,18,,,,,,,0,0,0,-60.00,54.00,981.00,0.00,1.00,24.00,14,173.00,25.02,7.77,0.00,-1.00,-25.00,0,,,100,96,20,2,0,0,1,1,0,,,,,0.0,0.0,0.0,0.0,0.0,0.0,0
-22.959768,-67.786890,17.50,0.00,2.20,0.76,17.50,17.50,3.60,0.83,6948,2025-11-30 17:37:58.341,2025-11-30 14:37:58.341,15,0,0,44.568,-22.959774,-67.786893,-0.10,-0.10,-2.20,6.30,5.60,98.10,0,1,0,97,91,-57936,10767,44568,2961.50,36,WP,1,0,0,0,0,0,0,1764524278340,3648,3681,3699,3681,3685,3642,18,,,,,,,0,0,0,-63.00,56.00,981.00,0.00,1.00,23.00,14,175.00,22.05,7.61,-1.00,-1.00,-22.00,0,,,100,96,20,2,0,0,1,1,0,,,,,0.0,0.0,0.0,0.0,0.0,0.0,0
-22.959768,-67.786890,17.70,0.00,2.01,0.74,17.70,17.70,3.60,0.83,7048,2025-11-30 17:37:58.441,2025-11-30 14:37:58.441,15,0,0,44.568,-22.959774,-67.786893,-0.10,-0.20,-2.00,6.20,5.60,98.00,0,1,0,97,91,-57936,10767,44568,2961.50,36,WP,1,0,0,0,0,0,0,1764524278440,3648,3681,3699,3681,3685,3642,18,,,,,,,0,0,0,-62.00,56.00,980.00,0.00,1.00,23.00,14,177.00,20.12,7.40,-1.00,-2.00,-20.00,0,,,100,96,20,2,0,0,1,1,0,,,,,0.0,0.0,0.0,0.0,0.0,0.0,0
-22.959768,-67.786890,17.90,0.00,1.81,0.72,17.90,17.90,3.60,0.83,7151,2025-11-30 17:37:58.543,2025-11-30 14:37:58.543,15,0,0,44.568,-22.959774,-67.786893,-0.10,-0.20,-1.80,6.00,5.50,98.00,0,1,0,97,91,-57936,10767,44568,2961.50,36,WP,1,0,0,0,0,0,0,1764524278543,3648,3681,3699,3681,3685,3642,18,,,,,,,0,0,0,-60.00,55.00,980.00,0.00,1.00,24.00,14,179.00,18.14,7.16,-1.00,-2.00,-18.00,0,,,100,96,20,2,0,0,1,1,0,,,,,0.0,0.0,0.0,0.0,0.0,0.0,0
-22.959768,-67.786891,18.00,0.00,1.62,0.68,18.00,18.00,3.60,0.83,7248,2025-11-30 17:37:58.641,2025-11-30 14:37:58.641,15,0,0,44.568,-22.959774,-67.786893,-0.20,-0.20,-1.60,5.60,5.00,98.00,0,1,0,97,91,-57936,10767,44568,2961.50,36,WP,1,0,0,0,0,0,0,1764524278640,3648,3681,3699,3681,3685,3642,18,,,,,,,0,0,0,-56.00,50.00,980.00,-1.00,1.00,25.00,14,180.00,16.25,6.83,-2.00,-2.00,-16.00,0,,,100,95,20,2,0,0,1,1,0,,,,,0.0,0.0,0.0,0.0,0.0,0.0,0
-22.959768,-67.786891,18.20,0.00,1.54,0.65,18.20,18.20,3.60,0.83,7351,2025-11-30 17:37:58.743,2025-11-30 14:37:58.743,15,0,0,44.568,-22.959774,-67.786893,-0.20,-0.30,-1.50,5.00,4.10,98.00,0,1,0,97,91,-57936,10767,44568,2961.50,36,WP,1,0,0,0,0,0,0,1764524278743,3648,3681,3699,3681,3685,3642,18,,,,,,,0,0,0,-50.00,41.00,980.00,-1.00,1.00,25.00,14,182.00,15.43,6.48,-2.00,-3.00,-15.00,0,,,100,95,20,2,0,0,1,1,0,,,,,0.0,0.0,0.0,0.0,0.0,0.0,0
-22.959769,-67.786892,18.30,0.00,1.35,0.61,18.30,18.30,3.60,0.83,7463,2025-11-30 17:37:58.855,2025-11-30 14:37:58.855,15,0,0,44.568,-22.959774,-67.786893,-0.20,-0.30,-1.30,4.40,3.20,98.00,0,1,0,97,91,-57936,10767,44568,2961.50,36,WP,1,0,0,0,0,0,0,1764524278855,3648,3681,3699,3681,3685,3642,18,,,,,,,0,0,0,-44.00,32.00,980.00,-1.00,1.00,25.00,14,183.00,13.49,6.08,-2.00,-3.00,-13.00,0,,,100,95,20,2,0,0,1,1,0,,,,,0.0,0.0,0.0,0.0,0.0,0.0,0
-22.959769,-67.786892,18.60,0.00,1.18,0.53,18.60,18.60,3.60,0.83,7662,2025-11-30 17:37:59.054,2025-11-30 14:37:59.054,15,0,0,44.568,-22.959774,-67.786893,-0.30,-0.30,-1.10,2.70,2.00,98.00,0,1,0,97,91,-57936,10767,44568,2961.50,36,WP,1,0,0,0,0,0,0,1764524279054,3648,3681,3699,3681,3685,3642,18,,,,,,,0,0,0,-27.00,20.00,980.00,-2.00,1.00,25.00,14,186.00,11.79,5.30,-3.00,-3.00,-11.00,0,,,100,95,20,2,0,0,1,1,0,,,,,0.0,0.0,0.0,0.0,0.0,0.0,0
-22.959769,-67.786893,18.70,0.00,1.04,0.50,18.70,18.70,3.60,0.83,7763,2025-11-30 17:37:59.156,2025-11-30 14:37:59.156,15,0,0,44.568,-22.959774,-67.786893,-0.20,-0.20,-1.00,2.10,1.40,98.00,0,1,0,97,91,-57936,10767,44568,2961.50,36,WP,1,0,0,0,0,0,0,1764524279155,3648,3681,3699,3681,3685,3642,18,,,,,,,0,0,0,-21.00,14.00,980.00,-1.00,1.00,24.00,14,187.00,10.39,5.01,-2.00,-2.00,-10.00,0,,,100,97,20,2,0,0,1,1,0,,,,,0.0,0.0,0.0,0.0,0.0,0.0,0
-22.959770,-67.786893,18.80,0.00,1.04,0.47,18.80,18.80,3.60,0.83,7853,2025-11-30 17:37:59.245,2025-11-30 14:37:59.245,15,0,0,44.568,-22.959774,-67.786893,-0.20,-0.20,-1.00,1.80,1.10,98.10,0,1,0,97,91,-57936,10767,44568,2961.50,36,WP,1,0,0,0,0,0,0,1764524279245,3648,3681,3699,3681,3685,3642,18,,,,,,,0,0,0,-18.00,11.00,981.00,-1.00,1.00,24.00,14,188.00,10.39,4.73,-2.00,-2.00,-10.00,0,,,100,97,20,2,0,0,1,1,0,,,,,0.0,0.0,0.0,0.0,0.0,0.0,0
-22.959770,-67.786893,18.90,0.00,1.04,0.46,18.90,18.90,3.60,0.83,7962,2025-11-30 17:37:59.354,2025-11-30 14:37:59.354,15,0,0,44.568,-22.959774,-67.786893,-0.20,-0.20,-1.00,1.90,0.90,98.10,0,1,0,97,91,-57936,10767,44568,2961.50,36,WP,1,0,0,0,0,0,0,1764524279354,3648,3681,3699,3681,3685,3642,18,,,,,,,0,0,0,-19.00,9.00,981.00,-1.00,1.00,24.00,14,189.00,10.39,4.61,-2.00,-2.00,-10.00,0,,,100,97,20,2,0,0,1,1,0,,,,,0.0,0.0,0.0,0.0,0.0,0.0,0
-22.959770,-67.786893,19.10,0.00,1.01,0.45,19.10,19.10,3.60,0.83,8064,2025-11-30 17:37:59.456,2025-11-30 14:37:59.457,15,0,0,44.568,-22.959774,-67.786893,-0.10,-0.10,-1.00,1.80,0.80,98.00,0,1,0,97,91,-57936,10767,44568,2961.50,36,WP,1,0,0,0,0,0,0,1764524279456,3648,3681,3699,3681,3685,3642,18,,,,,,,0,0,0,-18.00,8.00,980.00,-1.00,1.00,24.00,14,191.00,10.10,4.46,-1.00,-1.00,-10.00,0,,,100,97,20,2,0,0,1,1,0,,,,,0.0,0.0,0.0,0.0,0.0,0.0,0
-22.959770,-67.786894,19.20,0.00,1.01,0.44,19.20,19.20,3.60,0.83,8160,2025-11-30 17:37:59.553,2025-11-30 14:37:59.553,15,0,0,44.568,-22.959774,-67.786893,-0.10,-0.10,-1.00,2.00,0.90,98.00,0,1,0,97,91,-57936,10767,44568,2961.50,36,WP,1,0,0,0,0,0,0,1764524279552,3648,3681,3699,3681,3685,3642,18,,,,,,,0,0,0,-20.00,9.00,980.00,-1.00,1.00,25.00,14,192.00,10.10,4.41,-1.00,-1.00,-10.00,0,,,100,97,20,2,0,0,1,1,0,,,,,0.0,0.0,0.0,0.0,0.0,0.0,0
-22.959770,-67.786894,19.30,0.00,1.10,0.43,19.30,19.30,3.60,0.83,8257,2025-11-30 17:37:59.649,2025-11-30 14:37:59.649,15,0,0,44.568,-22.959774,-67.786893,-0.10,0.00,-1.10,2.30,0.80,98.00,0,1,0,97,91,-57936,10767,44568,2961.50,36,WP,1,0,0,0,0,0,0,1764524279649,3648,3681,3699,3681,3685,3642,18,,,,,,,0,0,0,-23.00,8.00,980.00,-1.00,1.00,25.00,14,193.00,11.05,4.30,-1.00,0.00,-11.00,0,,,100,97,20,2,0,0,1,1,0,,,,,0.0,0.0,0.0,0.0,0.0,0.0,0
-22.959770,-67.786893,19.50,0.00,1.10,0.43,19.50,19.50,3.60,0.83,8362,2025-11-30 17:37:59.754,2025-11-30 14:37:59.754,15,0,0,44.568,-22.959774,-67.786893,-0.10,0.00,-1.10,2.60,0.70,98.00,0,1,0,97,91,-57936,10767,44568,2961.50,36,WP,1,0,0,0,0,0,0,1764524279754,3648,3681,3699,3681,3685,3642,18,,,,,,,0,0,0,-26.00,7.00,980.00,-1.00,1.00,25.00,14,195.00,11.05,4.29,-1.00,0.00,-11.00,0,,,100,97,20,2,0,0,1,1,0,,,,,0.0,0.0,0.0,0.0,0.0,0.0,0
-22.959770,-67.786893,19.60,0.00,1.10,0.42,19.60,19.60,3.60,0.83,8462,2025-11-30 17:37:59.854,2025-11-30 14:37:59.854,15,0,0,44.568,-22.959774,-67.786893,0.00,0.00,-1.10,3.00,1.00,98.00,0,1,0,97,91,-57936,10767,44568,2961.50,36,WP,1,0,0,0,0,0,0,1764524279854,3648,3681,3699,3681,3685,3642,18,,,,,,,0,0,0,-30.00,10.00,980.00,0.00,1.00,25.00,14,196.00,11.00,4.23,0.00,0.00,-11.00,0,,,100,97,20,2,0,0,1,1,0,,,,,0.0,0.0,0.0,0.0,0.0,0.0,0
-22.959770,-67.786893,19.90,0.00,1.10,0.44,19.90,19.90,3.60,0.83,8662,2025-11-30 17:38:00.055,2025-11-30 14:38:00.055,15,0,0,44.568,-22.959774,-67.786893,0.00,0.00,-1.10,3.60,2.10,98.00,0,1,0,97,91,-57936,10767,44568,2961.50,36,WP,1,0,0,0,0,0,0,1764524280054,3648,3681,3699,3681,3685,3642,18,,,,,,,0,0,0,-36.00,21.00,980.00,-1.00,1.00,25.00,14,199.00,11.00,4.37,0.00,0.00,-11.00,0,,,100,97,20,2,0,0,1,1,0,,,,,0.0,0.0,0.0,0.0,0.0,0.0,0
-22.959770,-67.786893,20.00,0.00,1.00,0.45,20.00,20.00,3.60,0.83,8762,2025-11-30 17:38:00.155,2025-11-30 14:38:00.155,15,0,0,44.568,-22.959774,-67.786893,0.00,0.00,-1.00,3.20,2.80,100.40,0,1,0,97,91,-57936,10767,44568,2961.50,36,WP,1,0,0,0,0,0,0,1764524280154,3648,3681,3699,3681,3685,3642,18,,,,,,,0,0,0,-32.00,28.00,1004.00,0.00,1.00,25.00,14,200.00,10.00,4.52,0.00,0.00,-10.00,0,,,100,97,20,2,0,0,1,1,0,,,,,0.0,0.0,0.0,0.0,0.0,0.0,0
-22.959770,-67.786893,20.10,0.00,0.80,0.46,20.10,20.10,3.60,0.83,8868,2025-11-30 17:38:00.261,2025-11-30 14:38:00.261,15,0,0,44.568,-22.959774,-67.786893,0.00,0.00,-0.80,2.60,3.80,106.00,0,1,0,97,91,-57936,10767,44568,2961.50,36,WP,1,0,0,0,0,0,0,1764524280260,3648,3681,3699,3681,3685,3642,18,,,,,,,0,0,0,-26.00,38.00,1060.00,-2.00,1.00,-4.00,14,201.00,8.00,4.57,0.00,0.00,-8.00,0,,,100,95,20,2,0,0,1,1,0,,,,,0.0,0.0,0.0,0.0,0.0,0.0,0
-22.959770,-67.786893,20.20,0.00,0.60,0.47,20.20,20.20,3.60,0.83,8961,2025-11-30 17:38:00.353,2025-11-30 14:38:00.353,15,0,0,44.568,-22.959774,-67.786893,0.00,0.00,-0.60,1.80,4.60,113.90,0,1,0,97,91,-57936,10767,44568,2961.50,36,WP,1,0,0,0,0,0,0,1764524280353,3648,3681,3699,3681,3685,3642,18,,,,,,,0,0,0,-18.00,46.00,1139.00,0.00,2.00,-63.00,14,202.00,6.00,4.71,0.00,0.00,-6.00,0,,,100,95,20,2,0,0,1,1,0,,,,,0.0,0.0,0.0,0.0,0.0,0.0,0
-22.959770,-67.786893,20.30,0.00,0.41,0.48,20.30,20.30,3.60,0.83,9064,2025-11-30 17:38:00.456,2025-11-30 14:38:00.456,15,0,0,44.568,-22.959774,-67.786893,0.00,0.10,-0.40,1.40,5.00,123.30,0,1,0,97,91,-57936,10767,44568,2961.50,36,WP,1,0,0,0,0,0,0,1764524280456,3648,3681,3699,3681,3685,3642,18,,,,,,,0,0,0,-14.00,50.00,1233.00,-1.00,1.00,-143.00,14,203.00,4.12,4.79,0.00,1.00,-4.00,0,,,100,95,20,2,0,0,1,1,0,,,,,0.0,0.0,0.0,0.0,0.0,0.0,0
-22.959770,-67.786893,20.40,0.00,0.32,0.50,20.40,20.40,3.60,0.83,9166,2025-11-30 17:38:00.558,2025-11-30 14:38:00.559,15,0,0,44.568,-22.959774,-67.786893,0.00,0.10,-0.30,2.00,4.40,132.60,0,1,0,97,91,-57936,10767,44568,2961.50,36,WP,1,0,0,0,0,0,0,1764524280558,3648,3681,3699,3681,3685,3642,18,,,,,,,0,0,0,-20.00,44.00,1326.00,-2.00,0.00,-212.00,14,204.00,3.16,4.99,0.00,1.00,-3.00,0,,,100,95,20,2,0,0,1,1,0,,,,,0.0,0.0,0.0,0.0,0.0,0.0,0
-22.959769,-67.786893,20.40,0.00,0.14,0.51,20.40,20.40,3.60,0.83,9268,2025-11-30 17:38:00.660,2025-11-30 14:38:00.660,15,0,0,44.568,-22.959774,-67.786893,0.00,0.10,-0.10,2.90,3.30,141.90,0,1,0,97,91,-57936,10767,44568,2961.50,36,WP,1,0,0,0,0,0,0,1764524280660,3648,3681,3699,3681,3685,3642,18,,,,,,,0,0,0,-29.00,33.00,1419.00,-1.00,1.00,-306.00,14,204.00,1.41,5.07,0.00,1.00,-1.00,0,,,100,95,20,2,0,0,1,1,0,,,,,0.0,0.0,0.0,0.0,0.0,0.0,0
-22.959769,-67.786892,20.40,0.00,0.10,0.53,20.40,20.40,3.60,0.83,9364,2025-11-30 17:38:00.757,2025-11-30 14:38:00.757,15,0,0,45.403,-22.959774,-67.786893,0.00,0.10,0.00,3.70,2.60,151.20,0,1,0,96,91,-48567,10730,45403,2961.50,36,WP,1,0,0,0,0,0,0,1764524280756,3648,3681,3699,3681,3685,3642,18,,,,,,,0,0,0,-37.00,26.00,1512.00,-1.00,1.00,-350.00,14,204.00,1.00,5.29,0.00,1.00,0.00,0,,,100,95,20,2,0,0,1,1,0,,,,,0.0,0.0,0.0,0.0,0.0,0.0,0
-22.959769,-67.786892,20.30,0.00,0.00,0.55,20.40,20.40,3.60,0.83,9469,2025-11-30 17:38:00.861,2025-11-30 14:38:00.861,15,0,0,45.403,-22.959774,-67.786893,0.00,0.00,0.00,4.00,2.10,160.20,0,1,0,96,91,-48567,10730,45403,2961.50,36,WP,1,0,0,0,0,0,0,1764524280861,3648,3681,3699,3681,3685,3642,18,,,,,,,0,0,0,-40.00,21.00,1602.00,0.00,1.00,-421.00,14,203.00,0.00,5.49,0.00,0.00,0.00,0,,,100,96,20,2,0,0,1,1,0,,,,,0.0,0.0,0.0,0.0,0.0,0.0,0
-22.959769,-67.786892,20.30,0.00,0.17,0.59,20.40,20.40,3.60,0.83,9566,2025-11-30 17:38:00.959,2025-11-30 14:38:00.959,15,0,0,45.403,-22.959774,-67.786893,0.10,0.10,0.10,4.10,2.20,167.50,0,1,0,96,91,-48567,10730,45403,2961.50,36,WP,1,0,0,0,0,0,0,1764524280958,3648,3681,3699,3681,3685,3642,18,,,,,,,0,0,0,-41.00,22.00,1675.00,-1.00,0.00,-441.00,14,203.00,1.73,5.88,1.00,1.00,1.00,0,,,100,96,20,2,0,0,1,1,0,,,,,0.0,0.0,0.0,0.0,0.0,0.0,0
-22.959768,-67.786892,20.30,0.00,0.24,0.63,20.40,20.40,3.60,0.83,9668,2025-11-30 17:38:01.061,2025-11-30 14:38:01.061,15,0,0,45.403,-22.959774,-67.786893,0.20,0.10,0.10,3.90,2.70,172.60,0,1,0,96,91,-48567,10730,45403,2961.50,36,WP,1,0,0,0,0,0,0,1764524281060,3648,3681,3699,3681,3685,3642,18,,,,,,,0,0,0,-39.00,27.00,1726.00,0.00,0.00,-466.00,14,203.00,2.45,6.26,2.00,1.00,1.00,0,,,100,96,20,2,0,0,1,1,0,,,,,0.0,0.0,0.0,0.0,0.0,0.0,0
-22.959768,-67.786892,20.30,0.00,0.33,0.68,20.40,20.40,3.60,0.83,9770,2025-11-30 17:38:01.163,2025-11-30 14:38:01.163,15,0,0,45.403,-22.959774,-67.786893,0.30,0.10,0.10,2.80,3.20,175.90,0,1,0,96,91,-48567,10730,45403,2961.50,36,WP,1,0,0,0,0,0,0,1764524281162,3648,3681,3699,3681,3685,3642,18,,,,,,,0,0,0,-28.00,32.00,1759.00,0.00,0.00,-443.00,14,203.00,3.32,6.79,3.00,1.00,1.00,0,,,100,96,20,2,0,0,1,1,0,,,,,0.0,0.0,0.0,0.0,0.0,0.0,0
-22.959768,-67.786892,20.30,0.00,0.41,0.73,20.40,20.40,3.60,0.83,9879,2025-11-30 17:38:01.272,2025-11-30 14:38:01.272,15,0,0,45.403,-22.959774,-67.786893,0.40,0.10,0.00,0.60,3.10,177.70,0,1,0,96,91,-48567,10730,45403,2961.50,36,WP,1,0,0,0,0,0,0,1764524281271,3648,3681,3699,3681,3685,3642,18,,,,,,,0,0,0,-6.00,31.00,1777.00,0.00,0.00,-419.00,14,203.00,4.12,7.30,4.00,1.00,0.00,0,,,100,96,20,2,0,0,1,1,0,,,,,0.0,0.0,0.0,0.0,0.0,0.0,0
-22.959767,-67.786891,20.30,0.00,0.41,0.79,20.40,20.40,3.60,0.83,9971,2025-11-30 17:38:01.364,2025-11-30 14:38:01.364,15,0,0,45.403,-22.959774,-67.786893,0.40,0.10,0.00,-1.50,2.70,178.40,0,1,0,96,91,-48567,10730,45403,2961.50,36,WP,1,0,0,0,0,0,0,1764524281363,3648,3681,3699,3681,3685,3642,18,,,,,,,0,0,0,15.00,27.00,1784.00,0.00,1.00,-374.00,14,203.00,4.12,7.93,4.00,1.00,0.00,0,,,100,95,20,2,0,0,1,1,0,,,,,0.0,0.0,0.0,0.0,0.0,0.0,0
-22.959767,-67.786891,20.30,0.00,0.41,0.85,20.40,20.40,3.60,0.85,10078,2025-11-30 17:38:01.470,2025-11-30 14:38:01.470,15,0,0,45.403,-22.959774,-67.786893,0.40,0.10,0.00,-3.70,2.30,178.70,0,1,0,96,91,-48567,10730,45403,2961.50,36,WP,1,0,0,0,0,0,0,1764524281470,3648,3681,3699,3681,3685,3642,18,,,,,,,0,0,0,37.00,23.00,1787.00,-1.00,1.00,-331.00,14,203.00,4.12,8.49,4.00,1.00,0.00,0,,,100,95,20,2,0,0,1,1,0,,,,,0.0,0.0,0.0,0.0,0.0,0.0,0
-22.959766,-67.786891,20.30,0.00,0.32,0.91,20.40,20.40,3.60,0.91,10179,2025-11-30 17:38:01.572,2025-11-30 14:38:01.572,15,0,0,45.403,-22.959774,-67.786893,0.30,0.10,0.00,-6.20,2.30,178.90,0,1,0,96,91,-48567,10730,45403,2961.50,36,WP,1,0,0,0,0,0,0,1764524281571,3648,3681,3699,3681,3685,3642,18,,,,,,,0,0,0,62.00,23.00,1789.00,-1.00,1.00,-292.00,14,203.00,3.16,9.11,3.00,1.00,0.00,0,,,100,95,20,2,0,0,1,1,0,,,,,0.0,0.0,0.0,0.0,0.0,0.0,0
-22.959766,-67.786891,20.30,0.00,0.22,0.96,20.40,20.40,3.60,0.96,10271,2025-11-30 17:38:01.664,2025-11-30 14:38:01.664,15,0,0,45.403,-22.959774,-67.786893,0.20,0.10,0.00,-9.20,2.80,179.00,0,1,0,96,91,-48567,10730,45403,2961.50,36,WP,1,0,0,0,0,0,0,1764524281663,3648,3681,3699,3681,3685,3642,18,,,,,,,0,0,0,92.00,28.00,1790.00,-1.00,1.00,-264.00,14,203.00,2.24,9.56,2.00,1.00,0.00,0,,,100,95,20,2,0,0,1,1,0,,,,,0.0,0.0,0.0,0.0,0.0,0.0,0
-22.959765,-67.786891,20.30,0.00,0.20,0.99,20.40,20.40,3.60,0.99,10377,2025-11-30 17:38:01.769,2025-11-30 14:38:01.769,15,0,0,45.403,-22.959774,-67.786893,0.00,0.20,0.00,-11.90,3.20,179.10,0,1,0,96,91,-48567,10730,45403,2961.50,36,WP,1,0,0,0,0,0,0,1764524281769,3648,3681,3699,3681,3685,3642,18,,,,,,,0,0,0,119.00,32.00,1791.00,-1.00,1.00,-241.00,14,203.00,2.00,9.90,0.00,2.00,0.00,0,,,100,95,20,2,0,0,1,1,0,,,,,0.0,0.0,0.0,0.0,0.0,0.0,0
-22.959765,-67.786890,20.30,0.00,0.24,1.00,20.40,20.40,3.60,1.00,10479,2025-11-30 17:38:01.872,2025-11-30 14:38:01.872,15,0,0,45.403,-22.959774,-67.786893,-0.10,0.20,0.10,-14.30,4.10,178.90,0,1,0,96,91,-48567,10730,45403,2961.50,36,WP,1,0,0,0,0,0,0,1764524281871,3648,3681,3699,3681,3685,3642,18,,,,,,,0,0,0,143.00,41.00,1789.00,0.00,1.00,-224.00,14,203.00,2.45,10.01,-1.00,2.00,1.00,0,,,100,99,20,2,0,0,1,1,0,,,,,0.0,0.0,0.0,0.0,0.0,0.0,0
-22.959766,-67.786890,20.30,0.00,0.37,0.99,20.40,20.40,3.60,1.00,10576,2025-11-30 17:38:01.968,2025-11-30 14:38:01.968,15,0,0,45.403,-22.959774,-67.786893,-0.30,0.20,0.10,-16.30,5.20,178.60,0,1,0,96,91,-48567,10730,45403,2961.50,36,WP,1,0,0,0,0,0,0,1764524281968,3648,3681,3699,3681,3685,3642,18,,,,,,,0,0,0,163.00,52.00,1786.00,-1.00,0.00,-208.00,14,203.00,3.74,9.90,-3.00,2.00,1.00,0,,,100,99,20,2,0,0,1,1,0,,,,,0.0,0.0,0.0,0.0,0.0,0.0,0
-22.959766,-67.786889,20.20,0.00,0.64,0.95,20.40,20.40,3.60,1.00,10674,2025-11-30 17:38:02.066,2025-11-30 14:38:02.066,15,0,0,45.403,-22.959774,-67.786893,-0.60,0.20,0.10,-17.40,6.30,178.30,0,1,0,96,91,-48567,10730,45403,2961.50,36,WP,1,0,0,0,0,0,0,1764524282066,3648,3681,3699,3681,3685,3642,18,,,,,,,0,0,0,174.00,63.00,1783.00,-1.00,0.00,-192.00,14,202.00,6.40,9.53,-6.00,2.00,1.00,0,,,100,99,20,2,0,0,1,1,0,,,,,0.0,0.0,0.0,0.0,0.0,0.0,0
-22.959771,-67.786888,20.20,0.00,1.70,0.60,20.40,20.40,3.60,1.00,11078,2025-11-30 17:38:02.470,2025-11-30 14:38:02.470,15,0,0,45.403,-22.959774,-67.786893,-1.70,0.10,0.00,-17.90,7.70,178.10,0,1,0,96,91,-48567,10730,45403,2961.50,36,WP,1,0,0,0,0,0,0,1764524282470,3648,3681,3699,3681,3685,3642,18,,,,,,,0,0,0,179.00,77.00,1781.00,-1.00,0.00,-161.00,14,202.00,17.03,6.02,-17.00,1.00,0.00,0,,,100,84,20,2,0,0,1,1,0,,,,,0.0,0.0,0.0,0.0,0.0,0.0,0
-22.959773,-67.786888,20.30,0.00,2.00,0.54,20.40,20.40,3.60,1.00,11180,2025-11-30 17:38:02.572,2025-11-30 14:38:02.572,15,0,0,45.403,-22.959774,-67.786893,-2.00,0.00,-0.10,-17.20,7.40,178.30,0,1,0,96,91,-48567,10730,45403,2961.50,36,WP,1,0,0,0,0,0,0,1764524282572,3648,3681,3699,3681,3685,3642,18,,,,,,,0,0,0,172.00,74.00,1783.00,-1.00,0.00,-161.00,14,203.00,20.02,5.44,-20.00,0.00,-1.00,0,,,100,84,20,2,0,0,1,1,0,,,,,0.0,0.0,0.0,0.0,0.0,0.0,0
-22.959776,-67.786888,20.30,0.00,2.20,0.58,20.40,20.40,3.60,1.00,11278,2025-11-30 17:38:02.670,2025-11-30 14:38:02.670,15,0,0,45.403,-22.959774,-67.786893,-2.20,0.00,-0.10,-16.90,7.10,178.40,0,1,0,96,91,-48567,10730,45403,2961.50,36,WP,1,0,0,0,0,0,0,1764524282670,3648,3681,3699,3681,3685,3642,18,,,,,,,0,0,0,169.00,71.00,1784.00,-1.00,0.00,-161.00,14,203.00,22.02,5.79,-22.00,0.00,-1.00,0,,,100,84,20,2,0,0,1,1,0,,,,,0.0,0.0,0.0,0.0,0.0,0.0,0
-22.959779,-67.786888,20.30,0.00,2.50,0.74,20.40,20.40,3.60,1.00,11380,2025-11-30 17:38:02.772,2025-11-30 14:38:02.772,15,0,0,44.846,-22.959774,-67.786893,-2.50,0.00,-0.10,-16.70,6.60,178.50,0,1,0,96,91,-48303,10691,44846,2961.50,36,WP,1,0,0,0,0,0,0,1764524282772,3648,3681,3699,3681,3685,3642,18,,,,,,,0,0,0,167.00,66.00,1785.00,0.00,1.00,-145.00,14,203.00,25.02,7.39,-25.00,0.00,-1.00,0,,,100,84,20,2,0,0,1,1,0,,,,,0.0,0.0,0.0,0.0,0.0,0.0,0
-22.959781,-67.786888,20.40,0.00,2.71,0.97,20.40,20.40,3.60,1.00,11484,2025-11-30 17:38:02.876,2025-11-30 14:38:02.876,15,0,0,44.846,-22.959774,-67.786893,-2.70,0.00,-0.20,-16.50,6.00,178.70,0,1,0,96,91,-48303,10691,44846,2961.50,36,WP,1,0,0,0,0,0,0,1764524282876,3648,3681,3699,3681,3685,3642,18,,,,,,,0,0,0,165.00,60.00,1787.00,-1.00,1.00,-142.00,14,204.00,27.07,9.73,-27.00,0.00,-2.00,0,,,100,84,20,2,0,0,1,1,0,,,,,0.0,0.0,0.0,0.0,0.0,0.0,0
-22.959784,-67.786888,20.40,0.00,2.90,1.27,20.40,20.40,3.60,1.27,11581,2025-11-30 17:38:02.973,2025-11-30 14:38:02.973,15,0,0,44.846,-22.959774,-67.786893,-2.90,0.00,-0.10,-16.40,5.40,178.70,0,1,0,96,91,-48303,10691,44846,2961.50,36,WP,1,0,0,0,0,0,0,1764524282973,3648,3681,3699,3681,3685,3642,18,,,,,,,0,0,0,164.00,54.00,1787.00,-2.00,1.00,-138.00,14,204.00,29.02,12.72,-29.00,0.00,-1.00,0,,,100,81,20,2,0,0,1,1,0,,,,,0.0,0.0,0.0,0.0,0.0,0.0,0
-22.959788,-67.786888,20.50,0.00,3.20,1.60,20.50,20.50,3.60,1.60,11684,2025-11-30 17:38:03.077,2025-11-30 14:38:03.077,15,0,0,44.846,-22.959774,-67.786893,-3.20,0.00,-0.10,-16.80,5.00,178.70,0,1,0,96,91,-48303,10691,44846,2961.50,36,WP,1,0,0,0,0,0,0,1764524283076,3648,3681,3699,3681,3685,3642,18,,,,,,,0,0,0,168.00,50.00,1787.00,-2.00,1.00,-135.00,14,205.00,32.02,15.99,-32.00,0.00,-1.00,0,,,100,81,20,2,0,0,1,1,0,,,,,0.0,0.0,0.0,0.0,0.0,0.0,0
-22.959791,-67.786888,20.50,0.00,3.40,1.97,20.50,20.50,3.60,1.97,11785,2025-11-30 17:38:03.178,2025-11-30 14:38:03.178,15,0,0,44.846,-22.959774,-67.786893,-3.40,-0.10,-0.10,-17.40,5.10,178.80,0,1,0,96,91,-48303,10691,44846,2961.50,36,WP,1,0,0,0,0,0,0,1764524283177,3648,3681,3699,3681,3685,3642,18,,,,,,,0,0,0,174.00,51.00,1788.00,-1.00,1.00,-131.00,14,205.00,34.03,19.72,-34.00,-1.00,-1.00,0,,,100,81,20,2,0,0,1,1,0,,,,,0.0,0.0,0.0,0.0,0.0,0.0,0
-22.959795,-67.786888,20.50,0.00,3.60,2.36,20.50,20.50,3.60,2.36,11804,2025-11-30 17:38:03.197,2025-11-30 14:38:03.197,15,0,0,44.846,-22.959774,-67.786893,-3.60,-0.10,0.00,-17.70,5.50,178.70,0,1,0,96,91,-48303,10691,44846,2961.50,36,WP,1,0,0,0,0,0,0,1764524283196,3648,3681,3699,3681,3685,3642,18,,,,,,,0,0,0,177.00,55.00,1787.00,-1.00,1.00,-128.00,14,205.00,36.01,23.64,-36.00,-1.00,0.00,0,,,100,81,20,2,0,0,1,1,0,,,,,0.0,0.0,0.0,0.0,0.0,0.0,0
-22.959799,-67.786889,20.50,0.00,3.90,2.79,20.50,20.50,3.90,2.79,11985,2025-11-30 17:38:03.377,2025-11-30 14:38:03.378,15,0,0,44.846,-22.959774,-67.786893,-3.90,-0.10,0.00,-17.60,5.80,178.80,0,1,0,96,91,-48303,10691,44846,2961.50,36,WP,1,0,0,0,0,0,0,1764524283377,3648,3681,3699,3681,3685,3642,18,,,,,,,0,0,0,176.00,58.00,1788.00,-1.00,1.00,-124.00,14,205.00,39.01,27.91,-39.00,-1.00,0.00,0,,,100,81,20,2,0,0,1,1,0,,,,,0.0,0.0,0.0,0.0,0.0,0.0,0
-22.959803,-67.786889,20.50,0.00,4.10,3.24,20.50,20.50,4.10,3.24,12087,2025-11-30 17:38:03.480,2025-11-30 14:38:03.480,15,0,0,44.846,-22.959774,-67.786893,-4.10,-0.20,0.00,-17.70,5.70,178.80,0,1,0,96,91,-48303,10691,44846,2961.50,36,WP,1,0,0,0,0,0,0,1764524283479,3648,3681,3699,3681,3685,3642,18,,,,,,,0,0,0,177.00,57.00,1788.00,0.00,1.00,-122.00,14,205.00,41.05,32.36,-41.00,-2.00,0.00,0,,,100,81,20,2,0,0,1,1,0,,,,,0.0,0.0,0.0,0.0,0.0,0.0,0
-22.959807,-67.786889,20.50,0.00,4.40,3.71,20.50,20.50,4.40,3.71,12095,2025-11-30 17:38:03.488,2025-11-30 14:38:03.488,15,0,0,44.846,-22.959774,-67.786893,-4.40,-0.20,0.00,-18.00,5.40,178.80,0,1,0,96,91,-48303,10691,44846,2961.50,36,WP,1,0,0,0,0,0,0,1764524283487,3648,3681,3699,3681,3685,3642,18,,,,,,,0,0,0,180.00,54.00,1788.00,-1.00,1.00,-120.00,14,205.00,44.05,37.14,-44.00,-2.00,0.00,0,,,100,81,20,2,0,0,1,1,0,,,,,0.0,0.0,0.0,0.0,0.0,0.0,0
-22.959812,-67.786889,20.50,0.00,4.60,4.21,20.50,20.50,4.60,4.21,12192,2025-11-30 17:38:03.584,2025-11-30 14:38:03.584,15,0,0,44.846,-22.959774,-67.786893,-4.60,-0.20,0.00,-18.30,4.90,178.80,0,1,0,96,91,-48303,10691,44846,2961.50,36,WP,1,0,0,0,0,0,0,1764524283584,3648,3681,3699,3681,3685,3642,18,,,,,,,0,0,0,183.00,49.00,1788.00,-2.00,1.00,-118.00,14,205.00,46.04,42.11,-46.00,-2.00,0.00,0,,,100,81,20,2,0,0,1,1,0,,,,,0.0,0.0,0.0,0.0,0.0,0.0,0
-22.959817,-67.786889,20.60,0.00,4.80,4.73,20.60,20.60,4.80,4.73,12392,2025-11-30 17:38:03.784,2025-11-30 14:38:03.784,15,0,0,44.846,-22.959774,-67.786893,-4.80,-0.20,0.00,-18.50,4.10,178.80,0,1,0,96,91,-48303,10691,44846,2961.50,36,WP,1,0,0,0,0,0,0,1764524283784,3648,3681,3699,3681,3685,3642,18,,,,,,,0,0,0,185.00,41.00,1788.00,0.00,1.00,-115.00,14,206.00,48.04,47.32,-48.00,-2.00,0.00,0,,,100,81,20,2,0,0,1,1,0,,,,,0.0,0.0,0.0,0.0,0.0,0.0,0
-22.959822,-67.786890,20.60,0.00,5.10,5.27,20.60,20.60,5.10,5.27,12496,2025-11-30 17:38:03.888,2025-11-30 14:38:03.888,15,0,0,44.805,-22.959774,-67.786893,-5.10,-0.20,0.00,-18.70,3.20,178.80,0,1,0,96,91,-58605,10656,44805,2971.50,36,WP,1,0,0,0,0,0,0,1764524283888,3648,3681,3699,3681,3685,3642,18,,,,,,,0,0,0,187.00,32.00,1788.00,0.00,1.00,-113.00,14,206.00,51.04,52.74,-51.00,-2.00,0.00,0,,,100,81,20,2,0,0,1,1,0,,,,,0.0,0.0,0.0,0.0,0.0,0.0,0
-22.959827,-67.786890,20.70,0.00,5.40,5.86,20.70,20.70,5.40,5.86,12593,2025-11-30 17:38:03.986,2025-11-30 14:38:03.986,15,0,0,44.805,-22.959774,-67.786893,-5.40,-0.10,-0.10,-18.60,3.10,178.70,0,1,0,96,91,-58605,10656,44805,2971.50,36,WP,1,0,0,0,0,0,0,1764524283985,3648,3681,3699,3681,3685,3642,18,,,,,,,0,0,0,186.00,31.00,1787.00,0.00,1.00,-110.00,14,207.00,54.02,58.55,-54.00,-1.00,-1.00,0,,,100,81,20,2,0,0,1,1,0,,,,,0.0,0.0,0.0,0.0,0.0,0.0,0
-22.959832,-67.786890,20.70,0.00,5.60,6.46,20.70,20.70,5.60,6.46,12695,2025-11-30 17:38:04.088,2025-11-30 14:38:04.088,15,0,0,44.805,-22.959774,-67.786893,-5.60,-0.10,-0.10,-18.40,3.10,178.60,0,1,0,96,91,-58605,10656,44805,2971.50,36,WP,1,0,0,0,0,0,0,1764524284087,3648,3681,3699,3681,3685,3642,18,,,,,,,0,0,0,184.00,31.00,1786.00,1.00,1.00,-107.00,14,207.00,56.02,64.60,-56.00,-1.00,-1.00,0,,,100,81,20,2,0,0,1,1,0,,,,,0.0,0.0,0.0,0.0,0.0,0.0,0
-22.959838,-67.786890,20.80,0.00,5.90,7.10,20.80,20.80,5.90,7.10,12703,2025-11-30 17:38:04.095,2025-11-30 14:38:04.095,15,0,0,44.805,-22.959774,-67.786893,-5.90,-0.10,0.00,-18.30,3.80,178.60,0,1,0,96,91,-58605,10656,44805,2971.50,36,WP,1,0,0,0,0,0,0,1764524284095,3648,3681,3699,3681,3685,3642,18,,,,,,,0,0,0,183.00,38.00,1786.00,1.00,1.00,-105.00,14,208.00,59.01,70.98,-59.00,-1.00,0.00,0,,,100,81,20,2,0,0,1,1,0,,,,,0.0,0.0,0.0,0.0,0.0,0.0,0
-22.959844,-67.786890,20.80,0.00,6.10,7.75,20.80,20.80,6.10,7.75,12794,2025-11-30 17:38:04.186,2025-11-30 14:38:04.186,15,0,0,44.805,-22.959774,-67.786893,-6.10,-0.10,0.00,-18.00,4.60,178.70,0,1,0,96,91,-58605,10656,44805,2971.50,36,WP,1,0,0,0,0,0,0,1764524284186,3648,3681,3699,3681,3685,3642,18,,,,,,,0,0,0,180.00,46.00,1787.00,4.00,1.00,-104.00,14,208.00,61.01,77.49,-61.00,-1.00,0.00,0,,,100,81,20,2,0,0,1,1,0,,,,,0.0,0.0,0.0,0.0,0.0,0.0,0
-22.959850,-67.786890,20.80,0.00,6.30,8.44,20.80,20.80,6.30,8.44,12994,2025-11-30 17:38:04.387,2025-11-30 14:38:04.387,15,0,0,44.805,-22.959774,-67.786893,-6.30,-0.10,0.00,-18.00,5.00,178.50,0,1,0,96,91,-58605,10656,44805,2971.50,36,WP,1,0,0,0,0,0,0,1764524284386,3648,3681,3699,3681,3685,3642,18,,,,,,,0,0,0,180.00,50.00,1785.00,3.00,1.00,-102.00,14,208.00,63.01,84.38,-63.00,-1.00,0.00,0,,,100,81,20,2,0,0,1,1,0,,,,,0.0,0.0,0.0,0.0,0.0,0.0,0
-22.959856,-67.786890,20.80,0.00,6.60,9.14,20.80,20.80,6.60,9.14,13001,2025-11-30 17:38:04.394,2025-11-30 14:38:04.394,15,0,0,44.805,-22.959774,-67.786893,-6.60,-0.10,0.00,-17.90,5.20,178.60,0,1,0,96,91,-58605,10656,44805,2971.50,36,WP,1,0,0,0,0,0,0,1764524284393,3648,3681,3699,3681,3685,3642,18,,,,,,,0,0,0,179.00,52.00,1786.00,2.00,1.00,-100.00,14,208.00,66.01,91.39,-66.00,-1.00,0.00,0,,,100,81,20,2,0,0,1,1,0,,,,,0.0,0.0,0.0,0.0,0.0,0.0,0
-22.959863,-67.786890,20.90,0.00,6.80,9.86,20.90,20.90,6.80,9.86,13194,2025-11-30 17:38:04.586,2025-11-30 14:38:04.586,15,0,0,44.805,-22.959774,-67.786893,-6.80,-0.10,0.00,-17.70,5.10,178.70,0,1,0,96,91,-58605,10656,44805,2971.50,36,WP,1,0,0,0,0,0,0,1764524284586,3648,3681,3699,3681,3685,3642,18,,,,,,,0,0,0,177.00,51.00,1787.00,3.00,1.00,-98.00,14,209.00,68.01,98.62,-68.00,-1.00,0.00,0,,,100,97,20,2,0,0,1,1,0,,,,,0.0,0.0,0.0,0.0,0.0,0.0,0
-22.959870,-67.786890,20.90,0.00,7.00,10.59,20.90,20.90,7.00,10.59,13295,2025-11-30 17:38:04.688,2025-11-30 14:38:04.688,15,0,0,44.805,-22.959774,-67.786893,-7.00,-0.10,0.00,-17.40,5.00,178.70,0,1,0,96,91,-58605,10656,44805,2971.50,36,WP,1,0,0,0,0,0,0,1764524284687,3648,3681,3699,3681,3685,3642,18,,,,,,,0,0,0,174.00,50.00,1787.00,3.00,1.00,-98.00,14,209.00,70.01,105.94,-70.00,-1.00,0.00,0,,,100,97,20,2,0,0,1,1,0,,,,,0.0,0.0,0.0,0.0,0.0,0.0,0
-22.959877,-67.786890,20.90,0.00,7.30,11.36,20.90,20.90,7.30,11.36,13399,2025-11-30 17:38:04.791,2025-11-30 14:38:04.791,15,0,0,44.341,-22.959774,-67.786893,-7.30,-0.10,0.00,-17.10,4.90,178.70,0,1,0,96,91,-63797,10656,44341,2971.50,36,WP,1,0,0,0,0,0,0,1764524284791,3648,3681,3699,3681,3685,3642,18,,,,,,,0,0,0,171.00,49.00,1787.00,5.00,1.00,-96.00,14,209.00,73.01,113.58,-73.00,-1.00,0.00,0,,,100,97,20,2,0,0,1,1,0,,,,,0.0,0.0,0.0,0.0,0.0,0.0,0
-22.959884,-67.786890,20.90,0.00,7.40,12.13,20.90,20.90,7.40,12.13,13494,2025-11-30 17:38:04.887,2025-11-30 14:38:04.887,15,0,0,44.341,-22.959774,-67.786893,-7.40,-0.10,0.10,-17.00,5.00,178.60,0,1,0,96,91,-63797,10656,44341,2971.50,36,WP,1,0,0,0,0,0,0,1764524284886,3648,3681,3699,3681,3685,3642,18,,,,,,,0,0,0,170.00,50.00,1786.00,8.00,1.00,-94.00,14,209.00,74.01,121.35,-74.00,-1.00,1.00,0,,,100,97,20,2,0,0,1,1,0,,,,,0.0,0.0,0.0,0.0,0.0,0.0,0
-22.959891,-67.786890,20.90,0.00,7.70,12.94,20.90,20.90,7.70,12.94,13498,2025-11-30 17:38:04.891,2025-11-30 14:38:04.891,15,0,0,44.341,-22.959774,-67.786893,-7.70,-0.10,0.10,-17.10,4.90,178.60,0,1,0,96,91,-63797,10656,44341,2971.50,36,WP,1,0,0,0,0,0,0,1764524284890,3648,3681,3699,3681,3685,3642,18,,,,,,,0,0,0,171.00,49.00,1786.00,5.00,1.00,-91.00,14,209.00,77.01,129.35,-77.00,-1.00,1.00,0,,,100,97,20,2,0,0,1,1,0,,,,,0.0,0.0,0.0,0.0,0.0,0.0,0
-22.959898,-67.786891,21.00,0.00,7.80,13.75,21.00,21.00,7.80,13.75,13601,2025-11-30 17:38:04.994,2025-11-30 14:38:04.994,15,0,0,44.341,-22.959774,-67.786893,-7.80,-0.20,0.00,-17.30,4.60,178.70,0,1,0,96,91,-63797,10656,44341,2971.50,36,WP,1,0,0,0,0,0,0,1764524284993,3648,3681,3699,3681,3685,3642,18,,,,,,,0,0,0,173.00,46.00,1787.00,4.00,1.00,-90.00,14,210.00,78.03,137.46,-78.00,-2.00,0.00,0,,,100,97,20,2,0,0,1,1,0,,,,,0.0,0.0,0.0,0.0,0.0,0.0,0
-22.959913,-67.786891,21.10,0.00,8.20,15.44,21.10,21.10,8.20,15.44,13900,2025-11-30 17:38:05.292,2025-11-30 14:38:05.293,15,0,0,44.341,-22.959774,-67.786893,-8.20,-0.20,0.00,-17.90,4.60,178.60,0,1,0,96,91,-63797,10656,44341,2971.50,36,WP,1,0,0,0,0,0,0,1764524285292,3648,3681,3699,3681,3685,3642,18,,,,,,,0,0,0,179.00,46.00,1786.00,3.00,1.00,-86.00,14,211.00,82.02,154.36,-82.00,-2.00,0.00,0,,,100,97,20,2,0,0,1,1,0,,,,,0.0,0.0,0.0,0.0,0.0,0.0,0
-22.959921,-67.786891,21.10,0.00,8.40,16.33,21.10,21.10,8.40,16.33,13913,2025-11-30 17:38:05.306,2025-11-30 14:38:05.306,15,0,0,44.341,-22.959774,-67.786893,-8.40,-0.20,0.10,-18.00,5.10,178.60,0,1,0,96,91,-63797,10656,44341,2971.50,36,WP,1,0,0,0,0,0,0,1764524285305,3648,3681,3699,3681,3685,3642,18,,,,,,,0,0,0,180.00,51.00,1786.00,3.00,1.00,-86.00,14,211.00,84.03,163.28,-84.00,-2.00,1.00,0,,,100,97,20,2,0,0,1,1,0,,,,,0.0,0.0,0.0,0.0,0.0,0.0,0
-22.959930,-67.786891,21.10,0.00,8.60,17.23,21.10,21.10,8.60,17.23,13999,2025-11-30 17:38:05.392,2025-11-30 14:38:05.392,15,0,0,44.341,-22.959774,-67.786893,-8.60,-0.20,0.10,-17.40,5.10,178.70,0,1,0,96,91,-63797,10656,44341,2971.50,36,WP,1,0,0,0,0,0,0,1764524285391,3648,3681,3699,3681,3685,3642,18,,,,,,,0,0,0,174.00,51.00,1787.00,6.00,1.00,-83.00,14,211.00,86.03,172.26,-86.00,-2.00,1.00,0,,,100,97,20,2,0,0,1,1,0,,,,,0.0,0.0,0.0,0.0,0.0,0.0,0
-22.959946,-67.786892,21.20,0.00,8.90,19.05,21.20,21.20,8.90,19.05,14307,2025-11-30 17:38:05.700,2025-11-30 14:38:05.700,15,0,0,44.341,-22.959774,-67.786893,-8.90,-0.20,0.00,-13.90,4.90,178.90,0,1,0,96,91,-63797,10656,44341,2971.50,36,WP,1,0,0,0,0,0,0,1764524285699,3648,3681,3699,3681,3685,3642,18,,,,,,,0,0,0,139.00,49.00,1789.00,8.00,1.00,-82.00,14,212.00,89.02,190.53,-89.00,-2.00,0.00,0,,,100,93,20,2,0,0,1,1,0,,,,,0.0,0.0,0.0,0.0,0.0,0.0,0
