latitude,longitude,altitude(m),ultrasonicHeight(m),speed(mps),distance(m),max_altitude(m),max_ascent(m),max_speed(mps),max_distance(m),time(millisecond),datetime(utc),datetime(local),satellites,pressure(Pa),temperature(F),voltage(v),home_latitude,home_longitude,velocityX(mps),velocityY(mps),velocityZ(mps),pitch(deg),roll(deg),yaw(deg),powerlevel,isflying,istakingphoto,remainPowerPercent,remainLifePercent,currentCurrent,currentElectricity,currentVoltage,batteryTemperature,dischargeCount,flightmode,isMotorsOn,isTakingVideo,Rc_elevator,Rc_aileron,Rc_throttle,Rc_rudder,Rc_gyro,timestamp,Battery_Cell1,Battery_Cell2,Battery_Cell3,Battery_Cell4,Battery_Cell5,Battery_Cell6,Dronetype,AppVersion,Planename,FlyControllerSerialNumber,RemoteSerialNumber,BatterySerialNumber,CENTER_BATTERY.productDate,CENTER_BATTERY.serialNo,CENTER_BATTERY.fullCapacity,CENTER_BATTERY.productDateRaw,pitchRaw,rollRaw,yawRaw,gimbalPitchRaw,gimbalRollRaw,gimbalYawRaw,flyState,altitudeRaw,speedRaw,distanceRaw,velocityXRaw,velocityYRaw,velocityZRaw,data_reuse,App_Tip,App_Warning,downlinkSignalQuality,uplinkSignalQuality,transmissionChannel,rcModeSwitch,rcHome,rcPause,rcTransform,rcJoystickMode,appMode,FlyControllerSerialNumber_legacy,RemoteSerialNumber_legacy,BatterySerialNumber_legacy,Battery2SerialNumber,frontAvoidDist,backAvoidDist,rightAvoidDist,leftAvoidDist,upAvoidDist,downAvoidDist,isBrakingToAvoid
-22.959763,-67.786926,0.50,0.00,0.60,0.05,0.50,0.50,0.60,0.05,2,2025-11-27 17:03:12.839,2025-11-27 18:03:12.839,15,0,0,50.265,-22.959763,-67.786925,0.00,0.00,-0.60,0.00,-0.70,-104.00,0,1,0,83,97,-916,13644,50265,3031.50,15,TakeOff,1,0,0,0,0,0,0,1764262992839,4186,4191,4186,4195,4197,4195,18,Litchi_iOS_2.15.7,EIK Matrice 1,0670131556,03LLCA05XT,,,0,16245,0,-0.00,-7.00,-1040.00,0.00,0.00,0.00,11,5.00,6.00,0.49,0.00,0.00,-6.00,0,,,100,100,15,2,0,0,1,1,0,(null),(null),(null),(null),0.0,0.0,0.0,0.0,0.0,0.0,0
-22.959763,-67.786925,0.50,0.00,0.60,0.04,0.50,0.50,0.60,0.05,104,2025-11-27 17:03:12.941,2025-11-27 18:03:12.941,15,0,0,50.265,-22.959763,-67.786925,0.00,0.00,-0.60,0.00,-0.40,-103.90,0,1,0,83,97,-916,13644,50265,3031.50,15,TakeOff,1,0,0,0,0,0,0,1764262992941,4186,4191,4186,4195,4197,4195,18,,,,,,,0,0,0,-0.00,-4.00,-1039.00,0.00,0.00,0.00,11,5.00,6.00,0.38,0.00,0.00,-6.00,0,,,100,100,15,2,0,0,1,1,0,,,,,0.0,0.0,0.0,0.0,0.0,0.0,0
-22.959763,-67.786925,0.60,0.00,0.51,0.04,0.60,0.60,0.60,0.05,200,2025-11-27 17:03:13.038,2025-11-27 18:03:13.038,15,0,0,50.265,-22.959763,-67.786925,0.00,0.10,-0.50,0.00,-0.30,-103.90,0,1,0,83,97,-916,13644,50265,3031.50,15,TakeOff,1,0,0,0,0,0,0,1764262993037,4186,4191,4186,4195,4197,4195,18,,,,,,,0,0,0,-0.00,-3.00,-1039.00,0.00,0.00,0.00,11,6.00,5.10,0.36,0.00,1.00,-5.00,0,,,100,100,15,2,0,0,1,1,0,,,,,0.0,0.0,0.0,0.0,0.0,0.0,0
-22.959763,-67.786925,0.60,0.00,0.41,0.04,0.60,0.60,0.60,0.05,300,2025-11-27 17:03:13.137,2025-11-27 18:03:13.138,15,0,0,50.265,-22.959763,-67.786925,0.00,0.10,-0.40,-0.20,-0.10,-103.80,0,1,0,83,97,-916,13644,50265,3031.50,15,TakeOff,1,0,0,0,0,0,0,1764262993137,4186,4191,4186,4195,4197,4195,18,,,,,,,0,0,0,2.00,-1.00,-1038.00,0.00,0.00,0.00,11,6.00,4.12,0.36,0.00,1.00,-4.00,0,,,100,100,15,2,0,0,1,1,0,,,,,0.0,0.0,0.0,0.0,0.0,0.0,0
-22.959763,-67.786925,0.70,0.00,0.41,0.04,0.70,0.70,0.60,0.05,404,2025-11-27 17:03:13.241,2025-11-27 18:03:13.241,15,0,0,50.199,-22.959763,-67.786925,0.00,0.10,-0.40,-0.40,0.00,-103.80,0,1,0,83,97,-7763,13644,50199,3031.50,15,TakeOff,1,0,0,0,0,0,0,1764262993241,4186,4191,4186,4195,4197,4195,18,,,,,,,0,0,0,4.00,0.00,-1038.00,0.00,0.00,0.00,11,7.00,4.12,0.42,0.00,1.00,-4.00,0,,,100,100,15,2,0,0,1,1,0,,,,,0.0,0.0,0.0,0.0,0.0,0.0,0
-22.959763,-67.786925,0.80,0.00,0.41,0.05,0.80,0.80,0.60,0.05,507,2025-11-27 17:03:13.345,2025-11-27 18:03:13.345,15,0,0,50.199,-22.959763,-67.786925,0.00,0.10,-0.40,-0.80,0.00,-103.80,0,1,0,83,97,-7763,13644,50199,3031.50,15,TakeOff,1,0,0,0,0,0,0,1764262993344,4186,4191,4186,4195,4197,4195,18,,,,,,,0,0,0,8.00,0.00,-1038.00,0.00,0.00,0.00,11,8.00,4.12,0.52,0.00,1.00,-4.00,0,,,100,100,15,2,0,0,1,1,0,,,,,0.0,0.0,0.0,0.0,0.0,0.0,0
-22.959763,-67.786925,0.80,0.00,0.41,0.07,0.80,0.80,0.60,0.07,604,2025-11-27 17:03:13.441,2025-11-27 18:03:13.441,15,0,0,50.199,-22.959763,-67.786925,0.00,0.10,-0.40,-1.40,0.00,-103.70,0,1,0,83,97,-7763,13644,50199,3031.50,15,TakeOff,1,0,0,0,0,0,0,1764262993441,4186,4191,4186,4195,4197,4195,18,,,,,,,0,0,0,14.00,0.00,-1037.00,0.00,0.00,0.00,11,8.00,4.12,0.65,0.00,1.00,-4.00,0,,,100,100,15,2,0,0,1,1,0,,,,,0.0,0.0,0.0,0.0,0.0,0.0,0
-22.959763,-67.786925,0.80,0.00,0.41,0.08,0.80,0.80,0.60,0.08,706,2025-11-27 17:03:13.544,2025-11-27 18:03:13.544,15,0,0,50.199,-22.959763,-67.786925,0.00,0.10,-0.40,-1.80,0.00,-103.70,0,1,0,83,97,-7763,13644,50199,3031.50,15,TakeOff,1,0,0,0,0,0,0,1764262993543,4186,4191,4186,4195,4197,4195,18,,,,,,,0,0,0,18.00,0.00,-1037.00,0.00,0.00,0.00,11,8.00,4.12,0.82,0.00,1.00,-4.00,0,,,100,100,15,2,0,0,1,1,0,,,,,0.0,0.0,0.0,0.0,0.0,0.0,0
-22.959763,-67.786925,0.90,0.00,0.40,0.10,0.90,0.90,0.60,0.10,806,2025-11-27 17:03:13.643,2025-11-27 18:03:13.643,15,0,0,50.199,-22.959763,-67.786925,0.00,0.00,-0.40,-2.10,-0.10,-103.70,0,1,0,83,97,-7763,13644,50199,3031.50,15,TakeOff,1,0,0,0,0,0,0,1764262993643,4186,4191,4186,4195,4197,4195,18,,,,,,,0,0,0,21.00,-1.00,-1037.00,0.00,0.00,0.00,11,9.00,4.00,0.97,0.00,0.00,-4.00,0,,,100,100,15,2,0,0,1,1,0,,,,,0.0,0.0,0.0,0.0,0.0,0.0,0
-22.959763,-67.786924,0.90,0.00,0.40,0.11,0.90,0.90,0.60,0.11,905,2025-11-27 17:03:13.742,2025-11-27 18:03:13.742,16,0,0,50.199,-22.959763,-67.786925,0.00,0.00,-0.40,-2.40,-0.60,-103.70,0,1,0,83,97,-7763,13644,50199,3031.50,15,TakeOff,1,0,0,0,0,0,0,1764262993742,4186,4191,4186,4195,4197,4195,18,,,,,,,0,0,0,24.00,-6.00,-1037.00,0.00,0.00,0.00,11,9.00,4.00,1.11,0.00,0.00,-4.00,0,,,100,100,15,2,0,0,1,1,0,,,,,0.0,0.0,0.0,0.0,0.0,0.0,0
-22.959763,-67.786924,0.90,0.00,0.40,0.12,0.90,0.90,0.60,0.12,1010,2025-11-27 17:03:13.847,2025-11-27 18:03:13.848,16,0,0,50.199,-22.959763,-67.786925,0.00,0.00,-0.40,-2.30,-0.80,-103.70,0,1,0,83,97,-7763,13644,50199,3031.50,15,TakeOff,1,0,0,0,0,0,0,1764262993847,4186,4191,4186,4195,4197,4195,18,,,,,,,0,0,0,23.00,-8.00,-1037.00,0.00,0.00,0.00,11,9.00,4.00,1.20,0.00,0.00,-4.00,0,,,100,100,15,2,0,0,1,1,0,,,,,0.0,0.0,0.0,0.0,0.0,0.0,0
-22.959763,-67.786924,1.00,0.00,0.40,0.12,1.00,1.00,0.60,0.12,1110,2025-11-27 17:03:13.948,2025-11-27 18:03:13.948,16,0,0,50.199,-22.959763,-67.786925,0.00,0.00,-0.40,-1.80,-0.80,-103.70,0,1,0,83,97,-7763,13644,50199,3031.50,15,TakeOff,1,0,0,0,0,0,0,1764262993947,4186,4191,4186,4195,4197,4195,18,,,,,,,0,0,0,18.00,-8.00,-1037.00,0.00,0.00,0.00,11,10.00,4.00,1.23,0.00,0.00,-4.00,0,,,100,100,15,2,0,0,1,1,0,,,,,0.0,0.0,0.0,0.0,0.0,0.0,0
-22.959763,-67.786924,1.00,0.00,0.40,0.12,1.00,1.00,0.60,0.12,1218,2025-11-27 17:03:14.055,2025-11-27 18:03:14.055,16,0,0,50.199,-22.959763,-67.786925,0.00,0.00,-0.40,-1.40,-0.80,-103.70,0,1,0,83,97,-7763,13644,50199,3031.50,15,TakeOff,1,0,0,0,0,0,0,1764262994055,4186,4191,4186,4195,4197,4195,18,,,,,,,0,0,0,14.00,-8.00,-1037.00,0.00,0.00,0.00,11,10.00,4.00,1.22,0.00,0.00,-4.00,0,,,100,100,15,2,0,0,1,1,0,,,,,0.0,0.0,0.0,0.0,0.0,0.0,0
-22.959763,-67.786925,1.10,0.00,0.40,0.12,1.10,1.10,0.60,0.12,1311,2025-11-27 17:03:14.149,2025-11-27 18:03:14.149,16,0,0,50.199,-22.959763,-67.786925,0.00,0.00,-0.40,-1.40,-0.90,-103.70,0,1,0,83,97,-7763,13644,50199,3031.50,15,WP,1,0,0,0,0,0,0,1764262994148,4186,4191,4186,4195,4197,4195,18,,,,,,,0,0,0,14.00,-9.00,-1037.00,0.00,0.00,0.00,14,11.00,4.00,1.16,0.00,0.00,-4.00,0,,,100,100,15,2,0,0,1,1,0,,,,,0.0,0.0,0.0,0.0,0.0,0.0,0
-22.959763,-67.786925,1.10,0.00,0.30,0.11,1.10,1.10,0.60,0.12,1419,2025-11-27 17:03:14.256,2025-11-27 18:03:14.257,16,0,0,50.199,-22.959763,-67.786925,0.00,0.00,-0.30,-0.80,-0.70,-103.70,0,1,0,83,97,-7763,13644,50199,3031.50,15,WP,1,0,0,0,0,0,0,1764262994256,4186,4191,4186,4195,4197,4195,18,,,,,,,0,0,0,8.00,-7.00,-1037.00,0.00,0.00,0.00,14,11.00,3.00,1.13,0.00,0.00,-3.00,0,,,100,100,15,2,0,0,1,1,0,,,,,0.0,0.0,0.0,0.0,0.0,0.0,0
-22.959763,-67.786925,1.20,0.00,0.20,0.11,1.20,1.20,0.60,0.12,1510,2025-11-27 17:03:14.348,2025-11-27 18:03:14.348,16,0,0,50.199,-22.959763,-67.786925,0.00,0.00,-0.20,0.00,-0.80,-103.60,0,1,0,83,97,-7763,13644,50199,3031.50,15,WP,1,0,0,0,0,0,0,1764262994347,4186,4191,4186,4195,4197,4195,18,,,,,,,0,0,0,-0.00,-8.00,-1036.00,0.00,0.00,0.00,14,12.00,2.00,1.12,0.00,0.00,-2.00,0,,,100,100,15,2,0,0,1,1,0,,,,,0.0,0.0,0.0,0.0,0.0,0.0,0
-22.959763,-67.786925,1.20,0.00,0.30,0.11,1.20,1.20,0.60,0.12,1617,2025-11-27 17:03:14.454,2025-11-27 18:03:14.454,16,0,0,50.199,-22.959763,-67.786925,0.00,0.00,-0.30,0.00,-1.00,-103.60,0,1,0,83,97,-7763,13644,50199,3031.50,15,WP,1,0,0,0,0,0,0,1764262994454,4186,4191,4186,4195,4197,4195,18,,,,,,,0,0,0,-0.00,-10.00,-1036.00,0.00,0.00,0.00,14,12.00,3.00,1.13,0.00,0.00,-3.00,0,,,100,100,15,2,0,0,1,1,0,,,,,0.0,0.0,0.0,0.0,0.0,0.0,0
-22.959762,-67.786925,1.20,0.00,0.41,0.12,1.20,1.20,0.60,0.12,1719,2025-11-27 17:03:14.557,2025-11-27 18:03:14.557,16,0,0,50.199,-22.959763,-67.786925,0.10,0.00,-0.40,0.00,-1.10,-103.70,0,1,0,83,97,-7763,13644,50199,3031.50,15,WP,1,0,0,0,0,0,0,1764262994556,4186,4191,4186,4195,4197,4195,18,,,,,,,0,0,0,-0.00,-11.00,-1037.00,0.00,0.00,0.00,14,12.00,4.12,1.17,1.00,0.00,-4.00,0,,,100,100,15,2,0,0,1,1,0,,,,,0.0,0.0,0.0,0.0,0.0,0.0,0
-22.959762,-67.786925,1.30,0.00,0.50,0.12,1.30,1.30,0.60,0.12,1811,2025-11-27 17:03:14.649,2025-11-27 18:03:14.649,16,0,0,50.199,-22.959763,-67.786925,0.00,0.00,-0.50,-0.50,-1.10,-103.70,0,1,0,83,97,-7763,13644,50199,3031.50,15,WP,1,0,0,0,0,0,0,1764262994648,4186,4191,4186,4195,4197,4195,18,,,,,,,0,0,0,5.00,-11.00,-1037.00,0.00,0.00,0.00,14,13.00,5.00,1.24,0.00,0.00,-5.00,0,,,100,100,15,2,0,0,1,1,0,,,,,0.0,0.0,0.0,0.0,0.0,0.0,0
-22.959762,-67.786925,1.30,0.00,0.60,0.13,1.30,1.30,0.60,0.13,1915,2025-11-27 17:03:14.753,2025-11-27 18:03:14.753,16,0,0,50.199,-22.959763,-67.786925,0.00,0.00,-0.60,-0.80,-1.40,-103.70,0,1,0,83,97,-7763,13644,50199,3031.50,15,WP,1,0,0,0,0,0,0,1764262994752,4186,4191,4186,4195,4197,4195,18,,,,,,,0,0,0,8.00,-14.00,-1037.00,0.00,0.00,0.00,14,13.00,6.00,1.32,0.00,0.00,-6.00,0,,,100,100,15,2,0,0,1,1,0,,,,,0.0,0.0,0.0,0.0,0.0,0.0,0
-22.959762,-67.786925,1.40,0.00,0.90,0.14,1.40,1.40,0.90,0.14,2013,2025-11-27 17:03:14.850,2025-11-27 18:03:14.850,16,0,0,50.199,-22.959763,-67.786925,0.00,0.00,-0.90,-0.90,-1.70,-103.60,0,1,0,83,97,-7763,13644,50199,3031.50,15,WP,1,0,0,0,0,0,0,1764262994850,4186,4191,4186,4195,4197,4195,18,,,,,,,0,0,0,9.00,-17.00,-1036.00,0.00,0.00,0.00,14,14.00,9.00,1.40,0.00,0.00,-9.00,0,,,100,100,15,2,0,0,1,1,0,,,,,0.0,0.0,0.0,0.0,0.0,0.0,0
-22.959762,-67.786925,1.50,0.00,1.00,0.14,1.50,1.50,1.00,0.14,2116,2025-11-27 17:03:14.953,2025-11-27 18:03:14.953,16,0,0,50.199,-22.959763,-67.786925,0.00,0.00,-1.00,-0.80,-2.10,-103.60,0,1,0,83,97,-7763,13644,50199,3031.50,15,WP,1,0,0,0,0,0,0,1764262994953,4186,4191,4186,4195,4197,4195,18,,,,,,,0,0,0,8.00,-21.00,-1036.00,0.00,0.00,0.00,14,15.00,10.00,1.45,0.00,0.00,-10.00,0,,,100,100,15,2,0,0,1,1,0,,,,,0.0,0.0,0.0,0.0,0.0,0.0,0
-22.959762,-67.786925,1.70,0.00,1.30,0.15,1.70,1.70,1.30,0.15,2218,2025-11-27 17:03:15.056,2025-11-27 18:03:15.056,16,0,0,50.199,-22.959763,-67.786925,0.00,0.00,-1.30,-0.50,-2.30,-103.60,0,1,0,83,97,-7763,13644,50199,3031.50,15,WP,1,0,0,0,0,0,0,1764262995055,4186,4191,4186,4195,4197,4195,18,,,,,,,0,0,0,5.00,-23.00,-1036.00,0.00,0.00,0.00,14,17.00,13.00,1.49,0.00,0.00,-13.00,0,,,100,100,15,2,0,0,1,1,0,,,,,0.0,0.0,0.0,0.0,0.0,0.0,0
-22.959762,-67.786924,1.90,0.00,1.60,0.15,1.90,1.90,1.60,0.15,2319,2025-11-27 17:03:15.156,2025-11-27 18:03:15.156,16,0,0,50.199,-22.959763,-67.786925,0.00,0.00,-1.60,-0.10,-1.90,-103.60,0,1,0,83,97,-7763,13644,50199,3031.50,15,WP,1,0,0,0,0,0,0,1764262995156,4186,4191,4186,4195,4197,4195,18,,,,,,,0,0,0,1.00,-19.00,-1036.00,0.00,0.00,0.00,14,19.00,16.00,1.52,0.00,0.00,-16.00,0,,,100,100,15,2,0,0,1,1,0,,,,,0.0,0.0,0.0,0.0,0.0,0.0,0
-22.959762,-67.786924,2.00,0.00,1.80,0.16,2.00,2.00,1.80,0.16,2418,2025-11-27 17:03:15.256,2025-11-27 18:03:15.256,16,0,0,50.199,-22.959763,-67.786925,0.00,0.10,-1.80,0.10,-1.00,-103.70,0,1,0,83,97,-7763,13644,50199,3031.50,15,WP,1,0,0,0,0,0,0,1764262995255,4186,4191,4186,4195,4197,4195,18,,,,,,,0,0,0,-1.00,-10.00,-1037.00,0.00,0.00,0.00,14,20.00,18.03,1.58,0.00,1.00,-18.00,0,,,100,100,15,2,0,0,1,1,0,,,,,0.0,0.0,0.0,0.0,0.0,0.0,0
-22.959762,-67.786924,2.20,0.00,2.00,0.17,2.20,2.20,2.00,0.17,2516,2025-11-27 17:03:15.354,2025-11-27 18:03:15.354,16,0,0,50.199,-22.959763,-67.786925,0.00,0.10,-2.00,0.00,-0.30,-103.70,0,1,0,83,97,-7763,13644,50199,3031.50,15,WP,1,0,0,0,0,0,0,1764262995353,4186,4191,4186,4195,4197,4195,18,,,,,,,0,0,0,-0.00,-3.00,-1037.00,0.00,0.00,0.00,14,22.00,20.02,1.66,0.00,1.00,-20.00,0,,,100,100,15,2,0,0,1,1,0,,,,,0.0,0.0,0.0,0.0,0.0,0.0,0
-22.959763,-67.786924,2.40,0.00,2.20,0.18,2.40,2.40,2.20,0.18,2619,2025-11-27 17:03:15.456,2025-11-27 18:03:15.457,16,0,0,50.199,-22.959763,-67.786925,0.00,0.10,-2.20,-0.40,0.30,-103.70,0,1,0,83,97,-7763,13644,50199,3031.50,15,WP,1,0,0,0,0,0,0,1764262995456,4186,4191,4186,4195,4197,4195,18,,,,,,,0,0,0,4.00,3.00,-1037.00,0.00,0.00,0.00,14,24.00,22.02,1.80,0.00,1.00,-22.00,0,,,100,100,15,2,0,0,1,1,0,,,,,0.0,0.0,0.0,0.0,0.0,0.0,0
-22.959763,-67.786924,2.70,0.00,2.50,0.20,2.70,2.70,2.50,0.20,2722,2025-11-27 17:03:15.559,2025-11-27 18:03:15.559,16,0,0,48.827,-22.959763,-67.786925,0.00,0.10,-2.50,-1.00,0.70,-103.70,0,1,0,83,97,-33001,13644,48827,3031.50,15,WP,1,0,0,0,0,0,0,1764262995559,4186,4191,4186,4195,4197,4195,18,,,,,,,0,0,0,10.00,7.00,-1037.00,0.00,0.00,0.00,14,27.00,25.02,1.98,0.00,1.00,-25.00,0,,,100,100,15,2,0,0,1,1,0,,,,,0.0,0.0,0.0,0.0,0.0,0.0,0
-22.959763,-67.786923,3.20,0.00,2.90,0.23,3.20,3.20,2.90,0.23,2922,2025-11-27 17:03:15.759,2025-11-27 18:03:15.759,16,0,0,48.827,-22.959763,-67.786925,0.00,0.10,-2.90,-2.50,0.20,-103.60,0,1,0,83,97,-33001,13644,48827,3031.50,15,WP,1,0,0,0,0,0,0,1764262995759,4186,4191,4186,4195,4197,4195,18,,,,,,,0,0,0,25.00,2.00,-1036.00,0.00,0.00,0.00,14,32.00,29.02,2.34,0.00,1.00,-29.00,0,,,100,100,15,2,0,0,1,1,0,,,,,0.0,0.0,0.0,0.0,0.0,0.0,0
-22.959763,-67.786923,3.50,0.00,3.20,0.24,3.50,3.50,3.20,0.24,3023,2025-11-27 17:03:15.861,2025-11-27 18:03:15.861,16,0,0,48.827,-22.959763,-67.786925,0.00,0.00,-3.20,-2.50,0.00,-103.60,0,1,0,83,97,-33001,13644,48827,3031.50,15,WP,1,0,0,0,0,0,0,1764262995860,4186,4191,4186,4195,4197,4195,18,,,,,,,0,0,0,25.00,0.00,-1036.00,0.00,0.00,0.00,14,35.00,32.00,2.45,0.00,0.00,-32.00,0,,,100,100,15,2,0,0,1,1,0,,,,,0.0,0.0,0.0,0.0,0.0,0.0,0
-22.959763,-67.786923,3.90,0.00,3.30,0.25,3.90,3.90,3.30,0.25,3125,2025-11-27 17:03:15.962,2025-11-27 18:03:15.962,16,0,0,48.827,-22.959763,-67.786925,0.00,0.00,-3.30,-2.10,-0.70,-103.60,0,1,0,83,97,-33001,13644,48827,3031.50,15,WP,1,0,0,0,0,0,0,1764262995962,4186,4191,4186,4195,4197,4195,18,,,,,,,0,0,0,21.00,-7.00,-1036.00,0.00,0.00,0.00,14,39.00,33.00,2.48,0.00,0.00,-33.00,0,,,100,100,15,2,0,0,1,1,0,,,,,0.0,0.0,0.0,0.0,0.0,0.0,0
-22.959762,-67.786923,4.20,0.00,3.30,0.25,4.20,4.20,3.30,0.25,3231,2025-11-27 17:03:16.069,2025-11-27 18:03:16.069,16,0,0,48.827,-22.959763,-67.786925,0.00,0.00,-3.30,-1.70,-1.20,-103.60,0,1,0,83,97,-33001,13644,48827,3031.50,15,WP,1,0,0,0,0,0,0,1764262996068,4186,4191,4186,4195,4197,4195,18,,,,,,,0,0,0,17.00,-12.00,-1036.00,0.00,0.00,0.00,14,42.00,33.00,2.46,0.00,0.00,-33.00,0,,,100,100,15,2,0,0,1,1,0,,,,,0.0,0.0,0.0,0.0,0.0,0.0,0
-22.959762,-67.786923,4.50,0.00,3.30,0.24,4.50,4.50,3.30,0.25,3334,2025-11-27 17:03:16.172,2025-11-27 18:03:16.172,16,0,0,48.827,-22.959763,-67.786925,0.00,0.00,-3.30,-1.20,-1.30,-103.60,0,1,0,83,97,-33001,13644,48827,3031.50,15,WP,1,0,0,0,0,0,0,1764262996171,4186,4191,4186,4195,4197,4195,18,,,,,,,0,0,0,12.00,-13.00,-1036.00,0.00,0.00,0.00,14,45.00,33.00,2.38,0.00,0.00,-33.00,0,,,100,100,15,2,0,0,1,1,0,,,,,0.0,0.0,0.0,0.0,0.0,0.0,0
-22.959762,-67.786923,4.80,0.00,3.30,0.23,4.80,4.80,3.30,0.25,3427,2025-11-27 17:03:16.264,2025-11-27 18:03:16.265,16,0,0,48.827,-22.959763,-67.786925,0.00,0.00,-3.30,-1.00,-1.20,-103.70,0,1,0,83,97,-33001,13644,48827,3031.50,15,WP,1,0,0,0,0,0,0,1764262996264,4186,4191,4186,4195,4197,4195,18,,,,,,,0,0,0,10.00,-12.00,-1037.00,0.00,0.00,0.00,14,48.00,33.00,2.31,0.00,0.00,-33.00,0,,,100,100,15,2,0,0,1,1,0,,,,,0.0,0.0,0.0,0.0,0.0,0.0,0
-22.959762,-67.786924,5.10,0.00,3.20,0.23,5.10,5.10,3.30,0.25,3534,2025-11-27 17:03:16.372,2025-11-27 18:03:16.372,16,0,0,48.827,-22.959763,-67.786925,0.00,0.00,-3.20,-0.70,-1.10,-103.70,0,1,0,83,97,-33001,13644,48827,3031.50,15,WP,1,0,0,0,0,0,0,1764262996371,4186,4191,4186,4195,4197,4195,18,,,,,,,0,0,0,7.00,-11.00,-1037.00,0.00,0.00,0.00,14,51.00,32.00,2.26,0.00,0.00,-32.00,0,,,100,100,15,2,0,0,1,1,0,,,,,0.0,0.0,0.0,0.0,0.0,0.0,0
-22.959762,-67.786924,5.40,0.00,3.10,0.21,5.40,5.40,3.30,0.25,3635,2025-11-27 17:03:16.473,2025-11-27 18:03:16.473,16,0,0,48.827,-22.959763,-67.786925,0.00,0.00,-3.10,-0.80,-1.10,-103.70,0,1,0,83,97,-33001,13644,48827,3031.50,15,WP,1,0,0,0,0,0,0,1764262996472,4186,4191,4186,4195,4197,4195,18,,,,,,,0,0,0,8.00,-11.00,-1037.00,0.00,0.00,0.00,14,54.00,31.00,2.10,0.00,0.00,-31.00,0,,,100,100,15,2,0,0,1,1,0,,,,,0.0,0.0,0.0,0.0,0.0,0.0,0
-22.959762,-67.786924,5.70,0.00,3.10,0.20,5.70,5.70,3.30,0.25,3735,2025-11-27 17:03:16.573,2025-11-27 18:03:16.573,16,0,0,48.827,-22.959763,-67.786925,0.00,0.00,-3.10,-0.90,-1.10,-103.70,0,1,0,83,97,-33001,13644,48827,3031.50,15,WP,1,0,0,0,0,0,0,1764262996572,4186,4191,4186,4195,4197,4195,18,,,,,,,0,0,0,9.00,-11.00,-1037.00,0.00,0.00,0.00,14,57.00,31.00,1.99,0.00,0.00,-31.00,0,,,100,100,15,2,0,0,1,1,0,,,,,0.0,0.0,0.0,0.0,0.0,0.0,0
-22.959763,-67.786924,6.00,0.00,3.10,0.19,6.00,6.00,3.30,0.25,3836,2025-11-27 17:03:16.674,2025-11-27 18:03:16.674,16,0,0,48.827,-22.959763,-67.786925,0.00,0.00,-3.10,-0.70,-1.20,-103.70,0,1,0,83,97,-33001,13644,48827,3031.50,15,WP,1,0,0,0,0,0,0,1764262996673,4186,4191,4186,4195,4197,4195,18,,,,,,,0,0,0,7.00,-12.00,-1037.00,0.00,0.00,0.00,14,60.00,31.00,1.94,0.00,0.00,-31.00,0,,,100,100,15,2,0,0,1,1,0,,,,,0.0,0.0,0.0,0.0,0.0,0.0,0
-22.959763,-67.786924,6.30,0.00,3.10,0.19,6.30,6.30,3.30,0.25,3925,2025-11-27 17:03:16.763,2025-11-27 18:03:16.763,16,0,0,48.827,-22.959763,-67.786925,0.00,0.00,-3.10,-0.70,-1.10,-103.70,0,1,0,83,97,-33001,13644,48827,3031.50,15,WP,1,0,0,0,0,0,0,1764262996762,4186,4191,4186,4195,4197,4195,18,,,,,,,0,0,0,7.00,-11.00,-1037.00,0.00,0.00,0.00,14,63.00,31.00,1.86,0.00,0.00,-31.00,0,,,100,100,15,2,0,0,1,1,0,,,,,0.0,0.0,0.0,0.0,0.0,0.0,0
-22.959763,-67.786924,6.60,0.00,3.00,0.18,6.60,6.60,3.30,0.25,4032,2025-11-27 17:03:16.870,2025-11-27 18:03:16.870,16,0,0,48.827,-22.959763,-67.786925,0.00,0.00,-3.00,-0.90,-1.00,-103.70,0,1,0,83,97,-33001,13644,48827,3031.50,15,WP,1,0,0,0,0,0,0,1764262996869,4186,4191,4186,4195,4197,4195,18,,,,,,,0,0,0,9.00,-10.00,-1037.00,0.00,0.00,0.00,14,66.00,30.00,1.82,0.00,0.00,-30.00,0,,,100,100,15,2,0,0,1,1,0,,,,,0.0,0.0,0.0,0.0,0.0,0.0,0
-22.959763,-67.786924,7.20,0.00,3.00,0.18,7.20,7.20,3.30,0.25,4231,2025-11-27 17:03:17.069,2025-11-27 18:03:17.069,16,0,0,48.827,-22.959763,-67.786925,0.00,0.00,-3.00,-1.10,-0.10,-103.70,0,1,0,83,97,-33001,13644,48827,3031.50,15,WP,1,0,0,0,0,0,0,1764262997068,4186,4191,4186,4195,4197,4195,18,,,,,,,0,0,0,11.00,-1.00,-1037.00,0.00,0.00,0.00,14,72.00,30.00,1.78,0.00,0.00,-30.00,0,,,100,100,15,2,0,0,1,1,0,,,,,0.0,0.0,0.0,0.0,0.0,0.0,0
-22.959763,-67.786924,7.50,0.00,3.00,0.18,7.50,7.50,3.30,0.25,4335,2025-11-27 17:03:17.173,2025-11-27 18:03:17.173,16,0,0,48.827,-22.959763,-67.786925,0.00,0.00,-3.00,-1.20,0.10,-103.70,0,1,0,83,97,-33001,13644,48827,3031.50,15,WP,1,0,0,0,0,0,0,1764262997172,4186,4191,4186,4195,4197,4195,18,,,,,,,0,0,0,12.00,1.00,-1037.00,0.00,0.00,0.00,14,75.00,30.00,1.79,0.00,0.00,-30.00,0,,,100,100,15,2,0,0,1,1,0,,,,,0.0,0.0,0.0,0.0,0.0,0.0,0
-22.959763,-67.786924,7.80,0.00,3.00,0.18,7.80,7.80,3.30,0.25,4436,2025-11-27 17:03:17.274,2025-11-27 18:03:17.274,16,0,0,48.827,-22.959763,-67.786925,0.00,0.00,-3.00,-1.30,0.40,-103.70,0,1,0,83,97,-33001,13644,48827,3031.50,15,WP,1,0,0,0,0,0,0,1764262997273,4186,4191,4186,4195,4197,4195,18,,,,,,,0,0,0,13.00,4.00,-1037.00,0.00,0.00,0.00,14,78.00,30.00,1.82,0.00,0.00,-30.00,0,,,100,100,15,2,0,0,1,1,0,,,,,0.0,0.0,0.0,0.0,0.0,0.0,0
-22.959763,-67.786924,8.20,0.00,3.10,0.19,8.20,8.20,3.30,0.25,4536,2025-11-27 17:03:17.374,2025-11-27 18:03:17.374,16,0,0,48.827,-22.959763,-67.786925,0.00,0.00,-3.10,-1.50,0.40,-103.80,0,1,0,83,97,-33001,13644,48827,3031.50,15,WP,1,0,0,0,0,0,0,1764262997373,4186,4191,4186,4195,4197,4195,18,,,,,,,0,0,0,15.00,4.00,-1038.00,0.00,0.00,0.00,14,82.00,31.00,1.86,0.00,0.00,-31.00,0,,,100,96,15,2,0,0,1,1,0,,,,,0.0,0.0,0.0,0.0,0.0,0.0,0
-22.959763,-67.786924,8.50,0.00,3.00,0.20,8.50,8.50,3.30,0.25,4636,2025-11-27 17:03:17.474,2025-11-27 18:03:17.474,16,0,0,48.810,-22.959763,-67.786925,0.00,0.00,-3.00,-1.60,0.20,-103.80,0,1,0,83,97,-40244,13644,48810,3031.50,15,WP,1,0,0,0,0,0,0,1764262997473,4186,4191,4186,4195,4197,4195,18,,,,,,,0,0,0,16.00,2.00,-1038.00,0.00,0.00,0.00,14,85.00,30.00,1.95,0.00,0.00,-30.00,0,,,100,96,15,2,0,0,1,1,0,,,,,0.0,0.0,0.0,0.0,0.0,0.0,0
-22.959764,-67.786924,8.80,0.00,3.00,0.20,8.80,8.80,3.30,0.25,4735,2025-11-27 17:03:17.573,2025-11-27 18:03:17.573,16,0,0,48.810,-22.959763,-67.786925,0.00,0.00,-3.00,-1.50,0.20,-103.90,0,1,0,83,97,-40244,13644,48810,3031.50,15,WP,1,0,0,0,0,0,0,1764262997572,4186,4191,4186,4195,4197,4195,18,,,,,,,0,0,0,15.00,2.00,-1039.00,0.00,0.00,0.00,14,88.00,30.00,2.04,0.00,0.00,-30.00,0,,,100,96,15,2,0,0,1,1,0,,,,,0.0,0.0,0.0,0.0,0.0,0.0,0
-22.959764,-67.786923,9.10,0.00,3.10,0.21,9.10,9.10,3.30,0.25,4837,2025-11-27 17:03:17.675,2025-11-27 18:03:17.675,16,0,0,48.810,-22.959763,-67.786925,0.00,0.00,-3.10,-1.40,0.20,-103.90,0,1,0,83,97,-40244,13644,48810,3031.50,15,WP,1,0,0,0,0,0,0,1764262997674,4186,4191,4186,4195,4197,4195,18,,,,,,,0,0,0,14.00,2.00,-1039.00,0.00,0.00,0.00,14,91.00,31.00,2.11,0.00,0.00,-31.00,0,,,100,96,15,2,0,0,1,1,0,,,,,0.0,0.0,0.0,0.0,0.0,0.0,0
-22.959764,-67.786923,9.40,0.00,3.10,0.22,9.40,9.40,3.30,0.25,4937,2025-11-27 17:03:17.775,2025-11-27 18:03:17.775,16,0,0,48.810,-22.959763,-67.786925,0.00,0.00,-3.10,-1.30,0.20,-103.80,0,1,0,83,97,-40244,13644,48810,3031.50,15,WP,1,0,0,0,0,0,0,1764262997774,4186,4191,4186,4195,4197,4195,18,,,,,,,0,0,0,13.00,2.00,-1038.00,0.00,0.00,0.00,14,94.00,31.00,2.19,0.00,0.00,-31.00,0,,,100,96,15,2,0,0,1,1,0,,,,,0.0,0.0,0.0,0.0,0.0,0.0,0
-22.959764,-67.786923,9.70,0.00,3.10,0.23,9.70,9.70,3.30,0.25,5036,2025-11-27 17:03:17.873,2025-11-27 18:03:17.873,16,0,0,48.810,-22.959763,-67.786925,0.00,0.00,-3.10,-1.40,0.50,-103.80,0,1,0,83,97,-40244,13644,48810,3031.50,15,WP,1,0,0,0,0,0,0,1764262997873,4186,4191,4186,4195,4197,4195,18,,,,,,,0,0,0,14.00,5.00,-1038.00,0.00,0.00,0.00,14,97.00,31.00,2.26,0.00,0.00,-31.00,0,,,100,96,15,2,0,0,1,1,0,,,,,0.0,0.0,0.0,0.0,0.0,0.0,0
-22.959764,-67.786923,10.00,0.00,3.10,0.23,10.00,10.00,3.30,0.25,5137,2025-11-27 17:03:17.975,2025-11-27 18:03:17.975,16,0,0,48.810,-22.959763,-67.786925,0.00,0.00,-3.10,-1.30,0.80,-103.80,0,1,0,83,97,-40244,13644,48810,3031.50,15,WP,1,0,0,0,0,0,0,1764262997974,4186,4191,4186,4195,4197,4195,18,,,,,,,0,0,0,13.00,8.00,-1038.00,0.00,0.00,0.00,14,100.00,31.00,2.34,0.00,0.00,-31.00,0,,,100,96,15,2,0,0,1,1,0,,,,,0.0,0.0,0.0,0.0,0.0,0.0,0
-22.959764,-67.786923,10.40,0.00,3.00,0.24,10.40,10.40,3.30,0.25,5240,2025-11-27 17:03:18.077,2025-11-27 18:03:18.078,16,0,0,48.810,-22.959763,-67.786925,0.00,0.00,-3.00,-1.30,1.00,-103.70,0,1,0,83,97,-40244,13644,48810,3031.50,15,WP,1,0,0,0,0,0,0,1764262998077,4186,4191,4186,4195,4197,4195,18,,,,,,,0,0,0,13.00,10.00,-1037.00,0.00,0.00,0.00,14,104.00,30.00,2.41,0.00,0.00,-30.00,0,,,100,96,15,2,0,0,1,1,0,,,,,0.0,0.0,0.0,0.0,0.0,0.0,0
-22.959764,-67.786923,10.70,0.00,3.00,0.25,10.70,10.70,3.30,0.25,5337,2025-11-27 17:03:18.175,2025-11-27 18:03:18.175,16,0,0,48.810,-22.959763,-67.786925,0.00,0.00,-3.00,-1.50,1.00,-103.80,0,1,0,83,97,-40244,13644,48810,3031.50,15,WP,1,0,0,0,0,0,0,1764262998174,4186,4191,4186,4195,4197,4195,18,,,,,,,0,0,0,15.00,10.00,-1038.00,0.00,0.00,0.00,14,107.00,30.00,2.47,0.00,0.00,-30.00,0,,,100,96,15,2,0,0,1,1,0,,,,,0.0,0.0,0.0,0.0,0.0,0.0,0
-22.959764,-67.786923,10.90,0.00,3.00,0.25,10.90,10.90,3.30,0.25,5440,2025-11-27 17:03:18.278,2025-11-27 18:03:18.278,16,0,0,48.810,-22.959763,-67.786925,0.00,0.00,-3.00,-1.50,1.10,-103.80,0,1,0,83,97,-40244,13644,48810,3031.50,15,WP,1,0,0,0,0,0,0,1764262998277,4186,4191,4186,4195,4197,4195,18,,,,,,,0,0,0,15.00,11.00,-1038.00,0.00,0.00,0.00,14,109.00,30.00,2.50,0.00,0.00,-30.00,0,,,100,96,15,2,0,0,1,1,0,,,,,0.0,0.0,0.0,0.0,0.0,0.0,0
-22.959764,-67.786923,11.30,0.00,3.00,0.25,11.30,11.30,3.30,0.25,5543,2025-11-27 17:03:18.381,2025-11-27 18:03:18.381,16,0,0,48.810,-22.959763,-67.786925,0.00,0.00,-3.00,-1.40,1.00,-103.80,0,1,0,83,97,-40244,13644,48810,3031.50,15,WP,1,0,0,0,0,0,0,1764262998380,4186,4191,4186,4195,4197,4195,18,,,,,,,0,0,0,14.00,10.00,-1038.00,0.00,0.00,0.00,14,113.00,30.00,2.49,0.00,0.00,-30.00,0,,,100,97,15,2,0,0,1,1,0,,,,,0.0,0.0,0.0,0.0,0.0,0.0,0
-22.959764,-67.786923,11.60,0.00,3.00,0.25,11.60,11.60,3.30,0.25,5651,2025-11-27 17:03:18.489,2025-11-27 18:03:18.489,16,0,0,48.810,-22.959763,-67.786925,0.00,0.00,-3.00,-1.40,0.70,-103.80,0,1,0,83,97,-40244,13644,48810,3031.50,15,WP,1,0,0,0,0,0,0,1764262998488,4186,4191,4186,4195,4197,4195,18,,,,,,,0,0,0,14.00,7.00,-1038.00,0.00,0.00,0.00,14,116.00,30.00,2.49,0.00,0.00,-30.00,0,,,100,97,15,2,0,0,1,1,0,,,,,0.0,0.0,0.0,0.0,0.0,0.0,0
-22.959764,-67.786923,11.90,0.00,3.00,0.25,11.90,11.90,3.30,0.25,5747,2025-11-27 17:03:18.585,2025-11-27 18:03:18.585,16,0,0,48.810,-22.959763,-67.786925,0.00,0.00,-3.00,-1.30,0.30,-103.80,0,1,0,83,97,-40244,13644,48810,3031.50,15,WP,1,0,0,0,0,0,0,1764262998584,4186,4191,4186,4195,4197,4195,18,,,,,,,0,0,0,13.00,3.00,-1038.00,0.00,0.00,0.00,14,119.00,30.00,2.48,0.00,0.00,-30.00,0,,,100,97,15,2,0,0,1,1,0,,,,,0.0,0.0,0.0,0.0,0.0,0.0,0
-22.959764,-67.786923,12.20,0.00,3.00,0.25,12.20,12.20,3.30,0.25,5851,2025-11-27 17:03:18.689,2025-11-27 18:03:18.689,16,0,0,48.810,-22.959763,-67.786925,0.00,0.00,-3.00,-1.50,0.10,-103.80,0,1,0,83,97,-40244,13644,48810,3031.50,15,WP,1,0,0,0,0,0,0,1764262998688,4186,4191,4186,4195,4197,4195,18,,,,,,,0,0,0,15.00,1.00,-1038.00,0.00,0.00,0.00,14,122.00,30.00,2.46,0.00,0.00,-30.00,0,,,100,97,15,2,0,0,1,1,0,,,,,0.0,0.0,0.0,0.0,0.0,0.0,0
-22.959764,-67.786923,12.50,0.00,3.10,0.24,12.50,12.50,3.30,0.25,5943,2025-11-27 17:03:18.781,2025-11-27 18:03:18.781,16,0,0,48.810,-22.959763,-67.786925,0.00,0.00,-3.10,-1.50,0.00,-103.80,0,1,0,83,97,-40244,13644,48810,3031.50,15,WP,1,0,0,0,0,0,0,1764262998780,4186,4191,4186,4195,4197,4195,18,,,,,,,0,0,0,15.00,0.00,-1038.00,0.00,0.00,0.00,14,125.00,31.00,2.45,0.00,0.00,-31.00,0,,,100,97,15,2,0,0,1,1,0,,,,,0.0,0.0,0.0,0.0,0.0,0.0,0
-22.959764,-67.786923,12.80,0.00,3.10,0.24,12.80,12.80,3.30,0.25,6049,2025-11-27 17:03:18.887,2025-11-27 18:03:18.887,16,0,0,48.810,-22.959763,-67.786925,0.00,0.00,-3.10,-1.50,-0.30,-103.80,0,1,0,83,97,-40244,13644,48810,3031.50,15,WP,1,0,0,0,0,0,0,1764262998886,4186,4191,4186,4195,4197,4195,18,,,,,,,0,0,0,15.00,-3.00,-1038.00,0.00,0.00,0.00,14,128.00,31.00,2.41,0.00,0.00,-31.00,0,,,100,99,15,2,0,0,1,1,0,,,,,0.0,0.0,0.0,0.0,0.0,0.0,0
-22.959764,-67.786923,13.10,0.00,3.00,0.24,13.10,13.10,3.30,0.25,6153,2025-11-27 17:03:18.990,2025-11-27 18:03:18.990,16,0,0,48.810,-22.959763,-67.786925,0.00,0.00,-3.00,-1.30,-0.50,-103.70,0,1,0,83,97,-40244,13644,48810,3031.50,15,WP,1,0,0,0,0,0,0,1764262998990,4186,4191,4186,4195,4197,4195,18,,,,,,,0,0,0,13.00,-5.00,-1037.00,0.00,0.00,0.00,14,131.00,30.00,2.38,0.00,0.00,-30.00,0,,,100,99,15,2,0,0,1,1,0,,,,,0.0,0.0,0.0,0.0,0.0,0.0,0
-22.959764,-67.786923,13.50,0.00,3.10,0.24,13.50,13.50,3.30,0.25,6244,2025-11-27 17:03:19.082,2025-11-27 18:03:19.082,16,0,0,48.810,-22.959763,-67.786925,0.00,0.00,-3.10,-1.50,-0.50,-103.70,0,1,0,83,97,-40244,13644,48810,3031.50,15,WP,1,0,0,0,0,0,0,1764262999081,4186,4191,4186,4195,4197,4195,18,,,,,,,0,0,0,15.00,-5.00,-1037.00,0.00,0.00,0.00,14,135.00,31.00,2.36,0.00,0.00,-31.00,0,,,100,99,15,2,0,0,1,1,0,,,,,0.0,0.0,0.0,0.0,0.0,0.0,0
-22.959764,-67.786923,13.80,0.00,3.10,0.23,13.80,13.80,3.30,0.25,6350,2025-11-27 17:03:19.188,2025-11-27 18:03:19.188,16,0,0,48.810,-22.959763,-67.786925,0.00,0.00,-3.10,-1.60,-0.50,-103.70,0,1,0,83,97,-40244,13644,48810,3031.50,15,WP,1,0,0,0,0,0,0,1764262999187,4186,4191,4186,4195,4197,4195,18,,,,,,,0,0,0,16.00,-5.00,-1037.00,0.00,0.00,0.00,14,138.00,31.00,2.34,0.00,0.00,-31.00,0,,,100,99,15,2,0,0,1,1,0,,,,,0.0,0.0,0.0,0.0,0.0,0.0,0
-22.959764,-67.786923,14.10,0.00,3.00,0.23,14.10,14.10,3.30,0.25,6452,2025-11-27 17:03:19.290,2025-11-27 18:03:19.290,16,0,0,48.298,-22.959763,-67.786925,0.00,0.00,-3.00,-1.20,-0.60,-103.70,0,1,0,83,97,-41104,13644,48298,3031.50,15,WP,1,0,0,0,0,0,0,1764262999289,4186,4191,4186,4195,4197,4195,18,,,,,,,0,0,0,12.00,-6.00,-1037.00,0.00,0.00,0.00,14,141.00,30.00,2.30,0.00,0.00,-30.00,0,,,100,99,15,2,0,0,1,1,0,,,,,0.0,0.0,0.0,0.0,0.0,0.0,0
-22.959764,-67.786923,14.40,0.00,3.00,0.23,14.40,14.40,3.30,0.25,6546,2025-11-27 17:03:19.383,2025-11-27 18:03:19.383,16,0,0,48.298,-22.959763,-67.786925,0.00,0.00,-3.00,-0.90,-0.40,-103.60,0,1,0,83,97,-41104,13644,48298,3031.50,15,WP,1,0,0,0,0,0,0,1764262999383,4186,4191,4186,4195,4197,4195,18,,,,,,,0,0,0,9.00,-4.00,-1036.00,0.00,0.00,0.00,14,144.00,30.00,2.26,0.00,0.00,-30.00,0,,,100,99,15,2,0,0,1,1,0,,,,,0.0,0.0,0.0,0.0,0.0,0.0,0
-22.959764,-67.786923,14.70,0.00,3.00,0.23,14.70,14.70,3.30,0.25,6649,2025-11-27 17:03:19.486,2025-11-27 18:03:19.487,16,0,0,48.298,-22.959763,-67.786925,0.00,0.00,-3.00,-0.80,0.00,-103.50,0,1,0,83,97,-41104,13644,48298,3031.50,15,WP,1,0,0,0,0,0,0,1764262999486,4186,4191,4186,4195,4197,4195,18,,,,,,,0,0,0,8.00,0.00,-1035.00,0.00,0.00,0.00,14,147.00,30.00,2.30,0.00,0.00,-30.00,0,,,100,99,15,2,0,0,1,1,0,,,,,0.0,0.0,0.0,0.0,0.0,0.0,0
-22.959764,-67.786923,15.00,0.00,3.00,0.24,15.00,15.00,3.30,0.25,6751,2025-11-27 17:03:19.588,2025-11-27 18:03:19.588,16,0,0,48.298,-22.959763,-67.786925,0.00,0.00,-3.00,-1.00,0.40,-103.60,0,1,0,83,97,-41104,13644,48298,3031.50,15,WP,1,0,0,0,0,0,0,1764262999588,4186,4191,4186,4195,4197,4195,18,,,,,,,0,0,0,10.00,4.00,-1036.00,0.00,0.00,0.00,14,150.00,30.00,2.36,0.00,0.00,-30.00,0,,,100,99,15,2,0,0,1,1,0,,,,,0.0,0.0,0.0,0.0,0.0,0.0,0
-22.959764,-67.786923,15.60,0.00,2.90,0.25,15.60,15.60,3.30,0.25,6848,2025-11-27 17:03:19.686,2025-11-27 18:03:19.686,16,0,0,48.298,-22.959763,-67.786925,0.00,0.00,-2.90,-1.80,0.50,-103.70,0,1,0,83,97,-41104,13644,48298,3031.50,15,WP,1,0,0,0,0,0,0,1764262999685,4186,4191,4186,4195,4197,4195,18,,,,,,,0,0,0,18.00,5.00,-1037.00,0.00,0.00,0.00,14,156.00,29.00,2.47,0.00,0.00,-29.00,0,,,100,99,15,2,0,0,1,1,0,,,,,0.0,0.0,0.0,0.0,0.0,0.0,0
-22.959764,-67.786923,15.80,0.00,2.70,0.25,15.80,15.80,3.30,0.25,6952,2025-11-27 17:03:19.790,2025-11-27 18:03:19.790,16,0,0,48.298,-22.959763,-67.786925,0.00,0.00,-2.70,-2.30,0.60,-103.80,0,1,0,83,97,-41104,13644,48298,3031.50,15,WP,1,0,0,0,0,0,0,1764262999789,4186,4191,4186,4195,4197,4195,18,,,,,,,0,0,0,23.00,6.00,-1038.00,0.00,0.00,0.00,14,158.00,27.00,2.51,0.00,0.00,-27.00,0,,,100,99,15,2,0,0,1,1,0,,,,,0.0,0.0,0.0,0.0,0.0,0.0,0
-22.959764,-67.786923,16.10,0.00,2.50,0.26,16.10,16.10,3.30,0.26,7165,2025-11-27 17:03:20.003,2025-11-27 18:03:20.003,16,0,0,48.298,-22.959763,-67.786925,0.00,0.00,-2.50,-2.60,0.40,-103.80,0,1,0,83,97,-41104,13644,48298,3031.50,15,WP,1,0,0,0,0,0,0,1764263000002,4018,4034,4027,4036,4040,4037,18,,,,,,,0,0,0,26.00,4.00,-1038.00,0.00,0.00,0.00,14,161.00,25.00,2.60,0.00,0.00,-25.00,0,,,100,99,15,2,0,0,1,1,0,,,,,0.0,0.0,0.0,0.0,0.0,0.0,0
-22.959764,-67.786923,16.30,0.00,2.40,0.27,16.30,16.30,3.30,0.27,7171,2025-11-27 17:03:20.009,2025-11-27 18:03:20.009,16,0,0,48.298,-22.959763,-67.786925,0.10,0.00,-2.40,-2.90,0.30,-103.80,0,1,0,83,97,-41104,13644,48298,3031.50,15,WP,1,0,0,0,0,0,0,1764263000008,4018,4034,4027,4036,4040,4037,18,,,,,,,0,0,0,29.00,3.00,-1038.00,0.00,0.00,0.00,14,163.00,24.02,2.65,1.00,0.00,-24.00,0,,,100,99,15,2,0,0,1,1,0,,,,,0.0,0.0,0.0,0.0,0.0,0.0,0
-22.959764,-67.786923,16.60,0.00,2.20,0.27,16.60,16.60,3.30,0.27,7252,2025-11-27 17:03:20.089,2025-11-27 18:03:20.089,16,0,0,48.298,-22.959763,-67.786925,0.10,0.00,-2.20,-3.10,0.30,-103.80,0,1,0,83,97,-41104,13644,48298,3031.50,15,WP,1,0,0,0,0,0,0,1764263000089,4018,4034,4027,4036,4040,4037,18,,,,,,,0,0,0,31.00,3.00,-1038.00,0.00,0.00,0.00,14,166.00,22.02,2.70,1.00,0.00,-22.00,0,,,100,99,15,2,0,0,1,1,0,,,,,0.0,0.0,0.0,0.0,0.0,0.0,0
-22.959764,-67.786923,16.80,0.00,2.10,0.27,16.80,16.80,3.30,0.27,7464,2025-11-27 17:03:20.301,2025-11-27 18:03:20.302,16,0,0,48.298,-22.959763,-67.786925,0.00,0.00,-2.10,-3.30,0.20,-103.80,0,1,0,83,97,-41104,13644,48298,3031.50,15,WP,1,0,0,0,0,0,0,1764263000301,4018,4034,4027,4036,4040,4037,18,,,,,,,0,0,0,33.00,2.00,-1038.00,0.00,0.00,0.00,14,168.00,21.00,2.71,0.00,0.00,-21.00,0,,,100,99,15,2,0,0,1,1,0,,,,,0.0,0.0,0.0,0.0,0.0,0.0,0
-22.959764,-67.786923,17.00,0.00,2.00,0.27,17.00,17.00,3.30,0.27,7566,2025-11-27 17:03:20.404,2025-11-27 18:03:20.404,16,0,0,48.298,-22.959763,-67.786925,0.00,0.00,-2.00,-3.30,0.10,-103.80,0,1,0,83,97,-41104,13644,48298,3031.50,15,WP,1,0,0,0,0,0,0,1764263000403,4018,4034,4027,4036,4040,4037,18,,,,,,,0,0,0,33.00,1.00,-1038.00,0.00,0.00,0.00,14,170.00,20.00,2.71,0.00,0.00,-20.00,0,,,100,99,15,2,0,0,1,1,0,,,,,0.0,0.0,0.0,0.0,0.0,0.0,0
-22.959764,-67.786923,17.20,0.00,1.90,0.27,17.20,17.20,3.30,0.27,7667,2025-11-27 17:03:20.505,2025-11-27 18:03:20.505,16,0,0,48.298,-22.959763,-67.786925,0.00,0.00,-1.90,-3.10,0.10,-103.70,0,1,0,83,97,-41104,13644,48298,3031.50,15,WP,1,0,0,0,0,0,0,1764263000504,4018,4034,4027,4036,4040,4037,18,,,,,,,0,0,0,31.00,1.00,-1037.00,0.00,0.00,0.00,14,172.00,19.00,2.70,0.00,0.00,-19.00,0,,,100,100,15,2,0,0,1,1,0,,,,,0.0,0.0,0.0,0.0,0.0,0.0,0
-22.959764,-67.786923,17.40,0.00,1.80,0.27,17.40,17.40,3.30,0.27,7757,2025-11-27 17:03:20.595,2025-11-27 18:03:20.595,16,0,0,48.298,-22.959763,-67.786925,0.00,0.00,-1.80,-2.60,0.00,-103.70,0,1,0,83,97,-41104,13644,48298,3031.50,15,WP,1,0,0,0,0,0,0,1764263000594,4018,4034,4027,4036,4040,4037,18,,,,,,,0,0,0,26.00,0.00,-1037.00,0.00,0.00,0.00,14,174.00,18.00,2.66,0.00,0.00,-18.00,0,,,100,100,15,2,0,0,1,1,0,,,,,0.0,0.0,0.0,0.0,0.0,0.0,0
-22.959764,-67.786923,17.80,0.00,1.60,0.25,17.80,17.80,3.30,0.27,7868,2025-11-27 17:03:20.705,2025-11-27 18:03:20.705,16,0,0,48.298,-22.959763,-67.786925,0.00,0.00,-1.60,-2.40,0.00,-103.70,0,1,0,83,97,-41104,13644,48298,3031.50,15,WP,1,0,0,0,0,0,0,1764263000705,4018,4034,4027,4036,4040,4037,18,,,,,,,0,0,0,24.00,0.00,-1037.00,0.00,0.00,0.00,14,178.00,16.00,2.51,0.00,0.00,-16.00,0,,,100,100,15,2,0,0,1,1,0,,,,,0.0,0.0,0.0,0.0,0.0,0.0,0
-22.959764,-67.786923,17.90,0.00,1.50,0.24,17.90,17.90,3.30,0.27,8064,2025-11-27 17:03:20.902,2025-11-27 18:03:20.902,16,0,0,48.298,-22.959763,-67.786925,0.00,0.00,-1.50,-2.30,0.00,-103.70,0,1,0,83,97,-41104,13644,48298,3031.50,15,WP,1,0,0,0,0,0,0,1764263000901,4018,4034,4027,4036,4040,4037,18,,,,,,,0,0,0,23.00,0.00,-1037.00,0.00,0.00,0.00,14,179.00,15.00,2.41,0.00,0.00,-15.00,0,,,100,100,15,2,0,0,1,1,0,,,,,0.0,0.0,0.0,0.0,0.0,0.0,0
-22.959764,-67.786923,18.10,0.00,1.40,0.23,18.10,18.10,3.30,0.27,8069,2025-11-27 17:03:20.907,2025-11-27 18:03:20.907,16,0,0,48.298,-22.959763,-67.786925,0.00,0.00,-1.40,-2.10,0.20,-103.70,0,1,0,83,97,-41104,13644,48298,3031.50,15,WP,1,0,0,0,0,0,0,1764263000906,4018,4034,4027,4036,4040,4037,18,,,,,,,0,0,0,21.00,2.00,-1037.00,0.00,0.00,0.00,14,181.00,14.00,2.34,0.00,0.00,-14.00,0,,,100,100,15,2,0,0,1,1,0,,,,,0.0,0.0,0.0,0.0,0.0,0.0,0
-22.959764,-67.786923,18.20,0.00,1.30,0.23,18.20,18.20,3.30,0.27,8160,2025-11-27 17:03:20.998,2025-11-27 18:03:20.998,16,0,0,48.298,-22.959763,-67.786925,0.00,0.00,-1.30,-2.00,0.30,-103.70,0,1,0,83,97,-41104,13644,48298,3031.50,15,WP,1,0,0,0,0,0,0,1764263000997,4018,4034,4027,4036,4040,4037,18,,,,,,,0,0,0,20.00,3.00,-1037.00,0.00,0.00,0.00,14,182.00,13.00,2.30,0.00,0.00,-13.00,0,,,100,100,15,2,0,0,1,1,0,,,,,0.0,0.0,0.0,0.0,0.0,0.0,0
-22.959764,-67.786923,18.30,0.00,1.30,0.23,18.30,18.30,3.30,0.27,8365,2025-11-27 17:03:21.202,2025-11-27 18:03:21.203,16,0,0,48.289,-22.959763,-67.786925,0.00,0.00,-1.30,-2.10,0.30,-103.80,0,1,0,83,97,-36342,13590,48289,3031.50,15,WP,1,0,0,0,0,0,0,1764263001202,4018,4034,4027,4036,4040,4037,18,,,,,,,0,0,0,21.00,3.00,-1038.00,0.00,0.00,0.00,14,183.00,13.00,2.27,0.00,0.00,-13.00,0,,,100,100,15,2,0,0,1,1,0,,,,,0.0,0.0,0.0,0.0,0.0,0.0,0
-22.959764,-67.786923,18.50,0.00,1.30,0.22,18.50,18.50,3.30,0.27,8468,2025-11-27 17:03:21.306,2025-11-27 18:03:21.306,16,0,0,48.289,-22.959763,-67.786925,0.00,0.00,-1.30,-2.40,0.30,-103.80,0,1,0,83,97,-36342,13590,48289,3031.50,15,WP,1,0,0,0,0,0,0,1764263001305,4018,4034,4027,4036,4040,4037,18,,,,,,,0,0,0,24.00,3.00,-1038.00,0.00,0.00,0.00,14,185.00,13.00,2.22,0.00,0.00,-13.00,0,,,100,100,15,2,0,0,1,1,0,,,,,0.0,0.0,0.0,0.0,0.0,0.0,0
-22.959764,-67.786923,18.60,0.00,1.20,0.22,18.60,18.60,3.30,0.27,8561,2025-11-27 17:03:21.398,2025-11-27 18:03:21.398,16,0,0,48.289,-22.959763,-67.786925,0.00,0.00,-1.20,-2.70,0.00,-103.80,0,1,0,83,97,-36342,13590,48289,3031.50,15,WP,1,0,0,0,0,0,0,1764263001398,4018,4034,4027,4036,4040,4037,18,,,,,,,0,0,0,27.00,0.00,-1038.00,0.00,0.00,0.00,14,186.00,12.00,2.16,0.00,0.00,-12.00,0,,,100,100,15,2,0,0,1,1,0,,,,,0.0,0.0,0.0,0.0,0.0,0.0,0
-22.959764,-67.786923,18.70,0.00,1.10,0.22,18.70,18.70,3.30,0.27,8665,2025-11-27 17:03:21.502,2025-11-27 18:03:21.503,16,0,0,48.289,-22.959763,-67.786925,0.00,0.00,-1.10,-2.50,-0.10,-103.80,0,1,0,83,97,-36342,13590,48289,3031.50,15,WP,1,0,0,0,0,0,0,1764263001502,4018,4034,4027,4036,4040,4037,18,,,,,,,0,0,0,25.00,-1.00,-1038.00,0.00,0.00,0.00,14,187.00,11.00,2.16,0.00,0.00,-11.00,0,,,100,100,15,2,0,0,1,1,0,,,,,0.0,0.0,0.0,0.0,0.0,0.0,0
-22.959764,-67.786923,18.80,0.00,1.10,0.21,18.80,18.80,3.30,0.27,8670,2025-11-27 17:03:21.508,2025-11-27 18:03:21.508,16,0,0,48.289,-22.959763,-67.786925,0.00,0.00,-1.10,-2.20,0.00,-103.70,0,1,0,83,97,-36342,13590,48289,3031.50,15,WP,1,0,0,0,0,0,0,1764263001507,4018,4034,4027,4036,4040,4037,18,,,,,,,0,0,0,22.00,0.00,-1037.00,0.00,0.00,0.00,14,188.00,11.00,2.14,0.00,0.00,-11.00,0,,,100,100,15,2,0,0,1,1,0,,,,,0.0,0.0,0.0,0.0,0.0,0.0,0
-22.959764,-67.786924,19.00,0.00,1.10,0.21,19.00,19.00,3.30,0.27,8769,2025-11-27 17:03:21.607,2025-11-27 18:03:21.607,16,0,0,48.289,-22.959763,-67.786925,0.00,0.00,-1.10,-1.90,0.40,-103.60,0,1,0,83,97,-36342,13590,48289,3031.50,15,WP,1,0,0,0,0,0,0,1764263001606,4018,4034,4027,4036,4040,4037,18,,,,,,,0,0,0,19.00,4.00,-1036.00,0.00,0.00,0.00,14,190.00,11.00,2.09,0.00,0.00,-11.00,0,,,100,100,15,2,0,0,1,1,0,,,,,0.0,0.0,0.0,0.0,0.0,0.0,0
-22.959764,-67.786924,19.10,0.00,1.10,0.21,19.10,19.10,3.30,0.27,8862,2025-11-27 17:03:21.700,2025-11-27 18:03:21.700,16,0,0,48.289,-22.959763,-67.786925,0.00,0.00,-1.10,-1.70,0.70,-103.60,0,1,0,83,97,-36342,13590,48289,3031.50,15,WP,1,0,0,0,0,0,0,1764263001699,4018,4034,4027,4036,4040,4037,18,,,,,,,0,0,0,17.00,7.00,-1036.00,0.00,0.00,0.00,14,191.00,11.00,2.09,0.00,0.00,-11.00,0,,,100,100,15,2,0,0,1,1,0,,,,,0.0,0.0,0.0,0.0,0.0,0.0,0
-22.959764,-67.786924,19.20,0.00,1.00,0.21,19.20,19.20,3.30,0.27,9065,2025-11-27 17:03:21.902,2025-11-27 18:03:21.903,16,0,0,48.289,-22.959763,-67.786925,0.00,0.00,-1.00,-1.70,1.20,-103.60,0,1,0,83,97,-36342,13590,48289,3031.50,15,WP,1,0,0,0,0,0,0,1764263001902,4018,4034,4027,4036,4040,4037,18,,,,,,,0,0,0,17.00,12.00,-1036.00,0.00,0.00,0.00,14,192.00,10.00,2.10,0.00,0.00,-10.00,0,,,100,100,15,2,0,0,1,1,0,,,,,0.0,0.0,0.0,0.0,0.0,0.0,0
-22.959764,-67.786924,19.40,0.00,1.00,0.22,19.40,19.40,3.30,0.27,9071,2025-11-27 17:03:21.908,2025-11-27 18:03:21.908,16,0,0,48.289,-22.959763,-67.786925,0.00,0.00,-1.00,-1.60,1.50,-103.60,0,1,0,83,97,-36342,13590,48289,3031.50,15,WP,1,0,0,0,0,0,0,1764263001908,4018,4034,4027,4036,4040,4037,18,,,,,,,0,0,0,16.00,15.00,-1036.00,0.00,0.00,0.00,14,194.00,10.00,2.16,0.00,0.00,-10.00,0,,,100,100,15,2,0,0,1,1,0,,,,,0.0,0.0,0.0,0.0,0.0,0.0,0
-22.959764,-67.786924,19.50,0.00,0.80,0.22,19.50,19.50,3.30,0.27,9168,2025-11-27 17:03:22.006,2025-11-27 18:03:22.006,16,0,0,48.289,-22.959763,-67.786925,0.00,0.00,-0.80,-1.20,1.30,-105.10,0,1,0,83,97,-36342,13590,48289,3031.50,15,WP,1,0,0,0,0,0,0,1764263002005,4018,4034,4027,4036,4040,4037,18,,,,,,,0,0,0,12.00,13.00,-1051.00,0.00,0.00,0.00,14,195.00,8.00,2.19,0.00,0.00,-8.00,0,,,100,100,15,2,0,0,1,1,0,,,,,0.0,0.0,0.0,0.0,0.0,0.0,0
-22.959764,-67.786923,19.50,0.00,0.50,0.23,19.50,19.50,3.30,0.27,9367,2025-11-27 17:03:22.205,2025-11-27 18:03:22.205,16,0,0,48.289,-22.959763,-67.786925,0.00,0.00,-0.50,-0.40,0.50,-108.50,0,1,0,83,97,-36342,13590,48289,3031.50,15,WP,1,0,0,0,0,0,0,1764263002204,4018,4034,4027,4036,4040,4037,18,,,,,,,0,0,0,4.00,5.00,-1085.00,0.00,0.00,0.00,14,195.00,5.00,2.28,0.00,0.00,-5.00,0,,,100,100,15,2,0,0,1,1,0,,,,,0.0,0.0,0.0,0.0,0.0,0.0,0
-22.959764,-67.786923,19.60,0.00,0.30,0.24,19.60,19.60,3.30,0.27,9374,2025-11-27 17:03:22.212,2025-11-27 18:03:22.212,16,0,0,48.289,-22.959763,-67.786925,0.00,0.00,-0.30,-0.10,0.30,-114.20,0,1,0,83,97,-36342,13590,48289,3031.50,15,WP,1,0,0,0,0,0,0,1764263002211,4018,4034,4027,4036,4040,4037,18,,,,,,,0,0,0,1.00,3.00,-1142.00,0.00,0.00,0.00,14,196.00,3.00,2.37,0.00,0.00,-3.00,0,,,100,100,15,2,0,0,1,1,0,,,,,0.0,0.0,0.0,0.0,0.0,0.0,0
-22.959764,-67.786923,19.60,0.00,0.14,0.25,19.60,19.60,3.30,0.27,9569,2025-11-27 17:03:22.407,2025-11-27 18:03:22.407,16,0,0,48.289,-22.959763,-67.786925,0.00,0.10,-0.10,-0.40,0.60,-121.80,0,1,0,83,97,-36342,13590,48289,3031.50,15,WP,1,0,0,0,0,0,0,1764263002406,4018,4034,4027,4036,4040,4037,18,,,,,,,0,0,0,4.00,6.00,-1218.00,0.00,0.00,0.00,14,196.00,1.41,2.49,0.00,1.00,-1.00,0,,,100,100,15,2,0,0,1,1,0,,,,,0.0,0.0,0.0,0.0,0.0,0.0,0
-22.959764,-67.786923,19.60,0.00,0.10,0.27,19.60,19.60,3.30,0.27,9576,2025-11-27 17:03:22.414,2025-11-27 18:03:22.414,16,0,0,48.289,-22.959763,-67.786925,0.00,0.10,0.00,-0.80,1.10,-131.50,0,1,0,83,97,-36342,13590,48289,3031.50,15,WP,1,0,0,0,0,0,0,1764263002413,4018,4034,4027,4036,4040,4037,18,,,,,,,0,0,0,8.00,11.00,-1315.00,0.00,0.00,0.00,14,196.00,1.00,2.69,0.00,1.00,0.00,0,,,100,100,15,2,0,0,1,1,0,,,,,0.0,0.0,0.0,0.0,0.0,0.0,0
-22.959764,-67.786923,19.60,0.00,0.14,0.28,19.60,19.60,3.30,0.28,9673,2025-11-27 17:03:22.510,2025-11-27 18:03:22.511,16,0,0,48.289,-22.959763,-67.786925,0.00,0.10,0.10,-1.90,1.50,-141.30,0,1,0,83,97,-36342,13590,48289,3031.50,15,WP,1,0,0,0,0,0,0,1764263002510,4018,4034,4027,4036,4040,4037,18,,,,,,,0,0,0,19.00,15.00,-1413.00,0.00,0.00,0.00,14,196.00,1.41,2.83,0.00,1.00,1.00,0,,,100,100,15,2,0,0,1,1,0,,,,,0.0,0.0,0.0,0.0,0.0,0.0,0
-22.959764,-67.786923,19.50,0.00,0.14,0.29,19.60,19.60,3.30,0.29,9770,2025-11-27 17:03:22.607,2025-11-27 18:03:22.607,16,0,0,48.289,-22.959763,-67.786925,0.00,0.10,0.10,-3.30,1.60,-150.70,0,1,0,83,97,-36342,13590,48289,3031.50,15,WP,1,0,0,0,0,0,0,1764263002607,4018,4034,4027,4036,4040,4037,18,,,,,,,0,0,0,33.00,16.00,-1507.00,0.00,0.00,0.00,14,195.00,1.41,2.93,0.00,1.00,1.00,0,,,100,100,15,2,0,0,1,1,0,,,,,0.0,0.0,0.0,0.0,0.0,0.0,0
-22.959764,-67.786923,19.50,0.00,0.14,0.30,19.60,19.60,3.30,0.30,9872,2025-11-27 17:03:22.709,2025-11-27 18:03:22.709,16,0,0,48.289,-22.959763,-67.786925,0.00,0.10,0.10,-4.00,1.70,-160.30,0,1,0,83,97,-36342,13590,48289,3031.50,15,WP,1,0,0,0,0,0,0,1764263002709,4018,4034,4027,4036,4040,4037,18,,,,,,,0,0,0,40.00,17.00,-1603.00,0.00,0.00,0.00,14,195.00,1.41,3.05,0.00,1.00,1.00,0,,,100,100,15,2,0,0,1,1,0,,,,,0.0,0.0,0.0,0.0,0.0,0.0,0
-22.959764,-67.786923,19.50,0.00,0.10,0.32,19.60,19.60,3.30,0.32,9975,2025-11-27 17:03:22.813,2025-11-27 18:03:22.813,16,0,0,48.289,-22.959763,-67.786925,-0.10,0.00,0.00,-4.00,1.30,-168.40,0,1,0,83,97,-36342,13590,48289,3031.50,15,WP,1,0,0,0,0,0,0,1764263002812,4018,4034,4027,4036,4040,4037,18,,,,,,,0,0,0,40.00,13.00,-1684.00,0.00,0.00,0.00,14,195.00,1.00,3.20,-1.00,0.00,0.00,0,,,100,100,15,2,0,0,1,1,0,,,,,0.0,0.0,0.0,0.0,0.0,0.0,0
-22.959764,-67.786922,19.60,0.00,0.22,0.34,19.60,19.60,3.30,0.34,10085,2025-11-27 17:03:22.922,2025-11-27 18:03:22.922,16,0,0,48.289,-22.959763,-67.786925,-0.20,0.10,0.00,-3.30,0.50,-173.90,0,1,0,83,97,-36342,13590,48289,3031.50,15,WP,1,0,0,0,0,0,0,1764263002922,4018,4034,4027,4036,4040,4037,18,,,,,,,0,0,0,33.00,5.00,-1739.00,0.00,0.00,0.00,14,196.00,2.24,3.43,-2.00,1.00,0.00,0,,,100,100,15,2,0,0,1,1,0,,,,,0.0,0.0,0.0,0.0,0.0,0.0,0
-22.959765,-67.786922,19.60,0.00,0.32,0.37,19.60,19.60,3.30,0.37,10172,2025-11-27 17:03:23.010,2025-11-27 18:03:23.010,16,0,0,48.289,-22.959763,-67.786925,-0.30,0.10,0.00,-1.70,0.90,-177.50,0,1,0,83,97,-36342,13590,48289,3031.50,15,WP,1,0,0,0,0,0,0,1764263003009,4018,4034,4027,4036,4040,4037,18,,,,,,,0,0,0,17.00,9.00,-1775.00,0.00,0.00,0.00,14,196.00,3.16,3.74,-3.00,1.00,0.00,0,,,100,100,15,2,0,0,1,1,0,,,,,0.0,0.0,0.0,0.0,0.0,0.0,0
-22.959765,-67.786922,19.60,0.00,0.32,0.42,19.60,19.60,3.30,0.42,10282,2025-11-27 17:03:23.120,2025-11-27 18:03:23.120,16,0,0,48.289,-22.959763,-67.786925,-0.30,0.10,0.00,0.00,2.00,-179.80,0,1,0,83,97,-36342,13590,48289,3031.50,15,WP,1,0,0,0,0,0,0,1764263003119,4018,4034,4027,4036,4040,4037,18,,,,,,,0,0,0,-0.00,20.00,-1798.00,0.00,0.00,0.00,14,196.00,3.16,4.24,-3.00,1.00,0.00,0,,,100,100,15,2,0,0,1,1,0,,,,,0.0,0.0,0.0,0.0,0.0,0.0,0
-22.959766,-67.786922,19.60,0.00,0.41,0.48,19.60,19.60,3.30,0.48,10386,2025-11-27 17:03:23.223,2025-11-27 18:03:23.223,16,0,0,48.461,-22.959763,-67.786925,-0.40,0.10,0.00,0.00,2.10,179.40,0,1,0,83,97,-32432,13536,48461,3031.50,15,WP,1,0,0,0,0,0,0,1764263003223,4018,4034,4027,4036,4040,4037,18,,,,,,,0,0,0,-0.00,21.00,1794.00,0.00,0.00,0.00,14,196.00,4.12,4.81,-4.00,1.00,0.00,0,,,100,100,15,2,0,0,1,1,0,,,,,0.0,0.0,0.0,0.0,0.0,0.0,0
-22.959766,-67.786921,19.60,0.00,0.45,0.54,19.60,19.60,3.30,0.54,10582,2025-11-27 17:03:23.420,2025-11-27 18:03:23.420,16,0,0,48.461,-22.959763,-67.786925,-0.40,0.20,0.00,-1.30,1.70,178.90,0,1,0,83,97,-32432,13536,48461,3031.50,15,WP,1,0,0,0,0,0,0,1764263003419,4018,4034,4027,4036,4040,4037,18,,,,,,,0,0,0,13.00,17.00,1789.00,0.00,0.00,0.00,14,196.00,4.47,5.36,-4.00,2.00,0.00,0,,,100,100,15,2,0,0,1,1,0,,,,,0.0,0.0,0.0,0.0,0.0,0.0,0
-22.959767,-67.786921,19.60,0.00,0.55,0.61,19.60,19.60,3.30,0.61,10589,2025-11-27 17:03:23.427,2025-11-27 18:03:23.427,16,0,0,48.461,-22.959763,-67.786925,-0.50,0.20,-0.10,-2.40,1.90,178.50,0,1,0,83,97,-32432,13536,48461,3031.50,15,WP,1,0,0,0,0,0,0,1764263003426,4018,4034,4027,4036,4040,4037,18,,,,,,,0,0,0,24.00,19.00,1785.00,0.00,0.00,0.00,14,196.00,5.48,6.08,-5.00,2.00,-1.00,0,,,100,100,15,2,0,0,1,1,0,,,,,0.0,0.0,0.0,0.0,0.0,0.0,0
-22.959768,-67.786921,19.60,0.00,0.64,0.68,19.60,19.60,3.30,0.68,10678,2025-11-27 17:03:23.515,2025-11-27 18:03:23.515,16,0,0,48.461,-22.959763,-67.786925,-0.60,0.20,-0.10,-3.90,2.30,178.20,0,1,0,83,97,-32432,13536,48461,3031.50,15,WP,1,0,0,0,0,0,0,1764263003515,4018,4034,4027,4036,4040,4037,18,,,,,,,0,0,0,39.00,23.00,1782.00,0.00,0.00,0.00,14,196.00,6.40,6.76,-6.00,2.00,-1.00,0,,,100,100,15,2,0,0,1,1,0,,,,,0.0,0.0,0.0,0.0,0.0,0.0,0
-22.959768,-67.786920,19.60,0.00,0.73,0.77,19.60,19.60,3.30,0.77,10782,2025-11-27 17:03:23.619,2025-11-27 18:03:23.620,16,0,0,48.461,-22.959763,-67.786925,-0.70,0.20,-0.10,-5.10,3.00,177.80,0,1,0,83,97,-32432,13536,48461,3031.50,15,WP,1,0,0,0,0,0,0,1764263003619,4018,4034,4027,4036,4040,4037,18,,,,,,,0,0,0,51.00,30.00,1778.00,0.00,0.00,0.00,14,196.00,7.35,7.74,-7.00,2.00,-1.00,0,,,100,100,15,2,0,0,1,1,0,,,,,0.0,0.0,0.0,0.0,0.0,0.0,0
-22.959769,-67.786920,19.70,0.00,0.83,0.87,19.70,19.70,3.30,0.87,10981,2025-11-27 17:03:23.818,2025-11-27 18:03:23.819,16,0,0,48.461,-22.959763,-67.786925,-0.80,0.20,-0.10,-6.30,3.50,177.40,0,1,0,83,97,-32432,13536,48461,3031.50,15,WP,1,0,0,0,0,0,0,1764263003818,4018,4034,4027,4036,4040,4037,18,,,,,,,0,0,0,63.00,35.00,1774.00,0.00,0.00,0.00,14,197.00,8.31,8.72,-8.00,2.00,-1.00,0,,,100,100,15,2,0,0,1,1,0,,,,,0.0,0.0,0.0,0.0,0.0,0.0,0
-22.959770,-67.786920,19.70,0.00,0.93,0.98,19.70,19.70,3.30,0.98,10986,2025-11-27 17:03:23.824,2025-11-27 18:03:23.824,16,0,0,48.461,-22.959763,-67.786925,-0.90,0.20,-0.10,-7.00,4.20,177.00,0,1,0,83,97,-32432,13536,48461,3031.50,15,WP,1,0,0,0,0,0,0,1764263003823,4018,4034,4027,4036,4040,4037,18,,,,,,,0,0,0,70.00,42.00,1770.00,0.00,0.00,0.00,14,197.00,9.27,9.78,-9.00,2.00,-1.00,0,,,100,100,15,2,0,0,1,1,0,,,,,0.0,0.0,0.0,0.0,0.0,0.0,0
-22.959771,-67.786919,19.70,0.00,1.12,1.09,19.70,19.70,3.30,1.09,11085,2025-11-27 17:03:23.922,2025-11-27 18:03:23.923,16,0,0,48.461,-22.959763,-67.786925,-1.10,0.20,-0.10,-8.10,4.40,176.60,0,1,0,83,97,-32432,13536,48461,3031.50,15,WP,1,0,0,0,0,0,0,1764263003922,4018,4034,4027,4036,4040,4037,18,,,,,,,0,0,0,81.00,44.00,1766.00,0.00,0.00,0.00,14,197.00,11.22,10.94,-11.00,2.00,-1.00,0,,,100,100,15,2,0,0,1,1,0,,,,,0.0,0.0,0.0,0.0,0.0,0.0,0
-22.959773,-67.786919,19.80,0.00,1.22,1.23,19.80,19.80,3.30,1.23,11184,2025-11-27 17:03:24.021,2025-11-27 18:03:24.021,16,0,0,48.461,-22.959763,-67.786925,-1.20,0.20,0.00,-8.80,4.50,176.30,0,1,0,83,97,-32432,13536,48461,3031.50,15,WP,1,0,0,0,0,0,0,1764263004021,4018,4034,4027,4036,4040,4037,18,,,,,,,0,0,0,88.00,45.00,1763.00,0.00,0.00,0.00,14,198.00,12.17,12.30,-12.00,2.00,0.00,0,,,100,100,15,2,0,0,1,1,0,,,,,0.0,0.0,0.0,0.0,0.0,0.0,0
-22.959774,-67.786919,19.80,0.00,1.40,1.38,19.80,19.80,3.30,1.38,11285,2025-11-27 17:03:24.123,2025-11-27 18:03:24.123,16,0,0,48.461,-22.959763,-67.786925,-1.40,0.10,0.00,-9.70,4.40,176.00,0,1,0,83,97,-32432,13536,48461,3031.50,15,WP,1,0,0,0,0,0,0,1764263004122,4018,4034,4027,4036,4040,4037,18,,,,,,,0,0,0,97.00,44.00,1760.00,0.00,0.00,0.00,14,198.00,14.04,13.81,-14.00,1.00,0.00,0,,,100,100,15,2,0,0,1,1,0,,,,,0.0,0.0,0.0,0.0,0.0,0.0,0
-22.959776,-67.786919,19.80,0.00,1.60,1.54,19.80,19.80,3.30,1.54,11383,2025-11-27 17:03:24.220,2025-11-27 18:03:24.221,16,0,0,48.461,-22.959763,-67.786925,-1.60,0.10,0.00,-10.40,4.30,175.70,0,1,0,83,97,-32432,13536,48461,3031.50,15,WP,1,0,0,0,0,0,0,1764263004220,4018,4034,4027,4036,4040,4037,18,,,,,,,0,0,0,104.00,43.00,1757.00,0.00,0.00,0.00,14,198.00,16.03,15.42,-16.00,1.00,0.00,0,,,100,100,15,2,0,0,1,1,0,,,,,0.0,0.0,0.0,0.0,0.0,0.0,0
-22.959777,-67.786918,19.80,0.00,1.80,1.71,19.80,19.80,3.30,1.71,11485,2025-11-27 17:03:24.323,2025-11-27 18:03:24.323,16,0,0,48.461,-22.959763,-67.786925,-1.80,0.10,0.00,-11.00,4.10,175.50,0,1,0,83,97,-32432,13536,48461,3031.50,15,WP,1,0,0,0,0,0,0,1764263004322,4018,4034,4027,4036,4040,4037,18,,,,,,,0,0,0,110.00,41.00,1755.00,0.00,0.00,0.00,14,198.00,18.03,17.13,-18.00,1.00,0.00,0,,,100,100,15,2,0,0,1,1,0,,,,,0.0,0.0,0.0,0.0,0.0,0.0,0
-22.959779,-67.786918,19.80,0.00,2.00,1.92,19.80,19.80,3.30,1.92,11586,2025-11-27 17:03:24.424,2025-11-27 18:03:24.424,16,0,0,48.461,-22.959763,-67.786925,-2.00,0.10,0.10,-11.30,3.70,175.50,0,1,0,83,97,-32432,13536,48461,3031.50,15,WP,1,0,0,0,0,0,0,1764263004423,4018,4034,4027,4036,4040,4037,18,,,,,,,0,0,0,113.00,37.00,1755.00,0.00,0.00,0.00,14,198.00,20.05,19.21,-20.00,1.00,1.00,0,,,100,100,15,2,0,0,1,1,0,,,,,0.0,0.0,0.0,0.0,0.0,0.0,0
-22.959782,-67.786918,19.80,0.00,2.20,2.15,19.80,19.80,3.30,2.15,11687,2025-11-27 17:03:24.524,2025-11-27 18:03:24.524,16,0,0,48.461,-22.959763,-67.786925,-2.20,0.10,0.10,-11.60,3.40,175.50,0,1,0,83,97,-32432,13536,48461,3031.50,15,WP,1,0,0,0,0,0,0,1764263004524,4018,4034,4027,4036,4040,4037,18,,,,,,,0,0,0,116.00,34.00,1755.00,0.00,0.00,0.00,14,198.00,22.05,21.54,-22.00,1.00,1.00,0,,,100,100,15,2,0,0,1,1,0,,,,,0.0,0.0,0.0,0.0,0.0,0.0,0
-22.959784,-67.786918,19.70,0.00,2.40,2.41,19.80,19.80,3.30,2.41,11790,2025-11-27 17:03:24.627,2025-11-27 18:03:24.627,16,0,0,48.461,-22.959763,-67.786925,-2.40,0.00,0.10,-11.60,3.60,175.50,0,1,0,83,97,-32432,13536,48461,3031.50,15,WP,1,0,0,0,0,0,0,1764263004627,4018,4034,4027,4036,4040,4037,18,,,,,,,0,0,0,116.00,36.00,1755.00,0.00,0.00,0.00,14,197.00,24.02,24.09,-24.00,0.00,1.00,0,,,100,100,15,2,0,0,1,1,0,,,,,0.0,0.0,0.0,0.0,0.0,0.0,0
-22.959787,-67.786918,19.70,0.00,2.60,2.70,19.80,19.80,3.30,2.70,11901,2025-11-27 17:03:24.739,2025-11-27 18:03:24.739,16,0,0,48.461,-22.959763,-67.786925,-2.60,0.00,0.00,-11.60,3.60,175.50,0,1,0,83,97,-32432,13536,48461,3031.50,15,WP,1,0,0,0,0,0,0,1764263004738,4018,4034,4027,4036,4040,4037,18,,,,,,,0,0,0,116.00,36.00,1755.00,0.00,0.00,0.00,14,197.00,26.00,27.00,-26.00,0.00,0.00,0,,,100,100,15,2,0,0,1,1,0,,,,,0.0,0.0,0.0,0.0,0.0,0.0,0
-22.959789,-67.786918,19.70,0.00,2.80,3.00,19.80,19.80,3.30,3.00,11986,2025-11-27 17:03:24.824,2025-11-27 18:03:24.824,16,0,0,48.461,-22.959763,-67.786925,-2.80,0.00,0.00,-11.20,3.50,175.60,0,1,0,83,97,-32432,13536,48461,3031.50,15,WP,1,0,0,0,0,0,0,1764263004823,4018,4034,4027,4036,4040,4037,18,,,,,,,0,0,0,112.00,35.00,1756.00,0.00,0.00,0.00,14,197.00,28.00,30.02,-28.00,0.00,0.00,0,,,100,100,15,2,0,0,1,1,0,,,,,0.0,0.0,0.0,0.0,0.0,0.0,0
-22.959793,-67.786918,19.70,0.00,3.00,3.33,19.80,19.80,3.30,3.33,12100,2025-11-27 17:03:24.938,2025-11-27 18:03:24.938,16,0,0,48.461,-22.959763,-67.786925,-3.00,0.00,0.00,-11.40,3.30,175.70,0,1,0,83,97,-32432,13536,48461,3031.50,15,WP,1,0,0,0,0,0,0,1764263004937,4018,4034,4027,4036,4040,4037,18,,,,,,,0,0,0,114.00,33.00,1757.00,0.00,0.00,0.00,14,197.00,30.00,33.31,-30.00,0.00,0.00,0,,,100,100,15,2,0,0,1,1,0,,,,,0.0,0.0,0.0,0.0,0.0,0.0,0
-22.959796,-67.786918,19.70,0.00,3.20,3.67,19.80,19.80,3.30,3.67,12191,2025-11-27 17:03:25.029,2025-11-27 18:03:25.029,16,0,0,48.461,-22.959763,-67.786925,-3.20,0.00,0.00,-11.80,3.20,175.70,0,1,0,83,97,-32432,13536,48461,3031.50,15,WP,1,0,0,0,0,0,0,1764263005028,4018,4034,4027,4036,4040,4037,18,,,,,,,0,0,0,118.00,32.00,1757.00,0.00,0.00,0.00,14,197.00,32.00,36.70,-32.00,0.00,0.00,0,,,100,100,15,2,0,0,1,1,0,,,,,0.0,0.0,0.0,0.0,0.0,0.0,0
-22.959799,-67.786918,19.70,0.00,3.40,4.03,19.80,19.80,3.40,4.03,12301,2025-11-27 17:03:25.138,2025-11-27 18:03:25.138,16,0,0,48.461,-22.959763,-67.786925,-3.40,0.00,0.00,-12.10,3.30,175.80,0,1,0,83,97,-32432,13536,48461,3031.50,15,WP,1,0,0,0,0,0,0,1764263005138,4018,4034,4027,4036,4040,4037,18,,,,,,,0,0,0,121.00,33.00,1758.00,0.00,0.00,0.00,14,197.00,34.00,40.35,-34.00,0.00,0.00,0,,,100,98,15,2,0,0,1,1,0,,,,,0.0,0.0,0.0,0.0,0.0,0.0,0
-22.959803,-67.786918,19.70,0.00,3.60,4.42,19.80,19.80,3.60,4.42,12402,2025-11-27 17:03:25.239,2025-11-27 18:03:25.239,16,0,0,48.489,-22.959763,-67.786925,-3.60,0.00,0.00,-12.30,2.70,175.90,0,1,0,83,97,-35716,13536,48489,3031.50,15,WP,1,0,0,0,0,0,0,1764263005239,4018,4034,4027,4036,4040,4037,18,,,,,,,0,0,0,123.00,27.00,1759.00,0.00,0.00,0.00,14,197.00,36.00,44.16,-36.00,0.00,0.00,0,,,100,98,15,2,0,0,1,1,0,,,,,0.0,0.0,0.0,0.0,0.0,0.0,0
-22.959806,-67.786918,19.70,0.00,3.80,4.82,19.80,19.80,3.80,4.82,12493,2025-11-27 17:03:25.330,2025-11-27 18:03:25.330,16,0,0,48.489,-22.959763,-67.786925,-3.80,0.00,0.00,-12.30,2.70,176.00,0,1,0,83,97,-35716,13536,48489,3031.50,15,WP,1,0,0,0,0,0,0,1764263005330,4018,4034,4027,4036,4040,4037,18,,,,,,,0,0,0,123.00,27.00,1760.00,0.00,0.00,0.00,14,197.00,38.00,48.22,-38.00,0.00,0.00,0,,,100,98,15,2,0,0,1,1,0,,,,,0.0,0.0,0.0,0.0,0.0,0.0,0
-22.959810,-67.786918,19.70,0.00,4.00,5.25,19.80,19.80,4.00,5.25,12598,2025-11-27 17:03:25.435,2025-11-27 18:03:25.436,16,0,0,48.489,-22.959763,-67.786925,-4.00,0.00,0.00,-12.20,2.30,176.00,0,1,0,83,97,-35716,13536,48489,3031.50,15,WP,1,0,0,0,0,0,0,1764263005435,4018,4034,4027,4036,4040,4037,18,,,,,,,0,0,0,122.00,23.00,1760.00,0.00,0.00,0.00,14,197.00,40.00,52.45,-40.00,0.00,0.00,0,,,100,98,15,2,0,0,1,1,0,,,,,0.0,0.0,0.0,0.0,0.0,0.0,0
-22.959814,-67.786918,19.70,0.00,4.20,5.69,19.80,19.80,4.20,5.69,12701,2025-11-27 17:03:25.539,2025-11-27 18:03:25.539,16,0,0,48.489,-22.959763,-67.786925,-4.20,0.00,0.00,-12.10,2.20,176.00,0,1,0,83,97,-35716,13536,48489,3031.50,15,WP,1,0,0,0,0,0,0,1764263005538,4018,4034,4027,4036,4040,4037,18,,,,,,,0,0,0,121.00,22.00,1760.00,0.00,0.00,0.00,14,197.00,42.00,56.88,-42.00,0.00,0.00,0,,,100,98,15,2,0,0,1,1,0,,,,,0.0,0.0,0.0,0.0,0.0,0.0,0
-22.959818,-67.786918,19.70,0.00,4.40,6.15,19.80,19.80,4.40,6.15,12792,2025-11-27 17:03:25.629,2025-11-27 18:03:25.630,16,0,0,48.489,-22.959763,-67.786925,-4.40,0.00,0.00,-12.30,2.20,176.00,0,1,0,83,97,-35716,13536,48489,3031.50,15,WP,1,0,0,0,0,0,0,1764263005629,4018,4034,4027,4036,4040,4037,18,,,,,,,0,0,0,123.00,22.00,1760.00,0.00,0.00,0.00,14,197.00,44.00,61.46,-44.00,0.00,0.00,0,,,100,98,15,2,0,0,1,1,0,,,,,0.0,0.0,0.0,0.0,0.0,0.0,0
-22.959823,-67.786918,19.70,0.00,4.50,6.62,19.80,19.80,4.50,6.62,12898,2025-11-27 17:03:25.735,2025-11-27 18:03:25.735,16,0,0,48.489,-22.959763,-67.786925,-4.50,0.00,0.00,-12.90,2.30,176.00,0,1,0,83,97,-35716,13536,48489,3031.50,15,WP,1,0,0,0,0,0,0,1764263005735,4018,4034,4027,4036,4040,4037,18,,,,,,,0,0,0,129.00,23.00,1760.00,0.00,0.00,0.00,14,197.00,45.00,66.21,-45.00,0.00,0.00,0,,,100,98,15,2,0,0,1,1,0,,,,,0.0,0.0,0.0,0.0,0.0,0.0,0
-22.959827,-67.786917,19.70,0.00,4.70,7.11,19.80,19.80,4.70,7.11,12999,2025-11-27 17:03:25.837,2025-11-27 18:03:25.837,16,0,0,48.489,-22.959763,-67.786925,-4.70,0.00,0.00,-13.40,2.30,176.00,0,1,0,83,97,-35716,13536,48489,3031.50,15,WP,1,0,0,0,0,0,0,1764263005836,4018,4034,4027,4036,4040,4037,18,,,,,,,0,0,0,134.00,23.00,1760.00,0.00,0.00,0.00,14,197.00,47.00,71.14,-47.00,0.00,0.00,0,,,100,98,15,2,0,0,1,1,0,,,,,0.0,0.0,0.0,0.0,0.0,0.0,0
-22.959832,-67.786917,19.70,0.00,4.90,7.63,19.80,19.80,4.90,7.63,13102,2025-11-27 17:03:25.940,2025-11-27 18:03:25.940,16,0,0,48.489,-22.959763,-67.786925,-4.90,0.00,0.00,-13.80,2.40,176.00,0,1,0,83,97,-35716,13536,48489,3031.50,15,WP,1,0,0,0,0,0,0,1764263005939,4018,4034,4027,4036,4040,4037,18,,,,,,,0,0,0,138.00,24.00,1760.00,0.00,0.00,0.00,14,197.00,49.00,76.34,-49.00,0.00,0.00,0,,,100,98,15,2,0,0,1,1,0,,,,,0.0,0.0,0.0,0.0,0.0,0.0,0
-22.959837,-67.786917,19.70,0.00,5.10,8.18,19.80,19.80,5.10,8.18,13195,2025-11-27 17:03:26.033,2025-11-27 18:03:26.033,16,0,0,48.489,-22.959763,-67.786925,-5.10,0.00,0.00,-14.00,2.20,176.00,0,1,0,83,97,-35716,13536,48489,3031.50,15,WP,1,0,0,0,0,0,0,1764263006032,4018,4034,4027,4036,4040,4037,18,,,,,,,0,0,0,140.00,22.00,1760.00,0.00,0.00,0.00,14,197.00,51.00,81.77,-51.00,0.00,0.00,0,,,100,98,15,2,0,0,1,1,0,,,,,0.0,0.0,0.0,0.0,0.0,0.0,0
-22.959842,-67.786917,19.70,0.00,5.30,8.73,19.80,19.80,5.30,8.73,13298,2025-11-27 17:03:26.136,2025-11-27 18:03:26.136,16,0,0,48.489,-22.959763,-67.786925,-5.30,0.00,0.00,-14.30,2.10,176.00,0,1,0,83,97,-35716,13536,48489,3031.50,15,WP,1,0,0,0,0,0,0,1764263006135,4018,4034,4027,4036,4040,4037,18,,,,,,,0,0,0,143.00,21.00,1760.00,0.00,0.00,0.00,14,197.00,53.00,87.34,-53.00,0.00,0.00,0,,,100,98,15,2,0,0,1,1,0,,,,,0.0,0.0,0.0,0.0,0.0,0.0,0
-22.959847,-67.786917,19.70,0.00,5.60,9.31,19.80,19.80,5.60,9.31,13402,2025-11-27 17:03:26.239,2025-11-27 18:03:26.239,16,0,0,48.489,-22.959763,-67.786925,-5.60,0.00,0.00,-14.60,1.90,176.10,0,1,0,83,97,-35716,13536,48489,3031.50,15,WP,1,0,0,0,0,0,0,1764263006239,4018,4034,4027,4036,4040,4037,18,,,,,,,0,0,0,146.00,19.00,1761.00,0.00,0.00,0.00,14,197.00,56.00,93.06,-56.00,0.00,0.00,0,,,100,100,15,2,0,0,1,1,0,,,,,0.0,0.0,0.0,0.0,0.0,0.0,0
-22.959852,-67.786917,19.70,0.00,5.80,9.87,19.80,19.80,5.80,9.87,13500,2025-11-27 17:03:26.338,2025-11-27 18:03:26.338,16,0,0,48.489,-22.959763,-67.786925,-5.80,0.00,0.00,-14.80,1.80,176.10,0,1,0,83,97,-35716,13536,48489,3031.50,15,WP,1,0,0,0,0,0,0,1764263006337,4018,4034,4027,4036,4040,4037,18,,,,,,,0,0,0,148.00,18.00,1761.00,0.00,0.00,0.00,14,197.00,58.00,98.71,-58.00,0.00,0.00,0,,,100,100,15,2,0,0,1,1,0,,,,,0.0,0.0,0.0,0.0,0.0,0.0,0
-22.959858,-67.786917,19.70,0.00,6.00,10.50,19.80,19.80,6.00,10.50,13596,2025-11-27 17:03:26.434,2025-11-27 18:03:26.434,16,0,0,48.489,-22.959763,-67.786925,-6.00,0.10,0.00,-15.00,1.50,176.20,0,1,0,83,97,-35716,13536,48489,3031.50,15,WP,1,0,0,0,0,0,0,1764263006433,4018,4034,4027,4036,4040,4037,18,,,,,,,0,0,0,150.00,15.00,1762.00,0.00,0.00,0.00,14,197.00,60.01,104.95,-60.00,1.00,0.00,0,,,100,100,15,2,0,0,1,1,0,,,,,0.0,0.0,0.0,0.0,0.0,0.0,0
-22.959863,-67.786917,19.70,0.00,6.20,11.12,19.80,19.80,6.20,11.12,13700,2025-11-27 17:03:26.537,2025-11-27 18:03:26.537,16,0,0,48.489,-22.959763,-67.786925,-6.20,0.10,0.00,-15.50,1.40,176.20,0,1,0,83,97,-35716,13536,48489,3031.50,15,WP,1,0,0,0,0,0,0,1764263006537,4018,4034,4027,4036,4040,4037,18,,,,,,,0,0,0,155.00,14.00,1762.00,0.00,0.00,0.00,14,197.00,62.01,111.23,-62.00,1.00,0.00,0,,,100,100,15,2,0,0,1,1,0,,,,,0.0,0.0,0.0,0.0,0.0,0.0,0
