latitude,longitude,altitude(m),ultrasonicHeight(m),speed(mps),distance(m),max_altitude(m),max_ascent(m),max_speed(mps),max_distance(m),time(millisecond),datetime(utc),datetime(local),satellites,pressure(Pa),temperature(F),voltage(v),home_latitude,home_longitude,velocityX(mps),velocityY(mps),velocityZ(mps),pitch(deg),roll(deg),yaw(deg),powerlevel,isflying,istakingphoto,remainPowerPercent,remainLifePercent,currentCurrent,currentElectricity,currentVoltage,batteryTemperature,dischargeCount,flightmode,isMotorsOn,isTakingVideo,Rc_elevator,Rc_aileron,Rc_throttle,Rc_rudder,Rc_gyro,timestamp,Battery_Cell1,Battery_Cell2,Battery_Cell3,Battery_Cell4,Battery_Cell5,Battery_Cell6,Dronetype,AppVersion,Planename,FlyControllerSerialNumber,RemoteSerialNumber,BatterySerialNumber,CENTER_BATTERY.productDate,CENTER_BATTERY.serialNo,CENTER_BATTERY.fullCapacity,CENTER_BATTERY.productDateRaw,pitchRaw,rollRaw,yawRaw,gimbalPitchRaw,gimbalRollRaw,gimbalYawRaw,flyState,altitudeRaw,speedRaw,distanceRaw,velocityXRaw,velocityYRaw,velocityZRaw,data_reuse,App_Tip,App_Warning,downlinkSignalQuality,uplinkSignalQuality,transmissionChannel,rcModeSwitch,rcHome,rcPause,rcTransform,rcJoystickMode,appMode,FlyControllerSerialNumber_legacy,RemoteSerialNumber_legacy,BatterySerialNumber_legacy,Battery2SerialNumber,frontAvoidDist,backAvoidDist,rightAvoidDist,leftAvoidDist,upAvoidDist,downAvoidDist,isBrakingToAvoid
-22.959769,-67.786887,0.40,0.00,0.79,0.27,0.40,0.40,0.79,0.27,4,2025-11-29 19:33:01.784,2025-11-29 16:33:01.784,15,0,0,51.819,-22.959767,-67.786889,-0.20,0.30,-0.70,0.20,-1.80,91.20,0,1,0,100,90,-893,13987,51819,2841.50,43,TakeOff,1,0,0,0,0,0,0,1764444781783,4320,4322,4317,4328,4323,4328,18,Litchi_iOS_2.15.7,EIK Matrice 1,0670131556,03LLCA05XT,,,0,13987,0,-2.00,-18.00,912.00,0.00,-5.00,14.00,11,4.00,7.87,2.65,-2.00,3.00,-7.00,0,,,100,100,18,2,0,0,1,1,0,(null),(null),(null),(null),0.0,0.0,0.0,0.0,0.0,0.0,0
-22.959769,-67.786887,0.50,0.00,0.70,0.31,0.50,0.50,0.79,0.31,92,2025-11-29 19:33:01.872,2025-11-29 16:33:01.872,15,0,0,51.819,-22.959767,-67.786889,-0.20,0.30,-0.60,1.30,-2.90,91.20,0,1,0,100,90,-893,13987,51819,2841.50,43,TakeOff,1,0,0,0,0,0,0,1764444781871,4320,4322,4317,4328,4323,4328,18,,,,,,,0,0,0,-13.00,-29.00,912.00,0.00,-5.00,16.00,11,5.00,7.00,3.14,-2.00,3.00,-6.00,0,,,100,100,18,2,0,0,1,1,0,,,,,0.0,0.0,0.0,0.0,0.0,0.0,0
-22.959769,-67.786886,0.60,0.00,0.62,0.36,0.60,0.60,0.79,0.36,199,2025-11-29 19:33:01.979,2025-11-29 16:33:01.979,15,0,0,51.819,-22.959767,-67.786889,-0.20,0.30,-0.50,2.80,-3.20,91.50,0,1,0,100,90,-893,13987,51819,2841.50,43,TakeOff,1,0,0,0,0,0,0,1764444781978,4320,4322,4317,4328,4323,4328,18,,,,,,,0,0,0,-28.00,-32.00,915.00,0.00,-5.00,16.00,11,6.00,6.16,3.65,-2.00,3.00,-5.00,0,,,100,100,18,2,0,0,1,1,0,,,,,0.0,0.0,0.0,0.0,0.0,0.0,0
-22.959769,-67.786886,0.60,0.00,0.51,0.41,0.60,0.60,0.79,0.41,296,2025-11-29 19:33:02.075,2025-11-29 16:33:02.075,15,0,0,49.378,-22.959767,-67.786889,-0.10,0.30,-0.40,4.10,-3.30,91.70,0,1,0,100,90,-22859,13987,49378,2841.50,43,TakeOff,1,0,0,0,0,0,0,1764444782075,4320,4322,4317,4328,4323,4328,18,,,,,,,0,0,0,-41.00,-33.00,917.00,0.00,-5.00,14.00,11,6.00,5.10,4.11,-1.00,3.00,-4.00,0,,,100,100,18,2,0,0,1,1,0,,,,,0.0,0.0,0.0,0.0,0.0,0.0,0
-22.959769,-67.786885,0.70,0.00,0.54,0.44,0.70,0.70,0.79,0.44,397,2025-11-29 19:33:02.176,2025-11-29 16:33:02.176,16,0,0,49.378,-22.959767,-67.786889,0.00,0.20,-0.50,4.50,-2.70,91.70,0,1,0,100,90,-22859,13987,49378,2841.50,43,TakeOff,1,0,0,0,0,0,0,1764444782176,4320,4322,4317,4328,4323,4328,18,,,,,,,0,0,0,-45.00,-27.00,917.00,0.00,-5.00,11.00,11,7.00,5.39,4.43,0.00,2.00,-5.00,0,,,100,100,18,2,0,0,1,1,0,,,,,0.0,0.0,0.0,0.0,0.0,0.0,0
-22.959769,-67.786885,0.70,0.00,0.45,0.47,0.70,0.70,0.79,0.47,500,2025-11-29 19:33:02.280,2025-11-29 16:33:02.280,16,0,0,49.378,-22.959767,-67.786889,0.00,0.20,-0.40,4.20,-1.60,91.60,0,1,0,100,90,-22859,13987,49378,2841.50,43,TakeOff,1,0,0,0,0,0,0,1764444782279,4320,4322,4317,4328,4323,4328,18,,,,,,,0,0,0,-42.00,-16.00,916.00,0.00,-5.00,10.00,11,7.00,4.47,4.71,0.00,2.00,-4.00,0,,,100,100,18,2,0,0,1,1,0,,,,,0.0,0.0,0.0,0.0,0.0,0.0,0
-22.959769,-67.786885,0.80,0.00,0.54,0.49,0.80,0.80,0.79,0.49,595,2025-11-29 19:33:02.374,2025-11-29 16:33:02.374,16,0,0,49.378,-22.959767,-67.786889,0.00,0.20,-0.50,3.60,-0.90,91.40,0,1,0,100,90,-22859,13987,49378,2841.50,43,TakeOff,1,0,0,0,0,0,0,1764444782374,4320,4322,4317,4328,4323,4328,18,,,,,,,0,0,0,-36.00,-9.00,914.00,0.00,-5.00,11.00,11,8.00,5.39,4.90,0.00,2.00,-5.00,0,,,100,100,18,2,0,0,1,1,0,,,,,0.0,0.0,0.0,0.0,0.0,0.0,0
-22.959769,-67.786885,0.80,0.00,0.51,0.51,0.80,0.80,0.79,0.51,699,2025-11-29 19:33:02.479,2025-11-29 16:33:02.479,16,0,0,49.378,-22.959767,-67.786889,0.00,0.10,-0.50,3.10,-0.20,91.20,0,1,0,100,90,-22859,13987,49378,2841.50,43,TakeOff,1,0,0,0,0,0,0,1764444782478,4320,4322,4317,4328,4323,4328,18,,,,,,,0,0,0,-31.00,-2.00,912.00,0.00,-5.00,13.00,11,8.00,5.10,5.12,0.00,1.00,-5.00,0,,,100,100,18,2,0,0,1,1,0,,,,,0.0,0.0,0.0,0.0,0.0,0.0,0
-22.959769,-67.786884,0.90,0.00,0.51,0.52,0.90,0.90,0.79,0.52,796,2025-11-29 19:33:02.576,2025-11-29 16:33:02.576,16,0,0,49.378,-22.959767,-67.786889,0.00,0.10,-0.50,3.30,0.30,91.00,0,1,0,100,90,-22859,13987,49378,2841.50,43,TakeOff,1,0,0,0,0,0,0,1764444782575,4320,4322,4317,4328,4323,4328,18,,,,,,,0,0,0,-33.00,3.00,910.00,0.00,-5.00,13.00,11,9.00,5.10,5.25,0.00,1.00,-5.00,0,,,100,100,18,2,0,0,1,1,0,,,,,0.0,0.0,0.0,0.0,0.0,0.0,0
-22.959769,-67.786884,0.90,0.00,0.41,0.54,0.90,0.90,0.79,0.54,900,2025-11-29 19:33:02.680,2025-11-29 16:33:02.680,16,0,0,49.378,-22.959767,-67.786889,0.00,0.10,-0.40,3.50,0.80,91.10,0,1,0,100,90,-22859,13987,49378,2841.50,43,TakeOff,1,0,0,0,0,0,0,1764444782679,4320,4322,4317,4328,4323,4328,18,,,,,,,0,0,0,-35.00,8.00,911.00,0.00,-6.00,17.00,11,9.00,4.12,5.39,0.00,1.00,-4.00,0,,,100,100,18,2,0,0,1,1,0,,,,,0.0,0.0,0.0,0.0,0.0,0.0,0
-22.959769,-67.786884,1.00,0.00,0.41,0.55,1.00,1.00,0.79,0.55,1002,2025-11-29 19:33:02.782,2025-11-29 16:33:02.782,16,0,0,49.378,-22.959767,-67.786889,0.00,0.10,-0.40,3.40,0.20,91.40,0,1,0,100,90,-22859,13987,49378,2841.50,43,TakeOff,1,0,0,0,0,0,0,1764444782781,4320,4322,4317,4328,4323,4328,18,,,,,,,0,0,0,-34.00,2.00,914.00,0.00,-5.00,17.00,11,10.00,4.12,5.52,0.00,1.00,-4.00,0,,,100,100,18,2,0,0,1,1,0,,,,,0.0,0.0,0.0,0.0,0.0,0.0,0
-22.959769,-67.786884,1.00,0.00,0.52,0.57,1.00,1.00,0.79,0.57,1098,2025-11-29 19:33:02.878,2025-11-29 16:33:02.878,16,0,0,49.378,-22.959767,-67.786889,-0.10,0.10,-0.50,3.40,-0.60,91.60,0,1,0,100,90,-22859,13987,49378,2841.50,43,TakeOff,1,0,0,0,0,0,0,1764444782877,4320,4322,4317,4328,4323,4328,18,,,,,,,0,0,0,-34.00,-6.00,916.00,0.00,-6.00,14.00,11,10.00,5.20,5.69,-1.00,1.00,-5.00,0,,,100,100,18,2,0,0,1,1,0,,,,,0.0,0.0,0.0,0.0,0.0,0.0,0
-22.959770,-67.786884,1.10,0.00,0.52,0.58,1.10,1.10,0.79,0.58,1202,2025-11-29 19:33:02.982,2025-11-29 16:33:02.982,16,0,0,49.378,-22.959767,-67.786889,-0.10,0.10,-0.50,3.50,-1.50,91.80,0,1,0,100,90,-22859,13987,49378,2841.50,43,WP,1,0,0,0,0,0,0,1764444782981,4320,4322,4317,4328,4323,4328,18,,,,,,,0,0,0,-35.00,-15.00,918.00,0.00,-5.00,12.00,14,11.00,5.20,5.83,-1.00,1.00,-5.00,0,,,100,100,18,2,0,0,1,1,0,,,,,0.0,0.0,0.0,0.0,0.0,0.0,0
-22.959770,-67.786884,1.10,0.00,0.52,0.60,1.10,1.10,0.79,0.60,1307,2025-11-29 19:33:03.086,2025-11-29 16:33:03.086,16,0,0,49.378,-22.959767,-67.786889,-0.10,0.10,-0.50,3.50,-2.30,91.90,0,1,0,100,90,-22859,13987,49378,2841.50,43,WP,1,0,0,0,0,0,0,1764444783086,4320,4322,4317,4328,4323,4328,18,,,,,,,0,0,0,-35.00,-23.00,919.00,0.00,-5.00,10.00,14,11.00,5.20,5.99,-1.00,1.00,-5.00,0,,,100,100,18,2,0,0,1,1,0,,,,,0.0,0.0,0.0,0.0,0.0,0.0,0
-22.959770,-67.786884,1.20,0.00,0.42,0.62,1.20,1.20,0.79,0.62,1402,2025-11-29 19:33:03.181,2025-11-29 16:33:03.182,16,0,0,46.957,-22.959767,-67.786889,-0.10,0.10,-0.40,2.60,-2.20,92.10,0,1,0,100,90,-51259,13987,46957,2841.50,43,WP,1,0,0,0,0,0,0,1764444783181,4320,4322,4317,4328,4323,4328,18,,,,,,,0,0,0,-26.00,-22.00,921.00,0.00,-5.00,10.00,14,12.00,4.24,6.25,-1.00,1.00,-4.00,0,,,100,100,18,2,0,0,1,1,0,,,,,0.0,0.0,0.0,0.0,0.0,0.0,0
-22.959770,-67.786884,1.20,0.00,0.33,0.65,1.20,1.20,0.79,0.65,1505,2025-11-29 19:33:03.284,2025-11-29 16:33:03.284,16,0,0,46.957,-22.959767,-67.786889,-0.10,0.10,-0.30,2.10,-2.10,92.20,0,1,0,100,90,-51259,13987,46957,2841.50,43,WP,1,0,0,0,0,0,0,1764444783284,4320,4322,4317,4328,4323,4328,18,,,,,,,0,0,0,-21.00,-21.00,922.00,0.00,-5.00,7.00,14,12.00,3.32,6.48,-1.00,1.00,-3.00,0,,,100,100,18,2,0,0,1,1,0,,,,,0.0,0.0,0.0,0.0,0.0,0.0,0
-22.959771,-67.786884,1.20,0.00,0.24,0.67,1.20,1.20,0.79,0.67,1607,2025-11-29 19:33:03.386,2025-11-29 16:33:03.386,16,0,0,46.957,-22.959767,-67.786889,-0.10,0.10,-0.20,2.20,-2.00,92.10,0,1,0,100,90,-51259,13987,46957,2841.50,43,WP,1,0,0,0,0,0,0,1764444783386,4320,4322,4317,4328,4323,4328,18,,,,,,,0,0,0,-22.00,-20.00,921.00,0.00,-5.00,6.00,14,12.00,2.45,6.71,-1.00,1.00,-2.00,0,,,100,100,18,2,0,0,1,1,0,,,,,0.0,0.0,0.0,0.0,0.0,0.0,0
-22.959771,-67.786883,1.20,0.00,0.33,0.69,1.20,1.20,0.79,0.69,1704,2025-11-29 19:33:03.483,2025-11-29 16:33:03.483,16,0,0,46.957,-22.959767,-67.786889,-0.10,0.10,-0.30,2.60,-1.60,91.80,0,1,0,100,90,-51259,13987,46957,2841.50,43,WP,1,0,0,0,0,0,0,1764444783483,4320,4322,4317,4328,4323,4328,18,,,,,,,0,0,0,-26.00,-16.00,918.00,0.00,-5.00,6.00,14,12.00,3.32,6.90,-1.00,1.00,-3.00,0,,,100,100,18,2,0,0,1,1,0,,,,,0.0,0.0,0.0,0.0,0.0,0.0,0
-22.959771,-67.786883,1.30,0.00,0.37,0.72,1.30,1.30,0.79,0.72,1806,2025-11-29 19:33:03.585,2025-11-29 16:33:03.585,16,0,0,46.957,-22.959767,-67.786889,-0.20,0.10,-0.30,2.80,-1.50,91.50,0,1,0,100,90,-51259,13987,46957,2841.50,43,WP,1,0,0,0,0,0,0,1764444783585,4320,4322,4317,4328,4323,4328,18,,,,,,,0,0,0,-28.00,-15.00,915.00,0.00,-5.00,8.00,14,13.00,3.74,7.18,-2.00,1.00,-3.00,0,,,100,100,18,2,0,0,1,1,0,,,,,0.0,0.0,0.0,0.0,0.0,0.0,0
-22.959771,-67.786883,1.30,0.00,0.46,0.74,1.30,1.30,0.79,0.74,1908,2025-11-29 19:33:03.688,2025-11-29 16:33:03.688,16,0,0,46.957,-22.959767,-67.786889,-0.20,0.10,-0.40,2.90,-1.80,91.30,0,1,0,100,90,-51259,13987,46957,2841.50,43,WP,1,0,0,0,0,0,0,1764444783687,4320,4322,4317,4328,4323,4328,18,,,,,,,0,0,0,-29.00,-18.00,913.00,0.00,-5.00,12.00,14,13.00,4.58,7.43,-2.00,1.00,-4.00,0,,,100,100,18,2,0,0,1,1,0,,,,,0.0,0.0,0.0,0.0,0.0,0.0,0
-22.959772,-67.786883,1.30,0.00,0.63,0.77,1.30,1.30,0.79,0.77,2007,2025-11-29 19:33:03.787,2025-11-29 16:33:03.787,16,0,0,46.957,-22.959767,-67.786889,-0.20,0.00,-0.60,2.80,-2.80,91.40,0,1,0,100,90,-51259,13987,46957,2841.50,43,WP,1,0,0,0,0,0,0,1764444783786,4320,4322,4317,4328,4323,4328,18,,,,,,,0,0,0,-28.00,-28.00,914.00,0.00,-5.00,14.00,14,13.00,6.32,7.67,-2.00,0.00,-6.00,0,,,100,100,18,2,0,0,1,1,0,,,,,0.0,0.0,0.0,0.0,0.0,0.0,0
-22.959772,-67.786883,1.40,0.00,0.71,0.78,1.40,1.40,0.79,0.78,2109,2025-11-29 19:33:03.889,2025-11-29 16:33:03.889,16,0,0,46.957,-22.959767,-67.786889,-0.10,0.00,-0.70,2.90,-3.60,91.50,0,1,0,100,90,-51259,13987,46957,2841.50,43,WP,1,0,0,0,0,0,0,1764444783888,4320,4322,4317,4328,4323,4328,18,,,,,,,0,0,0,-29.00,-36.00,915.00,0.00,-6.00,14.00,14,14.00,7.07,7.84,-1.00,0.00,-7.00,0,,,100,100,18,2,0,0,1,1,0,,,,,0.0,0.0,0.0,0.0,0.0,0.0,0
-22.959772,-67.786883,1.50,0.00,0.91,0.80,1.50,1.50,0.91,0.80,2208,2025-11-29 19:33:03.988,2025-11-29 16:33:03.988,16,0,0,46.957,-22.959767,-67.786889,-0.10,0.00,-0.90,3.00,-3.90,91.70,0,1,0,100,90,-51259,13987,46957,2841.50,43,WP,1,0,0,0,0,0,0,1764444783987,4320,4322,4317,4328,4323,4328,18,,,,,,,0,0,0,-30.00,-39.00,917.00,0.00,-5.00,13.00,14,15.00,9.06,7.98,-1.00,0.00,-9.00,0,,,100,100,18,2,0,0,1,1,0,,,,,0.0,0.0,0.0,0.0,0.0,0.0,0
-22.959772,-67.786883,1.50,0.00,1.10,0.81,1.50,1.50,1.10,0.81,2316,2025-11-29 19:33:04.096,2025-11-29 16:33:04.096,16,0,0,44.604,-22.959767,-67.786889,0.00,0.00,-1.10,2.70,-3.50,91.80,0,1,0,100,90,-55164,13987,44604,2841.50,43,WP,1,0,0,0,0,0,0,1764444784095,4320,4322,4317,4328,4323,4328,18,,,,,,,0,0,0,-27.00,-35.00,918.00,0.00,-6.00,11.00,14,15.00,11.00,8.06,0.00,0.00,-11.00,0,,,100,100,18,2,0,0,1,1,0,,,,,0.0,0.0,0.0,0.0,0.0,0.0,0
-22.959772,-67.786883,1.70,0.00,1.30,0.80,1.70,1.70,1.30,0.81,2417,2025-11-29 19:33:04.196,2025-11-29 16:33:04.196,16,0,0,44.604,-22.959767,-67.786889,0.00,0.00,-1.30,2.20,-3.00,91.80,0,1,0,100,90,-55164,13987,44604,2841.50,43,WP,1,0,0,0,0,0,0,1764444784196,4320,4322,4317,4328,4323,4328,18,,,,,,,0,0,0,-22.00,-30.00,918.00,0.00,-5.00,10.00,14,17.00,13.00,8.02,0.00,0.00,-13.00,0,,,100,100,18,2,0,0,1,1,0,,,,,0.0,0.0,0.0,0.0,0.0,0.0,0
-22.959772,-67.786883,1.80,0.00,1.50,0.80,1.80,1.80,1.50,0.81,2424,2025-11-29 19:33:04.204,2025-11-29 16:33:04.204,16,0,0,44.604,-22.959767,-67.786889,0.00,0.00,-1.50,1.70,-2.00,91.70,0,1,0,100,90,-55164,13987,44604,2841.50,43,WP,1,0,0,0,0,0,0,1764444784203,4320,4322,4317,4328,4323,4328,18,,,,,,,0,0,0,-17.00,-20.00,917.00,0.00,-5.00,10.00,14,18.00,15.00,7.98,0.00,0.00,-15.00,0,,,100,100,18,2,0,0,1,1,0,,,,,0.0,0.0,0.0,0.0,0.0,0.0,0
-22.959772,-67.786883,2.00,0.00,1.60,0.80,2.00,2.00,1.60,0.81,2615,2025-11-29 19:33:04.394,2025-11-29 16:33:04.394,16,0,0,44.604,-22.959767,-67.786889,0.00,0.00,-1.60,1.00,-1.20,91.80,0,1,0,100,90,-55164,13987,44604,2841.50,43,WP,1,0,0,0,0,0,0,1764444784394,3685,3675,3679,3713,3662,3693,18,,,,,,,0,0,0,-10.00,-12.00,918.00,0.00,-5.00,10.00,14,20.00,16.00,7.96,0.00,0.00,-16.00,0,,,100,100,18,2,0,0,1,1,0,,,,,0.0,0.0,0.0,0.0,0.0,0.0,0
-22.959772,-67.786883,2.10,0.00,1.80,0.80,2.10,2.10,1.80,0.81,2714,2025-11-29 19:33:04.494,2025-11-29 16:33:04.494,16,0,0,44.604,-22.959767,-67.786889,0.00,0.00,-1.80,0.60,-0.90,91.70,0,1,0,100,90,-55164,13987,44604,2841.50,43,WP,1,0,0,0,0,0,0,1764444784493,3685,3675,3679,3713,3662,3693,18,,,,,,,0,0,0,-6.00,-9.00,917.00,0.00,-5.00,10.00,14,21.00,18.00,7.97,0.00,0.00,-18.00,0,,,100,100,18,2,0,0,1,1,0,,,,,0.0,0.0,0.0,0.0,0.0,0.0,0
-22.959772,-67.786883,2.30,0.00,2.00,0.80,2.30,2.30,2.00,0.81,2818,2025-11-29 19:33:04.597,2025-11-29 16:33:04.597,16,0,0,44.604,-22.959767,-67.786889,0.00,0.00,-2.00,0.60,-1.20,91.70,0,1,0,100,90,-55164,13987,44604,2841.50,43,WP,1,0,0,0,0,0,0,1764444784597,3685,3675,3679,3713,3662,3693,18,,,,,,,0,0,0,-6.00,-12.00,917.00,0.00,-5.00,10.00,14,23.00,20.00,8.02,0.00,0.00,-20.00,0,,,100,100,18,2,0,0,1,1,0,,,,,0.0,0.0,0.0,0.0,0.0,0.0,0
-22.959772,-67.786883,2.50,0.00,2.20,0.81,2.50,2.50,2.20,0.81,2913,2025-11-29 19:33:04.693,2025-11-29 16:33:04.693,16,0,0,44.604,-22.959767,-67.786889,0.00,0.10,-2.20,0.90,-1.30,91.70,0,1,0,100,90,-55164,13987,44604,2841.50,43,WP,1,0,0,0,0,0,0,1764444784692,3685,3675,3679,3713,3662,3693,18,,,,,,,0,0,0,-9.00,-13.00,917.00,0.00,-5.00,11.00,14,25.00,22.02,8.11,0.00,1.00,-22.00,0,,,100,100,18,2,0,0,1,1,0,,,,,0.0,0.0,0.0,0.0,0.0,0.0,0
-22.959772,-67.786883,2.70,0.00,2.30,0.82,2.70,2.70,2.30,0.82,3017,2025-11-29 19:33:04.797,2025-11-29 16:33:04.797,16,0,0,44.604,-22.959767,-67.786889,0.00,0.00,-2.30,1.60,-0.90,91.50,0,1,0,100,90,-55164,13987,44604,2841.50,43,WP,1,0,0,0,0,0,0,1764444784796,3685,3675,3679,3713,3662,3693,18,,,,,,,0,0,0,-16.00,-9.00,915.00,0.00,-5.00,11.00,14,27.00,23.00,8.19,0.00,0.00,-23.00,0,,,100,100,18,2,0,0,1,1,0,,,,,0.0,0.0,0.0,0.0,0.0,0.0,0
-22.959772,-67.786883,3.00,0.00,2.50,0.83,3.00,3.00,2.50,0.83,3025,2025-11-29 19:33:04.804,2025-11-29 16:33:04.804,16,0,0,44.604,-22.959767,-67.786889,-0.10,0.00,-2.50,2.80,-0.70,91.50,0,1,0,100,90,-55164,13987,44604,2841.50,43,WP,1,0,0,0,0,0,0,1764444784804,3685,3675,3679,3713,3662,3693,18,,,,,,,0,0,0,-28.00,-7.00,915.00,0.00,-5.00,12.00,14,30.00,25.02,8.31,-1.00,0.00,-25.00,0,,,100,100,18,2,0,0,1,1,0,,,,,0.0,0.0,0.0,0.0,0.0,0.0,0
-22.959772,-67.786883,3.20,0.00,2.70,0.85,3.20,3.20,2.70,0.85,3215,2025-11-29 19:33:04.995,2025-11-29 16:33:04.995,16,0,0,44.604,-22.959767,-67.786889,-0.10,0.00,-2.70,3.90,-1.20,91.80,0,1,0,100,90,-55164,13987,44604,2841.50,43,WP,1,0,0,0,0,0,0,1764444784994,3685,3675,3679,3713,3662,3693,18,,,,,,,0,0,0,-39.00,-12.00,918.00,0.00,-6.00,13.00,14,32.00,27.02,8.52,-1.00,0.00,-27.00,0,,,100,100,18,2,0,0,1,1,0,,,,,0.0,0.0,0.0,0.0,0.0,0.0,0
-22.959773,-67.786883,3.50,0.00,2.80,0.87,3.50,3.50,2.80,0.87,3332,2025-11-29 19:33:05.111,2025-11-29 16:33:05.111,16,0,0,44.604,-22.959767,-67.786889,-0.10,0.00,-2.80,4.20,-2.10,92.10,0,1,0,100,90,-55164,13987,44604,2841.50,43,WP,1,0,0,0,0,0,0,1764444785111,3685,3675,3679,3713,3662,3693,18,,,,,,,0,0,0,-42.00,-21.00,921.00,0.00,-5.00,10.00,14,35.00,28.02,8.69,-1.00,0.00,-28.00,0,,,100,100,18,2,0,0,1,1,0,,,,,0.0,0.0,0.0,0.0,0.0,0.0,0
-22.959773,-67.786883,3.80,0.00,2.80,0.88,3.80,3.80,2.80,0.88,3433,2025-11-29 19:33:05.212,2025-11-29 16:33:05.212,16,0,0,44.604,-22.959767,-67.786889,-0.10,0.00,-2.80,3.70,-3.00,92.10,0,1,0,100,90,-55164,13987,44604,2841.50,43,WP,1,0,0,0,0,0,0,1764444785212,3685,3675,3679,3713,3662,3693,18,,,,,,,0,0,0,-37.00,-30.00,921.00,0.00,-5.00,7.00,14,38.00,28.02,8.84,-1.00,0.00,-28.00,0,,,100,100,18,2,0,0,1,1,0,,,,,0.0,0.0,0.0,0.0,0.0,0.0,0
-22.959773,-67.786883,4.00,0.00,3.00,0.89,4.00,4.00,3.00,0.89,3518,2025-11-29 19:33:05.298,2025-11-29 16:33:05.298,16,0,0,44.604,-22.959767,-67.786889,-0.10,0.00,-3.00,1.60,-4.50,92.30,0,1,0,100,90,-55164,13987,44604,2841.50,43,WP,1,0,0,0,0,0,0,1764444785297,3685,3675,3679,3713,3662,3693,18,,,,,,,0,0,0,-16.00,-45.00,923.00,0.00,-5.00,7.00,14,40.00,30.02,8.94,-1.00,0.00,-30.00,0,,,100,100,18,2,0,0,1,1,0,,,,,0.0,0.0,0.0,0.0,0.0,0.0,0
-22.959773,-67.786883,4.30,0.00,3.10,0.90,4.30,4.30,3.10,0.90,3620,2025-11-29 19:33:05.400,2025-11-29 16:33:05.400,16,0,0,44.604,-22.959767,-67.786889,0.00,0.00,-3.10,-0.40,-5.70,92.50,0,1,0,100,90,-55164,13987,44604,2841.50,43,WP,1,0,0,0,0,0,0,1764444785399,3685,3675,3679,3713,3662,3693,18,,,,,,,0,0,0,4.00,-57.00,925.00,0.00,-5.00,5.00,14,43.00,31.00,9.02,0.00,0.00,-31.00,0,,,100,100,18,2,0,0,1,1,0,,,,,0.0,0.0,0.0,0.0,0.0,0.0,0
-22.959773,-67.786883,4.60,0.00,3.20,0.91,4.60,4.60,3.20,0.91,3720,2025-11-29 19:33:05.500,2025-11-29 16:33:05.500,16,0,0,44.604,-22.959767,-67.786889,0.00,0.10,-3.20,-1.00,-5.80,92.40,0,1,0,100,90,-55164,13987,44604,2841.50,43,WP,1,0,0,0,0,0,0,1764444785499,3685,3675,3679,3713,3662,3693,18,,,,,,,0,0,0,10.00,-58.00,924.00,0.00,-5.00,3.00,14,46.00,32.02,9.06,0.00,1.00,-32.00,0,,,100,99,18,2,0,0,1,1,0,,,,,0.0,0.0,0.0,0.0,0.0,0.0,0
-22.959773,-67.786882,4.90,0.00,3.31,0.92,4.90,4.90,3.31,0.92,3820,2025-11-29 19:33:05.600,2025-11-29 16:33:05.600,16,0,0,44.604,-22.959767,-67.786889,0.00,0.20,-3.30,-0.60,-4.70,92.40,0,1,0,100,90,-55164,13987,44604,2841.50,43,WP,1,0,0,0,0,0,0,1764444785599,3685,3675,3679,3713,3662,3693,18,,,,,,,0,0,0,6.00,-47.00,924.00,0.00,-5.00,3.00,14,49.00,33.06,9.19,0.00,2.00,-33.00,0,,,100,99,18,2,0,0,1,1,0,,,,,0.0,0.0,0.0,0.0,0.0,0.0,0
-22.959773,-67.786882,5.30,0.00,3.41,0.94,5.30,5.30,3.41,0.94,3833,2025-11-29 19:33:05.612,2025-11-29 16:33:05.613,16,0,0,44.604,-22.959767,-67.786889,0.00,0.30,-3.40,-0.10,-3.40,92.30,0,1,0,100,90,-55164,13987,44604,2841.50,43,WP,1,0,0,0,0,0,0,1764444785612,3685,3675,3679,3713,3662,3693,18,,,,,,,0,0,0,1.00,-34.00,923.00,0.00,-5.00,4.00,14,53.00,34.13,9.36,0.00,3.00,-34.00,0,,,100,99,18,2,0,0,1,1,0,,,,,0.0,0.0,0.0,0.0,0.0,0.0,0
-22.959773,-67.786882,5.60,0.00,3.52,0.96,5.60,5.60,3.52,0.96,4023,2025-11-29 19:33:05.803,2025-11-29 16:33:05.803,16,0,0,44.604,-22.959767,-67.786889,0.00,0.40,-3.50,1.20,-2.70,92.00,0,1,0,100,90,-55164,13987,44604,2841.50,43,WP,1,0,0,0,0,0,0,1764444785802,3685,3675,3679,3713,3662,3693,18,,,,,,,0,0,0,-12.00,-27.00,920.00,0.00,-5.00,4.00,14,56.00,35.23,9.58,0.00,4.00,-35.00,0,,,100,99,18,2,0,0,1,1,0,,,,,0.0,0.0,0.0,0.0,0.0,0.0,0
-22.959772,-67.786881,5.90,0.00,3.63,0.99,5.90,5.90,3.63,0.99,4133,2025-11-29 19:33:05.912,2025-11-29 16:33:05.912,16,0,0,44.604,-22.959767,-67.786889,0.00,0.50,-3.60,3.50,-2.20,91.60,0,1,0,100,90,-55164,13987,44604,2841.50,43,WP,1,0,0,0,0,0,0,1764444785912,3685,3675,3679,3713,3662,3693,18,,,,,,,0,0,0,-35.00,-22.00,916.00,0.00,-5.00,6.00,14,59.00,36.35,9.94,0.00,5.00,-36.00,0,,,100,99,18,2,0,0,1,1,0,,,,,0.0,0.0,0.0,0.0,0.0,0.0,0
-22.959772,-67.786880,6.30,0.00,3.73,1.05,6.30,6.30,3.73,1.05,4140,2025-11-29 19:33:05.919,2025-11-29 16:33:05.919,16,0,0,44.604,-22.959767,-67.786889,0.00,0.50,-3.70,6.30,-2.10,91.50,0,1,0,100,90,-55164,13987,44604,2841.50,43,WP,1,0,0,0,0,0,0,1764444785919,3685,3675,3679,3713,3662,3693,18,,,,,,,0,0,0,-63.00,-21.00,915.00,0.00,-5.00,11.00,14,63.00,37.34,10.47,0.00,5.00,-37.00,0,,,100,99,18,2,0,0,1,1,0,,,,,0.0,0.0,0.0,0.0,0.0,0.0,0
-22.959772,-67.786880,6.70,0.00,3.72,1.10,6.70,6.70,3.73,1.10,4223,2025-11-29 19:33:06.002,2025-11-29 16:33:06.002,16,0,0,44.604,-22.959767,-67.786889,0.00,0.40,-3.70,8.40,-2.20,91.60,0,1,0,100,90,-55164,13987,44604,2841.50,43,WP,1,0,0,0,0,0,0,1764444786002,3685,3675,3679,3713,3662,3693,18,,,,,,,0,0,0,-84.00,-22.00,916.00,0.00,-5.00,13.00,14,67.00,37.22,10.96,0.00,4.00,-37.00,0,,,100,99,18,2,0,0,1,1,0,,,,,0.0,0.0,0.0,0.0,0.0,0.0,0
-22.959772,-67.786879,7.00,0.00,3.72,1.15,7.00,7.00,3.73,1.15,4431,2025-11-29 19:33:06.211,2025-11-29 16:33:06.211,16,0,0,44.177,-22.959767,-67.786889,-0.10,0.40,-3.70,8.90,-2.50,91.50,0,1,0,99,90,-73980,13891,44177,2841.50,43,WP,1,0,0,0,0,0,0,1764444786210,3685,3675,3679,3713,3662,3693,18,,,,,,,0,0,0,-89.00,-25.00,915.00,0.00,-6.00,12.00,14,70.00,37.23,11.50,-1.00,4.00,-37.00,0,,,100,99,18,2,0,0,1,1,0,,,,,0.0,0.0,0.0,0.0,0.0,0.0,0
-22.959772,-67.786879,7.40,0.00,3.81,1.20,7.40,7.40,3.81,1.20,4437,2025-11-29 19:33:06.217,2025-11-29 16:33:06.217,16,0,0,44.177,-22.959767,-67.786889,0.00,0.30,-3.80,8.40,-2.80,91.60,0,1,0,99,90,-73980,13891,44177,2841.50,43,WP,1,0,0,0,0,0,0,1764444786216,3685,3675,3679,3713,3662,3693,18,,,,,,,0,0,0,-84.00,-28.00,916.00,0.00,-6.00,12.00,14,74.00,38.12,11.98,0.00,3.00,-38.00,0,,,100,99,18,2,0,0,1,1,0,,,,,0.0,0.0,0.0,0.0,0.0,0.0,0
-22.959772,-67.786878,7.80,0.00,3.91,1.24,7.80,7.80,3.91,1.24,4534,2025-11-29 19:33:06.313,2025-11-29 16:33:06.313,16,0,0,44.177,-22.959767,-67.786889,0.00,0.20,-3.90,7.40,-3.10,91.60,0,1,0,99,90,-73980,13891,44177,2841.50,43,WP,1,0,0,0,0,0,0,1764444786313,3685,3675,3679,3713,3662,3693,18,,,,,,,0,0,0,-74.00,-31.00,916.00,0.00,-6.00,13.00,14,78.00,39.05,12.36,0.00,2.00,-39.00,0,,,100,99,18,2,0,0,1,1,0,,,,,0.0,0.0,0.0,0.0,0.0,0.0,0
-22.959772,-67.786878,8.20,0.00,3.91,1.27,8.20,8.20,3.91,1.27,4731,2025-11-29 19:33:06.511,2025-11-29 16:33:06.511,16,0,0,44.177,-22.959767,-67.786889,-0.10,0.20,-3.90,6.50,-3.80,91.70,0,1,0,99,90,-73980,13891,44177,2841.50,43,WP,1,0,0,0,0,0,0,1764444786510,3685,3675,3679,3713,3662,3693,18,,,,,,,0,0,0,-65.00,-38.00,917.00,0.00,-6.00,12.00,14,82.00,39.06,12.68,-1.00,2.00,-39.00,0,,,100,99,18,2,0,0,1,1,0,,,,,0.0,0.0,0.0,0.0,0.0,0.0,0
-22.959773,-67.786878,8.60,0.00,3.71,1.30,8.60,8.60,3.91,1.30,4834,2025-11-29 19:33:06.613,2025-11-29 16:33:06.613,16,0,0,44.177,-22.959767,-67.786889,-0.10,0.20,-3.70,5.70,-4.40,91.70,0,1,0,99,90,-73980,13891,44177,2841.50,43,WP,1,0,0,0,0,0,0,1764444786613,3685,3675,3679,3713,3662,3693,18,,,,,,,0,0,0,-57.00,-44.00,917.00,0.00,-6.00,11.00,14,86.00,37.07,12.98,-1.00,2.00,-37.00,0,,,100,98,18,2,0,0,1,1,0,,,,,0.0,0.0,0.0,0.0,0.0,0.0,0
-22.959773,-67.786877,8.90,0.00,3.51,1.33,8.90,8.90,3.91,1.33,4841,2025-11-29 19:33:06.620,2025-11-29 16:33:06.620,16,0,0,44.177,-22.959767,-67.786889,-0.10,0.20,-3.50,5.30,-4.70,91.70,0,1,0,99,90,-73980,13891,44177,2841.50,43,WP,1,0,0,0,0,0,0,1764444786620,3685,3675,3679,3713,3662,3693,18,,,,,,,0,0,0,-53.00,-47.00,917.00,0.00,-5.00,11.00,14,89.00,35.07,13.32,-1.00,2.00,-35.00,0,,,100,98,18,2,0,0,1,1,0,,,,,0.0,0.0,0.0,0.0,0.0,0.0,0
-22.959773,-67.786877,9.30,0.00,3.51,1.36,9.30,9.30,3.91,1.36,4934,2025-11-29 19:33:06.714,2025-11-29 16:33:06.714,16,0,0,44.177,-22.959767,-67.786889,-0.20,0.20,-3.50,5.80,-4.80,91.70,0,1,0,99,90,-73980,13891,44177,2841.50,43,WP,1,0,0,0,0,0,0,1764444786713,3685,3675,3679,3713,3662,3693,18,,,,,,,0,0,0,-58.00,-48.00,917.00,0.00,-5.00,11.00,14,93.00,35.11,13.62,-2.00,2.00,-35.00,0,,,100,98,18,2,0,0,1,1,0,,,,,0.0,0.0,0.0,0.0,0.0,0.0,0
-22.959773,-67.786877,9.60,0.00,3.32,1.40,9.60,9.60,3.91,1.40,5033,2025-11-29 19:33:06.813,2025-11-29 16:33:06.813,16,0,0,44.177,-22.959767,-67.786889,-0.10,0.30,-3.30,6.80,-4.90,91.60,0,1,0,99,90,-73980,13891,44177,2841.50,43,WP,1,0,0,0,0,0,0,1764444786812,3685,3675,3679,3713,3662,3693,18,,,,,,,0,0,0,-68.00,-49.00,916.00,0.00,-6.00,11.00,14,96.00,33.15,13.96,-1.00,3.00,-33.00,0,,,100,98,18,2,0,0,1,1,0,,,,,0.0,0.0,0.0,0.0,0.0,0.0,0
-22.959773,-67.786877,9.90,0.00,3.32,1.43,9.90,9.90,3.91,1.43,5129,2025-11-29 19:33:06.908,2025-11-29 16:33:06.908,16,0,0,44.177,-22.959767,-67.786889,-0.10,0.30,-3.30,7.70,-5.00,91.60,0,1,0,99,90,-73980,13891,44177,2841.50,43,WP,1,0,0,0,0,0,0,1764444786908,3685,3675,3679,3713,3662,3693,18,,,,,,,0,0,0,-77.00,-50.00,916.00,0.00,-5.00,12.00,14,99.00,33.15,14.32,-1.00,3.00,-33.00,0,,,100,98,18,2,0,0,1,1,0,,,,,0.0,0.0,0.0,0.0,0.0,0.0,0
-22.959773,-67.786876,10.20,0.00,3.31,1.47,10.20,10.20,3.91,1.47,5332,2025-11-29 19:33:07.111,2025-11-29 16:33:07.111,16,0,0,44.177,-22.959767,-67.786889,0.00,0.20,-3.30,8.40,-5.10,91.50,0,1,0,99,90,-73980,13891,44177,2841.50,43,WP,1,0,0,0,0,0,0,1764444787111,3685,3675,3679,3713,3662,3693,18,,,,,,,0,0,0,-84.00,-51.00,915.00,0.00,-5.00,12.00,14,102.00,33.06,14.66,0.00,2.00,-33.00,0,,,100,99,18,2,0,0,1,1,0,,,,,0.0,0.0,0.0,0.0,0.0,0.0,0
-22.959773,-67.786876,10.90,0.00,3.41,1.51,10.90,10.90,3.91,1.51,5450,2025-11-29 19:33:07.229,2025-11-29 16:33:07.230,16,0,0,44.177,-22.959767,-67.786889,0.00,0.20,-3.40,9.50,-4.00,91.20,0,1,0,99,90,-73980,13891,44177,2841.50,43,WP,1,0,0,0,0,0,0,1764444787229,3685,3675,3679,3713,3662,3693,18,,,,,,,0,0,0,-95.00,-40.00,912.00,0.00,-5.00,12.00,14,109.00,34.06,15.11,0.00,2.00,-34.00,0,,,100,99,18,2,0,0,1,1,0,,,,,0.0,0.0,0.0,0.0,0.0,0.0,0
-22.959773,-67.786876,11.30,0.00,3.41,1.52,11.30,11.30,3.91,1.52,5536,2025-11-29 19:33:07.316,2025-11-29 16:33:07.316,16,0,0,44.177,-22.959767,-67.786889,0.10,0.20,-3.40,10.30,-3.00,91.10,0,1,0,99,90,-73980,13891,44177,2841.50,43,WP,1,0,0,0,0,0,0,1764444787315,3685,3675,3679,3713,3662,3693,18,,,,,,,0,0,0,-103.00,-30.00,911.00,0.00,-5.00,16.00,14,113.00,34.07,15.23,1.00,2.00,-34.00,0,,,100,99,18,2,0,0,1,1,0,,,,,0.0,0.0,0.0,0.0,0.0,0.0,0
-22.959773,-67.786875,11.70,0.00,3.50,1.53,11.70,11.70,3.91,1.53,5634,2025-11-29 19:33:07.413,2025-11-29 16:33:07.414,16,0,0,44.177,-22.959767,-67.786889,0.00,0.10,-3.50,10.80,-2.10,91.20,0,1,0,99,90,-73980,13891,44177,2841.50,43,WP,1,0,0,0,0,0,0,1764444787413,3685,3675,3679,3713,3662,3693,18,,,,,,,0,0,0,-108.00,-21.00,912.00,0.00,-5.00,16.00,14,117.00,35.01,15.33,0.00,1.00,-35.00,0,,,100,99,18,2,0,0,1,1,0,,,,,0.0,0.0,0.0,0.0,0.0,0.0,0
-22.959773,-67.786875,12.00,0.00,3.50,1.53,12.00,12.00,3.91,1.53,5835,2025-11-29 19:33:07.615,2025-11-29 16:33:07.615,16,0,0,44.177,-22.959767,-67.786889,0.00,0.00,-3.50,10.70,-1.90,91.30,0,1,0,99,90,-73980,13891,44177,2841.50,43,WP,1,0,0,0,0,0,0,1764444787614,3685,3675,3679,3713,3662,3693,18,,,,,,,0,0,0,-107.00,-19.00,913.00,0.00,-6.00,16.00,14,120.00,35.00,15.29,0.00,0.00,-35.00,0,,,100,99,18,2,0,0,1,1,0,,,,,0.0,0.0,0.0,0.0,0.0,0.0,0
-22.959773,-67.786875,12.40,0.00,3.40,1.52,12.40,12.40,3.91,1.53,5842,2025-11-29 19:33:07.621,2025-11-29 16:33:07.621,16,0,0,44.177,-22.959767,-67.786889,0.00,0.00,-3.40,10.10,-2.40,91.30,0,1,0,99,90,-73980,13891,44177,2841.50,43,WP,1,0,0,0,0,0,0,1764444787621,3685,3675,3679,3713,3662,3693,18,,,,,,,0,0,0,-101.00,-24.00,913.00,0.00,-5.00,14.00,14,124.00,34.00,15.20,0.00,0.00,-34.00,0,,,100,99,18,2,0,0,1,1,0,,,,,0.0,0.0,0.0,0.0,0.0,0.0,0
-22.959773,-67.786876,12.70,0.00,3.30,1.50,12.70,12.70,3.91,1.53,5940,2025-11-29 19:33:07.719,2025-11-29 16:33:07.719,16,0,0,44.177,-22.959767,-67.786889,0.00,-0.10,-3.30,9.50,-3.30,91.30,0,1,0,99,90,-73980,13891,44177,2841.50,43,WP,1,0,0,0,0,0,0,1764444787719,3685,3675,3679,3713,3662,3693,18,,,,,,,0,0,0,-95.00,-33.00,913.00,0.00,-6.00,15.00,14,127.00,33.02,15.00,0.00,-1.00,-33.00,0,,,100,99,18,2,0,0,1,1,0,,,,,0.0,0.0,0.0,0.0,0.0,0.0,0
-22.959773,-67.786876,13.10,0.00,3.21,1.48,13.10,13.10,3.91,1.53,6036,2025-11-29 19:33:07.816,2025-11-29 16:33:07.816,16,0,0,44.177,-22.959767,-67.786889,-0.20,-0.10,-3.20,8.80,-4.10,91.40,0,1,0,99,90,-73980,13891,44177,2841.50,43,WP,1,0,0,0,0,0,0,1764444787815,3685,3675,3679,3713,3662,3693,18,,,,,,,0,0,0,-88.00,-41.00,914.00,0.00,-6.00,14.00,14,131.00,32.08,14.81,-2.00,-1.00,-32.00,0,,,100,99,18,2,0,0,1,1,0,,,,,0.0,0.0,0.0,0.0,0.0,0.0,0
-22.959774,-67.786876,13.40,0.00,3.21,1.46,13.40,13.40,3.91,1.53,6140,2025-11-29 19:33:07.919,2025-11-29 16:33:07.919,16,0,0,44.177,-22.959767,-67.786889,-0.20,-0.20,-3.20,8.00,-5.30,91.40,0,1,0,99,90,-73980,13891,44177,2841.50,43,WP,1,0,0,0,0,0,0,1764444787919,3685,3675,3679,3713,3662,3693,18,,,,,,,0,0,0,-80.00,-53.00,914.00,0.00,-6.00,14.00,14,134.00,32.12,14.62,-2.00,-2.00,-32.00,0,,,100,99,18,2,0,0,1,1,0,,,,,0.0,0.0,0.0,0.0,0.0,0.0,0
-22.959774,-67.786877,13.70,0.00,3.32,1.44,13.70,13.70,3.91,1.53,6242,2025-11-29 19:33:08.021,2025-11-29 16:33:08.021,16,0,0,44.177,-22.959767,-67.786889,-0.10,-0.30,-3.30,7.00,-6.30,91.50,0,1,0,99,90,-73980,13891,44177,2841.50,43,WP,1,0,0,0,0,0,0,1764444788021,3685,3675,3679,3713,3662,3693,18,,,,,,,0,0,0,-70.00,-63.00,915.00,0.00,-5.00,14.00,14,137.00,33.15,14.39,-1.00,-3.00,-33.00,0,,,100,99,18,2,0,0,1,1,0,,,,,0.0,0.0,0.0,0.0,0.0,0.0,0
-22.959774,-67.786878,14.50,0.00,3.31,1.38,14.50,14.50,3.91,1.53,6441,2025-11-29 19:33:08.221,2025-11-29 16:33:08.221,16,0,0,42.072,-22.959767,-67.786889,0.00,-0.20,-3.30,5.70,-7.40,91.60,0,1,0,97,90,-70813,13705,42072,2841.50,43,WP,1,0,0,0,0,0,0,1764444788220,3685,3675,3679,3713,3662,3693,18,,,,,,,0,0,0,-57.00,-74.00,916.00,0.00,-5.00,13.00,14,145.00,33.06,13.84,0.00,-2.00,-33.00,0,,,100,100,18,2,0,0,1,1,0,,,,,0.0,0.0,0.0,0.0,0.0,0.0,0
-22.959774,-67.786878,14.80,0.00,3.31,1.35,14.80,14.80,3.91,1.53,6550,2025-11-29 19:33:08.329,2025-11-29 16:33:08.329,16,0,0,42.072,-22.959767,-67.786889,0.00,-0.20,-3.30,5.80,-6.60,91.70,0,1,0,97,90,-70813,13705,42072,2841.50,43,WP,1,0,0,0,0,0,0,1764444788329,3685,3675,3679,3713,3662,3693,18,,,,,,,0,0,0,-58.00,-66.00,917.00,0.00,-5.00,11.00,14,148.00,33.06,13.50,0.00,-2.00,-33.00,0,,,100,100,18,2,0,0,1,1,0,,,,,0.0,0.0,0.0,0.0,0.0,0.0,0
-22.959774,-67.786879,15.20,0.00,3.31,1.31,15.20,15.20,3.91,1.53,6651,2025-11-29 19:33:08.430,2025-11-29 16:33:08.430,16,0,0,42.072,-22.959767,-67.786889,0.10,-0.20,-3.30,6.20,-5.40,91.60,0,1,0,97,90,-70813,13705,42072,2841.50,43,WP,1,0,0,0,0,0,0,1764444788430,3685,3675,3679,3713,3662,3693,18,,,,,,,0,0,0,-62.00,-54.00,916.00,0.00,-5.00,10.00,14,152.00,33.08,13.11,1.00,-2.00,-33.00,0,,,100,100,18,2,0,0,1,1,0,,,,,0.0,0.0,0.0,0.0,0.0,0.0,0
-22.959774,-67.786879,15.50,0.00,3.10,1.28,15.50,15.50,3.91,1.53,6747,2025-11-29 19:33:08.526,2025-11-29 16:33:08.527,16,0,0,42.072,-22.959767,-67.786889,0.10,-0.10,-3.10,6.80,-3.90,91.50,0,1,0,97,90,-70813,13705,42072,2841.50,43,WP,1,0,0,0,0,0,0,1764444788526,3685,3675,3679,3713,3662,3693,18,,,,,,,0,0,0,-68.00,-39.00,915.00,0.00,-5.00,11.00,14,155.00,31.03,12.78,1.00,-1.00,-31.00,0,,,100,100,18,2,0,0,1,1,0,,,,,0.0,0.0,0.0,0.0,0.0,0.0,0
-22.959774,-67.786879,15.80,0.00,3.10,1.25,15.80,15.80,3.91,1.53,6851,2025-11-29 19:33:08.630,2025-11-29 16:33:08.630,16,0,0,42.072,-22.959767,-67.786889,0.00,0.00,-3.10,7.40,-3.20,91.50,0,1,0,97,90,-70813,13705,42072,2841.50,43,WP,1,0,0,0,0,0,0,1764444788630,3685,3675,3679,3713,3662,3693,18,,,,,,,0,0,0,-74.00,-32.00,915.00,0.00,-5.00,12.00,14,158.00,31.00,12.54,0.00,0.00,-31.00,0,,,100,100,18,2,0,0,1,1,0,,,,,0.0,0.0,0.0,0.0,0.0,0.0,0
-22.959774,-67.786879,16.20,0.00,3.10,1.25,16.20,16.20,3.91,1.53,6943,2025-11-29 19:33:08.722,2025-11-29 16:33:08.722,16,0,0,42.072,-22.959767,-67.786889,0.00,0.00,-3.10,8.60,-3.40,91.40,0,1,0,97,90,-70813,13705,42072,2841.50,43,WP,1,0,0,0,0,0,0,1764444788722,3685,3675,3679,3713,3662,3693,18,,,,,,,0,0,0,-86.00,-34.00,914.00,0.00,-6.00,12.00,14,162.00,31.00,12.52,0.00,0.00,-31.00,0,,,100,99,18,2,0,0,1,1,0,,,,,0.0,0.0,0.0,0.0,0.0,0.0,0
-22.959774,-67.786880,16.50,0.00,2.90,1.25,16.50,16.50,3.91,1.53,7048,2025-11-29 19:33:08.827,2025-11-29 16:33:08.827,16,0,0,42.072,-22.959767,-67.786889,0.00,-0.10,-2.90,9.80,-4.80,91.20,0,1,0,97,90,-70813,13705,42072,2841.50,43,WP,1,0,0,0,0,0,0,1764444788827,3685,3675,3679,3713,3662,3693,18,,,,,,,0,0,0,-98.00,-48.00,912.00,0.00,-5.00,13.00,14,165.00,29.02,12.46,0.00,-1.00,-29.00,0,,,100,99,18,2,0,0,1,1,0,,,,,0.0,0.0,0.0,0.0,0.0,0.0,0
-22.959775,-67.786880,16.70,0.00,2.60,1.26,16.70,16.70,3.91,1.53,7150,2025-11-29 19:33:08.930,2025-11-29 16:33:08.930,16,0,0,42.072,-22.959767,-67.786889,-0.10,-0.10,-2.60,10.70,-6.20,91.00,0,1,0,97,90,-70813,13705,42072,2841.50,43,WP,1,0,0,0,0,0,0,1764444788929,3685,3675,3679,3713,3662,3693,18,,,,,,,0,0,0,-107.00,-62.00,910.00,0.00,-6.00,15.00,14,167.00,26.04,12.60,-1.00,-1.00,-26.00,0,,,100,99,18,2,0,0,1,1,0,,,,,0.0,0.0,0.0,0.0,0.0,0.0,0
-22.959775,-67.786880,17.00,0.00,2.41,1.26,17.00,17.00,3.91,1.53,7247,2025-11-29 19:33:09.027,2025-11-29 16:33:09.027,16,0,0,42.072,-22.959767,-67.786889,-0.10,-0.20,-2.40,11.00,-8.10,90.90,0,1,0,97,90,-70813,13705,42072,2841.50,43,WP,1,0,0,0,0,0,0,1764444789026,3685,3675,3679,3713,3662,3693,18,,,,,,,0,0,0,-110.00,-81.00,909.00,0.00,-6.00,16.00,14,170.00,24.10,12.63,-1.00,-2.00,-24.00,0,,,100,99,18,2,0,0,1,1,0,,,,,0.0,0.0,0.0,0.0,0.0,0.0,0
-22.959776,-67.786880,17.20,0.00,2.12,1.28,17.20,17.20,3.91,1.53,7351,2025-11-29 19:33:09.130,2025-11-29 16:33:09.130,16,0,0,42.072,-22.959767,-67.786889,-0.20,-0.20,-2.10,10.80,-9.60,90.80,0,1,0,97,90,-70813,13705,42072,2841.50,43,WP,1,0,0,0,0,0,0,1764444789130,3685,3675,3679,3713,3662,3693,18,,,,,,,0,0,0,-108.00,-96.00,908.00,0.00,-5.00,18.00,14,172.00,21.19,12.75,-2.00,-2.00,-21.00,0,,,100,99,18,2,0,0,1,1,0,,,,,0.0,0.0,0.0,0.0,0.0,0.0,0
-22.959776,-67.786881,17.40,0.00,1.82,1.28,17.40,17.40,3.91,1.53,7452,2025-11-29 19:33:09.231,2025-11-29 16:33:09.231,16,0,0,42.072,-22.959767,-67.786889,-0.20,-0.20,-1.80,10.20,-11.20,90.70,0,1,0,97,90,-70813,13705,42072,2841.50,43,WP,1,0,0,0,0,0,0,1764444789231,3685,3675,3679,3713,3662,3693,18,,,,,,,0,0,0,-102.00,-112.00,907.00,0.00,-6.00,19.00,14,174.00,18.22,12.81,-2.00,-2.00,-18.00,0,,,100,97,18,2,0,0,1,1,0,,,,,0.0,0.0,0.0,0.0,0.0,0.0,0
-22.959776,-67.786881,17.60,0.00,1.64,1.29,17.60,17.60,3.91,1.53,7552,2025-11-29 19:33:09.331,2025-11-29 16:33:09.331,16,0,0,42.072,-22.959767,-67.786889,-0.20,-0.30,-1.60,9.10,-12.40,90.80,0,1,0,97,90,-70813,13705,42072,2841.50,43,WP,1,0,0,0,0,0,0,1764444789331,3685,3675,3679,3713,3662,3693,18,,,,,,,0,0,0,-91.00,-124.00,908.00,0.00,-5.00,20.00,14,176.00,16.40,12.94,-2.00,-3.00,-16.00,0,,,100,97,18,2,0,0,1,1,0,,,,,0.0,0.0,0.0,0.0,0.0,0.0,0
-22.959777,-67.786882,17.70,0.00,1.44,1.29,17.70,17.70,3.91,1.53,7650,2025-11-29 19:33:09.430,2025-11-29 16:33:09.430,16,0,0,42.072,-22.959767,-67.786889,-0.10,-0.30,-1.40,7.80,-13.00,90.90,0,1,0,97,90,-70813,13705,42072,2841.50,43,WP,1,0,0,0,0,0,0,1764444789429,3685,3675,3679,3713,3662,3693,18,,,,,,,0,0,0,-78.00,-130.00,909.00,0.00,-5.00,20.00,14,177.00,14.35,12.94,-1.00,-3.00,-14.00,0,,,100,97,18,2,0,0,1,1,0,,,,,0.0,0.0,0.0,0.0,0.0,0.0,0
-22.959777,-67.786882,17.90,0.00,1.36,1.28,17.90,17.90,3.91,1.53,7750,2025-11-29 19:33:09.530,2025-11-29 16:33:09.530,16,0,0,42.072,-22.959767,-67.786889,0.00,-0.40,-1.30,6.60,-12.90,91.10,0,1,0,97,90,-70813,13705,42072,2841.50,43,WP,1,0,0,0,0,0,0,1764444789529,3685,3675,3679,3713,3662,3693,18,,,,,,,0,0,0,-66.00,-129.00,911.00,0.00,-5.00,19.00,14,179.00,13.60,12.76,0.00,-4.00,-13.00,0,,,100,97,18,2,0,0,1,1,0,,,,,0.0,0.0,0.0,0.0,0.0,0.0,0
-22.959777,-67.786883,18.00,0.00,1.17,1.26,18.00,18.00,3.91,1.53,7855,2025-11-29 19:33:09.635,2025-11-29 16:33:09.635,16,0,0,42.072,-22.959767,-67.786889,0.00,-0.40,-1.10,5.50,-12.60,91.20,0,1,0,97,90,-70813,13705,42072,2841.50,43,WP,1,0,0,0,0,0,0,1764444789634,3685,3675,3679,3713,3662,3693,18,,,,,,,0,0,0,-55.00,-126.00,912.00,0.00,-5.00,16.00,14,180.00,11.70,12.55,0.00,-4.00,-11.00,0,,,100,97,18,2,0,0,1,1,0,,,,,0.0,0.0,0.0,0.0,0.0,0.0,0
-22.959777,-67.786884,18.20,0.00,1.17,1.22,18.20,18.20,3.91,1.53,7952,2025-11-29 19:33:09.732,2025-11-29 16:33:09.732,16,0,0,42.072,-22.959767,-67.786889,0.10,-0.40,-1.10,4.30,-12.00,91.40,0,1,0,97,90,-70813,13705,42072,2841.50,43,WP,1,0,0,0,0,0,0,1764444789731,3685,3675,3679,3713,3662,3693,18,,,,,,,0,0,0,-43.00,-120.00,914.00,0.00,-5.00,15.00,14,182.00,11.75,12.16,1.00,-4.00,-11.00,0,,,100,97,18,2,0,0,1,1,0,,,,,0.0,0.0,0.0,0.0,0.0,0.0,0
-22.959777,-67.786884,18.30,0.00,1.16,1.17,18.30,18.30,3.91,1.53,8054,2025-11-29 19:33:09.833,2025-11-29 16:33:09.833,16,0,0,42.072,-22.959767,-67.786889,0.20,-0.30,-1.10,2.90,-11.20,91.60,0,1,0,97,90,-70813,13705,42072,2841.50,43,WP,1,0,0,0,0,0,0,1764444789833,3685,3675,3679,3713,3662,3693,18,,,,,,,0,0,0,-29.00,-112.00,916.00,0.00,-5.00,14.00,14,183.00,11.58,11.74,2.00,-3.00,-11.00,0,,,100,97,18,2,0,0,1,1,0,,,,,0.0,0.0,0.0,0.0,0.0,0.0,0
-22.959776,-67.786885,18.40,0.00,1.21,1.10,18.40,18.40,3.91,1.53,8152,2025-11-29 19:33:09.932,2025-11-29 16:33:09.932,16,0,0,42.072,-22.959767,-67.786889,0.40,-0.30,-1.10,2.20,-10.50,91.80,0,1,0,97,90,-70813,13705,42072,2841.50,43,WP,1,0,0,0,0,0,0,1764444789931,3685,3675,3679,3713,3662,3693,18,,,,,,,0,0,0,-22.00,-105.00,918.00,0.00,-6.00,12.00,14,184.00,12.08,11.02,4.00,-3.00,-11.00,0,,,100,97,18,2,0,0,1,1,0,,,,,0.0,0.0,0.0,0.0,0.0,0.0,0
-22.959776,-67.786885,18.60,0.00,1.32,1.03,18.60,18.60,3.91,1.53,8257,2025-11-29 19:33:10.036,2025-11-29 16:33:10.036,16,0,0,42.072,-22.959767,-67.786889,0.50,-0.20,-1.20,1.90,-9.40,91.90,0,1,0,97,90,-70813,13705,42072,2841.50,43,WP,1,0,0,0,0,0,0,1764444790036,3685,3675,3679,3713,3662,3693,18,,,,,,,0,0,0,-19.00,-94.00,919.00,0.00,-6.00,10.00,14,186.00,13.15,10.29,5.00,-2.00,-12.00,0,,,100,97,18,2,0,0,1,1,0,,,,,0.0,0.0,0.0,0.0,0.0,0.0,0
-22.959774,-67.786885,19.00,0.00,1.48,0.85,19.00,19.00,3.91,1.53,8456,2025-11-29 19:33:10.236,2025-11-29 16:33:10.236,16,0,0,42.072,-22.959767,-67.786889,0.70,0.00,-1.30,3.20,-6.40,91.80,0,1,0,97,90,-70813,13705,42072,2841.50,43,WP,1,0,0,0,0,0,0,1764444790235,3685,3675,3679,3713,3662,3693,18,,,,,,,0,0,0,-32.00,-64.00,918.00,0.00,-6.00,9.00,14,190.00,14.76,8.50,7.00,0.00,-13.00,0,,,100,97,18,2,0,0,1,1,0,,,,,0.0,0.0,0.0,0.0,0.0,0.0,0
-22.959773,-67.786885,19.10,0.00,1.48,0.75,19.10,19.10,3.91,1.53,8557,2025-11-29 19:33:10.337,2025-11-29 16:33:10.337,16,0,0,42.072,-22.959767,-67.786889,0.70,0.00,-1.30,4.50,-4.90,91.80,0,1,0,97,90,-70813,13705,42072,2841.50,43,WP,1,0,0,0,0,0,0,1764444790336,3685,3675,3679,3713,3662,3693,18,,,,,,,0,0,0,-45.00,-49.00,918.00,0.00,-5.00,9.00,14,191.00,14.76,7.52,7.00,0.00,-13.00,0,,,100,97,18,2,0,0,1,1,0,,,,,0.0,0.0,0.0,0.0,0.0,0.0,0
-22.959772,-67.786885,19.30,0.00,1.30,0.67,19.30,19.30,3.91,1.53,8654,2025-11-29 19:33:10.434,2025-11-29 16:33:10.434,16,0,0,42.072,-22.959767,-67.786889,0.70,0.00,-1.10,5.90,-3.50,91.70,0,1,0,97,90,-70813,13705,42072,2841.50,43,WP,1,0,0,0,0,0,0,1764444790433,3685,3675,3679,3713,3662,3693,18,,,,,,,0,0,0,-59.00,-35.00,917.00,0.00,-5.00,10.00,14,193.00,13.04,6.73,7.00,0.00,-11.00,0,,,100,97,18,2,0,0,1,1,0,,,,,0.0,0.0,0.0,0.0,0.0,0.0,0
-22.959771,-67.786885,19.40,0.00,1.28,0.60,19.40,19.40,3.91,1.53,8766,2025-11-29 19:33:10.546,2025-11-29 16:33:10.546,16,0,0,42.072,-22.959767,-67.786889,0.80,0.00,-1.00,6.70,-2.30,91.80,0,1,0,97,90,-70813,13705,42072,2841.50,43,WP,1,0,0,0,0,0,0,1764444790545,3685,3675,3679,3713,3662,3693,18,,,,,,,0,0,0,-67.00,-23.00,918.00,0.00,-5.00,10.00,14,194.00,12.81,5.97,8.00,0.00,-10.00,0,,,100,97,18,2,0,0,1,1,0,,,,,0.0,0.0,0.0,0.0,0.0,0.0,0
-22.959770,-67.786885,19.50,0.00,1.13,0.54,19.50,19.50,3.91,1.53,8862,2025-11-29 19:33:10.642,2025-11-29 16:33:10.642,16,0,0,42.072,-22.959767,-67.786889,0.80,0.00,-0.80,6.80,-1.50,91.90,0,1,0,97,90,-70813,13705,42072,2841.50,43,WP,1,0,0,0,0,0,0,1764444790641,3685,3675,3679,3713,3662,3693,18,,,,,,,0,0,0,-68.00,-15.00,919.00,0.00,-5.00,10.00,14,195.00,11.31,5.39,8.00,0.00,-8.00,0,,,100,97,18,2,0,0,1,1,0,,,,,0.0,0.0,0.0,0.0,0.0,0.0,0
-22.959770,-67.786885,19.50,0.00,0.86,0.49,19.50,19.50,3.91,1.53,8963,2025-11-29 19:33:10.743,2025-11-29 16:33:10.743,16,0,0,42.072,-22.959767,-67.786889,0.70,0.00,-0.50,6.70,-0.40,91.90,0,1,0,97,90,-70813,13705,42072,2841.50,43,WP,1,0,0,0,0,0,0,1764444790742,3685,3675,3679,3713,3662,3693,18,,,,,,,0,0,0,-67.00,-4.00,919.00,0.00,-5.00,9.00,14,195.00,8.60,4.91,7.00,0.00,-5.00,0,,,100,97,18,2,0,0,1,1,0,,,,,0.0,0.0,0.0,0.0,0.0,0.0,0
-22.959769,-67.786885,19.60,0.00,0.63,0.46,19.60,19.60,3.91,1.53,9067,2025-11-29 19:33:10.846,2025-11-29 16:33:10.846,16,0,0,42.072,-22.959767,-67.786889,0.60,0.00,-0.20,6.20,-0.40,93.70,0,1,0,97,90,-70813,13705,42072,2841.50,43,WP,1,0,0,0,0,0,0,1764444790846,3685,3675,3679,3713,3662,3693,18,,,,,,,0,0,0,-62.00,-4.00,937.00,0.00,-5.00,8.00,14,196.00,6.32,4.64,6.00,0.00,-2.00,0,,,100,98,18,2,0,0,1,1,0,,,,,0.0,0.0,0.0,0.0,0.0,0.0,0
-22.959768,-67.786885,19.60,0.00,0.60,0.45,19.60,19.60,3.91,1.53,9167,2025-11-29 19:33:10.946,2025-11-29 16:33:10.946,16,0,0,42.072,-22.959767,-67.786889,0.60,0.00,0.00,5.70,0.40,96.10,0,1,0,97,90,-70813,13705,42072,2841.50,43,WP,1,0,0,0,0,0,0,1764444790946,3685,3675,3679,3713,3662,3693,18,,,,,,,0,0,0,-57.00,4.00,961.00,0.00,-5.00,-3.00,14,196.00,6.00,4.52,6.00,0.00,0.00,0,,,100,98,18,2,0,0,1,1,0,,,,,0.0,0.0,0.0,0.0,0.0,0.0,0
-22.959768,-67.786884,19.50,0.00,0.54,0.46,19.60,19.60,3.91,1.53,9267,2025-11-29 19:33:11.047,2025-11-29 16:33:11.047,16,0,0,42.072,-22.959767,-67.786889,0.50,0.00,0.20,5.40,0.80,98.10,0,1,0,97,90,-70813,13705,42072,2841.50,43,WP,1,0,0,0,0,0,0,1764444791046,3685,3675,3679,3713,3662,3693,18,,,,,,,0,0,0,-54.00,8.00,981.00,0.00,-5.00,-27.00,14,195.00,5.39,4.56,5.00,0.00,2.00,0,,,100,98,18,2,0,0,1,1,0,,,,,0.0,0.0,0.0,0.0,0.0,0.0,0
-22.959767,-67.786884,19.50,0.00,0.64,0.47,19.60,19.60,3.91,1.53,9364,2025-11-29 19:33:11.144,2025-11-29 16:33:11.144,16,0,0,42.072,-22.959767,-67.786889,0.50,0.00,0.40,5.10,1.10,99.10,0,1,0,97,90,-70813,13705,42072,2841.50,43,WP,1,0,0,0,0,0,0,1764444791143,3685,3675,3679,3713,3662,3693,18,,,,,,,0,0,0,-51.00,11.00,991.00,0.00,-6.00,-49.00,14,195.00,6.40,4.67,5.00,0.00,4.00,0,,,100,98,18,2,0,0,1,1,0,,,,,0.0,0.0,0.0,0.0,0.0,0.0,0
-22.959767,-67.786884,19.40,0.00,0.65,0.48,19.60,19.60,3.91,1.53,9463,2025-11-29 19:33:11.242,2025-11-29 16:33:11.242,16,0,0,42.072,-22.959767,-67.786889,0.40,0.10,0.50,3.90,1.30,99.50,0,1,0,97,90,-70813,13705,42072,2841.50,43,WP,1,0,0,0,0,0,0,1764444791242,3685,3675,3679,3713,3662,3693,18,,,,,,,0,0,0,-39.00,13.00,995.00,0.00,-5.00,-60.00,14,194.00,6.48,4.85,4.00,1.00,5.00,0,,,100,98,18,2,0,0,1,1,0,,,,,0.0,0.0,0.0,0.0,0.0,0.0,0
-22.959767,-67.786884,19.30,0.00,0.62,0.50,19.60,19.60,3.91,1.53,9565,2025-11-29 19:33:11.344,2025-11-29 16:33:11.344,16,0,0,42.072,-22.959767,-67.786889,0.30,0.20,0.50,1.90,1.40,99.40,0,1,0,97,90,-70813,13705,42072,2841.50,43,WP,1,0,0,0,0,0,0,1764444791344,3685,3675,3679,3713,3662,3693,18,,,,,,,0,0,0,-19.00,14.00,994.00,0.00,-5.00,-63.00,14,193.00,6.16,5.03,3.00,2.00,5.00,0,,,100,96,18,2,0,0,1,1,0,,,,,0.0,0.0,0.0,0.0,0.0,0.0,0
-22.959766,-67.786884,19.30,0.00,0.58,0.54,19.60,19.60,3.91,1.53,9666,2025-11-29 19:33:11.445,2025-11-29 16:33:11.445,16,0,0,42.072,-22.959767,-67.786889,0.30,0.30,0.40,-0.50,2.00,99.20,0,1,0,97,90,-70813,13705,42072,2841.50,43,WP,1,0,0,0,0,0,0,1764444791445,3685,3675,3679,3713,3662,3693,18,,,,,,,0,0,0,5.00,20.00,992.00,0.00,-5.00,-60.00,14,193.00,5.83,5.37,3.00,3.00,4.00,0,,,100,96,18,2,0,0,1,1,0,,,,,0.0,0.0,0.0,0.0,0.0,0.0,0
-22.959766,-67.786883,19.30,0.00,0.58,0.59,19.60,19.60,3.91,1.53,9763,2025-11-29 19:33:11.543,2025-11-29 16:33:11.543,16,0,0,42.072,-22.959767,-67.786889,0.30,0.40,0.30,-2.80,2.90,99.10,0,1,0,97,90,-70813,13705,42072,2841.50,43,WP,1,0,0,0,0,0,0,1764444791542,3685,3675,3679,3713,3662,3693,18,,,,,,,0,0,0,28.00,29.00,991.00,0.00,-6.00,-57.00,14,193.00,5.83,5.87,3.00,4.00,3.00,0,,,100,96,18,2,0,0,1,1,0,,,,,0.0,0.0,0.0,0.0,0.0,0.0,0
-22.959766,-67.786883,19.30,0.00,0.62,0.65,19.60,19.60,3.91,1.53,9866,2025-11-29 19:33:11.646,2025-11-29 16:33:11.646,16,0,0,42.072,-22.959767,-67.786889,0.10,0.60,0.10,-4.50,3.40,99.10,0,1,0,97,90,-70813,13705,42072,2841.50,43,WP,1,0,0,0,0,0,0,1764444791645,3685,3675,3679,3713,3662,3693,18,,,,,,,0,0,0,45.00,34.00,991.00,0.00,-6.00,-57.00,14,193.00,6.16,6.53,1.00,6.00,1.00,0,,,100,96,18,2,0,0,1,1,0,,,,,0.0,0.0,0.0,0.0,0.0,0.0,0
-22.959766,-67.786882,19.30,0.00,0.81,0.74,19.60,19.60,3.91,1.53,9968,2025-11-29 19:33:11.747,2025-11-29 16:33:11.748,16,0,0,42.072,-22.959767,-67.786889,0.10,0.80,0.00,-5.60,3.30,99.10,0,1,0,97,90,-70813,13705,42072,2841.50,43,WP,1,0,0,0,0,0,0,1764444791747,3685,3675,3679,3713,3662,3693,18,,,,,,,0,0,0,56.00,33.00,991.00,0.00,-5.00,-52.00,14,193.00,8.06,7.42,1.00,8.00,0.00,0,,,100,96,18,2,0,0,1,1,0,,,,,0.0,0.0,0.0,0.0,0.0,0.0,0
-22.959766,-67.786881,19.30,0.00,1.00,0.85,19.60,19.60,3.91,1.53,10065,2025-11-29 19:33:11.845,2025-11-29 16:33:11.845,16,0,0,42.072,-22.959767,-67.786889,0.00,1.00,-0.10,-6.10,3.00,99.10,0,1,0,97,90,-70813,13705,42072,2841.50,43,WP,1,0,0,0,0,0,0,1764444791844,3685,3675,3679,3713,3662,3693,18,,,,,,,0,0,0,61.00,30.00,991.00,0.00,-6.00,-51.00,14,193.00,10.05,8.54,0.00,10.00,-1.00,0,,,100,96,18,2,0,0,1,1,0,,,,,0.0,0.0,0.0,0.0,0.0,0.0,0
-22.959766,-67.786879,19.40,0.00,1.20,0.99,19.60,19.60,3.91,1.53,10169,2025-11-29 19:33:11.949,2025-11-29 16:33:11.949,16,0,0,42.072,-22.959767,-67.786889,0.00,1.20,-0.10,-6.10,2.20,99.10,0,1,0,97,90,-70813,13705,42072,2841.50,43,WP,1,0,0,0,0,0,0,1764444791948,3685,3675,3679,3713,3662,3693,18,,,,,,,0,0,0,61.00,22.00,991.00,0.00,-5.00,-49.00,14,194.00,12.04,9.94,0.00,12.00,-1.00,0,,,100,95,18,2,0,0,1,1,0,,,,,0.0,0.0,0.0,0.0,0.0,0.0,0
-22.959767,-67.786878,19.40,0.00,1.45,1.16,19.60,19.60,3.91,1.53,10270,2025-11-29 19:33:12.050,2025-11-29 16:33:12.050,16,0,0,44.256,-22.959767,-67.786889,-0.30,1.40,-0.20,-6.10,1.60,99.20,0,1,0,97,90,-50242,13705,44256,2841.50,43,WP,1,0,0,0,0,0,0,1764444792049,3685,3675,3679,3713,3662,3693,18,,,,,,,0,0,0,61.00,16.00,992.00,0.00,-6.00,-49.00,14,194.00,14.46,11.59,-3.00,14.00,-2.00,0,,,100,95,18,2,0,0,1,1,0,,,,,0.0,0.0,0.0,0.0,0.0,0.0,0
-22.959767,-67.786876,19.50,0.00,1.66,1.35,19.60,19.60,3.91,1.53,10370,2025-11-29 19:33:12.150,2025-11-29 16:33:12.150,16,0,0,44.256,-22.959767,-67.786889,-0.40,1.60,-0.20,-5.80,0.70,99.20,0,1,0,97,90,-50242,13705,44256,2841.50,43,WP,1,0,0,0,0,0,0,1764444792149,3685,3675,3679,3713,3662,3693,18,,,,,,,0,0,0,58.00,7.00,992.00,0.00,-5.00,-49.00,14,195.00,16.61,13.49,-4.00,16.00,-2.00,0,,,100,95,18,2,0,0,1,1,0,,,,,0.0,0.0,0.0,0.0,0.0,0.0,0
-22.959768,-67.786874,19.50,0.00,1.78,1.55,19.60,19.60,3.91,1.55,10471,2025-11-29 19:33:12.251,2025-11-29 16:33:12.251,16,0,0,44.256,-22.959767,-67.786889,-0.50,1.70,-0.20,-5.60,-0.10,99.30,0,1,0,97,90,-50242,13705,44256,2841.50,43,WP,1,0,0,0,0,0,0,1764444792250,3685,3675,3679,3713,3662,3693,18,,,,,,,0,0,0,56.00,-1.00,993.00,0.00,-6.00,-50.00,14,195.00,17.83,15.47,-5.00,17.00,-2.00,0,,,100,95,18,2,0,0,1,1,0,,,,,0.0,0.0,0.0,0.0,0.0,0.0,0
-22.959769,-67.786872,19.50,0.00,1.94,1.77,19.60,19.60,3.91,1.77,10572,2025-11-29 19:33:12.352,2025-11-29 16:33:12.352,16,0,0,44.256,-22.959767,-67.786889,-0.40,1.90,-0.10,-5.30,-1.20,99.40,0,1,0,97,90,-50242,13705,44256,2841.50,43,WP,1,0,0,0,0,0,0,1764444792351,3685,3675,3679,3713,3662,3693,18,,,,,,,0,0,0,53.00,-12.00,994.00,0.00,-5.00,-49.00,14,195.00,19.44,17.67,-4.00,19.00,-1.00,0,,,100,95,18,2,0,0,1,1,0,,,,,0.0,0.0,0.0,0.0,0.0,0.0,0
-22.959770,-67.786869,19.60,0.00,2.14,2.02,19.60,19.60,3.91,2.02,10670,2025-11-29 19:33:12.449,2025-11-29 16:33:12.449,16,0,0,44.256,-22.959767,-67.786889,-0.40,2.10,-0.10,-5.30,-1.20,99.40,0,1,0,97,90,-50242,13705,44256,2841.50,43,WP,1,0,0,0,0,0,0,1764444792449,3685,3675,3679,3713,3662,3693,18,,,,,,,0,0,0,53.00,-12.00,994.00,0.00,-5.00,-50.00,14,196.00,21.40,20.24,-4.00,21.00,-1.00,0,,,100,95,18,2,0,0,1,1,0,,,,,0.0,0.0,0.0,0.0,0.0,0.0,0
-22.959770,-67.786867,19.60,0.00,2.45,2.31,19.60,19.60,3.91,2.31,10771,2025-11-29 19:33:12.551,2025-11-29 16:33:12.551,16,0,0,44.256,-22.959767,-67.786889,-0.50,2.40,-0.10,-5.60,-0.70,99.40,0,1,0,97,90,-50242,13705,44256,2841.50,43,WP,1,0,0,0,0,0,0,1764444792550,3685,3675,3679,3713,3662,3693,18,,,,,,,0,0,0,56.00,-7.00,994.00,0.00,-5.00,-49.00,14,196.00,24.54,23.10,-5.00,24.00,-1.00,0,,,100,95,18,2,0,0,1,1,0,,,,,0.0,0.0,0.0,0.0,0.0,0.0,0
-22.959771,-67.786864,19.60,0.00,2.57,2.61,19.60,19.60,3.91,2.61,10874,2025-11-29 19:33:12.653,2025-11-29 16:33:12.653,16,0,0,44.256,-22.959767,-67.786889,-0.60,2.50,-0.10,-6.20,-0.30,99.40,0,1,0,97,90,-50242,13705,44256,2841.50,43,WP,1,0,0,0,0,0,0,1764444792653,3685,3675,3679,3713,3662,3693,18,,,,,,,0,0,0,62.00,-3.00,994.00,0.00,-5.00,-49.00,14,196.00,25.73,26.06,-6.00,25.00,-1.00,0,,,100,95,18,2,0,0,1,1,0,,,,,0.0,0.0,0.0,0.0,0.0,0.0,0
-22.959772,-67.786861,19.60,0.00,2.79,2.93,19.60,19.60,3.91,2.93,10982,2025-11-29 19:33:12.761,2025-11-29 16:33:12.761,16,0,0,44.256,-22.959767,-67.786889,-0.70,2.70,0.00,-6.90,0.20,99.40,0,1,0,97,90,-50242,13705,44256,2841.50,43,WP,1,0,0,0,0,0,0,1764444792761,3685,3675,3679,3713,3662,3693,18,,,,,,,0,0,0,69.00,2.00,994.00,0.00,-5.00,-49.00,14,196.00,27.89,29.34,-7.00,27.00,0.00,0,,,100,95,18,2,0,0,1,1,0,,,,,0.0,0.0,0.0,0.0,0.0,0.0,0
-22.959772,-67.786857,19.60,0.00,2.98,3.27,19.60,19.60,3.91,3.27,11082,2025-11-29 19:33:12.861,2025-11-29 16:33:12.861,16,0,0,44.256,-22.959767,-67.786889,-0.70,2.90,-0.10,-7.60,0.60,99.30,0,1,0,97,90,-50242,13705,44256,2841.50,43,WP,1,0,0,0,0,0,0,1764444792861,3685,3675,3679,3713,3662,3693,18,,,,,,,0,0,0,76.00,6.00,993.00,0.00,-5.00,-49.00,14,196.00,29.85,32.71,-7.00,29.00,-1.00,0,,,100,95,18,2,0,0,1,1,0,,,,,0.0,0.0,0.0,0.0,0.0,0.0,0
-22.959773,-67.786854,19.60,0.00,3.20,3.63,19.60,19.60,3.91,3.63,11182,2025-11-29 19:33:12.961,2025-11-29 16:33:12.961,16,0,0,44.256,-22.959767,-67.786889,-0.80,3.10,0.00,-8.20,0.50,99.30,0,1,0,97,90,-50242,13705,44256,2841.50,43,WP,1,0,0,0,0,0,0,1764444792961,3685,3675,3679,3713,3662,3693,18,,,,,,,0,0,0,82.00,5.00,993.00,0.00,-5.00,-49.00,14,196.00,32.02,36.31,-8.00,31.00,0.00,0,,,100,95,18,2,0,0,1,1,0,,,,,0.0,0.0,0.0,0.0,0.0,0.0,0
-22.959774,-67.786851,19.60,0.00,3.40,4.01,19.60,19.60,3.91,4.01,11283,2025-11-29 19:33:13.062,2025-11-29 16:33:13.062,16,0,0,44.256,-22.959767,-67.786889,-0.80,3.30,0.00,-8.70,0.50,99.30,0,1,0,97,90,-50242,13705,44256,2841.50,43,WP,1,0,0,0,0,0,0,1764444793062,3685,3675,3679,3713,3662,3693,18,,,,,,,0,0,0,87.00,5.00,993.00,0.00,-5.00,-48.00,14,196.00,33.96,40.09,-8.00,33.00,0.00,0,,,100,98,18,2,0,0,1,1,0,,,,,0.0,0.0,0.0,0.0,0.0,0.0,0
-22.959775,-67.786847,19.60,0.00,3.62,4.41,19.60,19.60,3.91,4.41,11383,2025-11-29 19:33:13.162,2025-11-29 16:33:13.162,16,0,0,44.256,-22.959767,-67.786889,-0.90,3.50,0.10,-9.50,0.40,99.30,0,1,0,97,90,-50242,13705,44256,2841.50,43,WP,1,0,0,0,0,0,0,1764444793162,3685,3675,3679,3713,3662,3693,18,,,,,,,0,0,0,95.00,4.00,993.00,0.00,-5.00,-48.00,14,196.00,36.15,44.13,-9.00,35.00,1.00,0,,,100,98,18,2,0,0,1,1,0,,,,,0.0,0.0,0.0,0.0,0.0,0.0,0
-22.959776,-67.786843,19.50,0.00,3.81,4.84,19.60,19.60,3.91,4.84,11480,2025-11-29 19:33:13.259,2025-11-29 16:33:13.259,16,0,0,44.256,-22.959767,-67.786889,-0.90,3.70,0.20,-10.20,0.30,99.40,0,1,0,97,90,-50242,13705,44256,2841.50,43,WP,1,0,0,0,0,0,0,1764444793259,3685,3675,3679,3713,3662,3693,18,,,,,,,0,0,0,102.00,3.00,994.00,0.00,-5.00,-48.00,14,195.00,38.13,48.35,-9.00,37.00,2.00,0,,,100,98,18,2,0,0,1,1,0,,,,,0.0,0.0,0.0,0.0,0.0,0.0,0
-22.959777,-67.786839,19.50,0.00,4.03,5.26,19.60,19.60,4.03,5.26,11582,2025-11-29 19:33:13.362,2025-11-29 16:33:13.362,16,0,0,44.256,-22.959767,-67.786889,-1.00,3.90,0.20,-10.80,0.20,99.30,0,1,0,97,90,-50242,13705,44256,2841.50,43,WP,1,0,0,0,0,0,0,1764444793361,3685,3675,3679,3713,3662,3693,18,,,,,,,0,0,0,108.00,2.00,993.00,0.00,-5.00,-48.00,14,195.00,40.31,52.57,-10.00,39.00,2.00,0,,,100,98,18,2,0,0,1,1,0,,,,,0.0,0.0,0.0,0.0,0.0,0.0,0
-22.959778,-67.786834,19.40,0.00,4.35,5.75,19.60,19.60,4.35,5.75,11683,2025-11-29 19:33:13.462,2025-11-29 16:33:13.462,16,0,0,44.256,-22.959767,-67.786889,-1.10,4.20,0.20,-11.30,0.00,99.30,0,1,0,97,90,-50242,13705,44256,2841.50,43,WP,1,0,0,0,0,0,0,1764444793462,3685,3675,3679,3713,3662,3693,18,,,,,,,0,0,0,113.00,0.00,993.00,0.00,-5.00,-48.00,14,194.00,43.46,57.48,-11.00,42.00,2.00,0,,,100,98,18,2,0,0,1,1,0,,,,,0.0,0.0,0.0,0.0,0.0,0.0,0
-22.959780,-67.786829,19.40,0.00,4.67,6.29,19.60,19.60,4.67,6.29,11779,2025-11-29 19:33:13.558,2025-11-29 16:33:13.558,16,0,0,44.256,-22.959767,-67.786889,-1.20,4.50,0.30,-11.50,-0.60,99.30,0,1,0,97,90,-50242,13705,44256,2841.50,43,WP,1,0,0,0,0,0,0,1764444793558,3685,3675,3679,3713,3662,3693,18,,,,,,,0,0,0,115.00,-6.00,993.00,0.00,-5.00,-48.00,14,194.00,46.67,62.94,-12.00,45.00,3.00,0,,,100,99,18,2,0,0,1,1,0,,,,,0.0,0.0,0.0,0.0,0.0,0.0,0
-22.959781,-67.786824,19.30,0.00,4.98,6.85,19.60,19.60,4.98,6.85,11881,2025-11-29 19:33:13.661,2025-11-29 16:33:13.661,16,0,0,44.256,-22.959767,-67.786889,-1.30,4.80,0.20,-11.20,-1.30,99.40,0,1,0,97,90,-50242,13705,44256,2841.50,43,WP,1,0,0,0,0,0,0,1764444793660,3685,3675,3679,3713,3662,3693,18,,,,,,,0,0,0,112.00,-13.00,994.00,0.00,-5.00,-48.00,14,193.00,49.77,68.46,-13.00,48.00,2.00,0,,,100,99,18,2,0,0,1,1,0,,,,,0.0,0.0,0.0,0.0,0.0,0.0,0
-22.959783,-67.786819,19.30,0.00,5.29,7.42,19.60,19.60,5.29,7.42,11982,2025-11-29 19:33:13.762,2025-11-29 16:33:13.762,16,0,0,44.256,-22.959767,-67.786889,-1.40,5.10,0.20,-10.50,-1.80,99.50,0,1,0,97,90,-50242,13705,44256,2841.50,43,WP,1,0,0,0,0,0,0,1764444793761,3685,3675,3679,3713,3662,3693,18,,,,,,,0,0,0,105.00,-18.00,995.00,0.00,-5.00,-48.00,14,193.00,52.92,74.18,-14.00,51.00,2.00,0,,,100,99,18,2,0,0,1,1,0,,,,,0.0,0.0,0.0,0.0,0.0,0.0,0
-22.959784,-67.786813,19.30,0.00,5.58,8.05,19.60,19.60,5.58,8.05,12085,2025-11-29 19:33:13.864,2025-11-29 16:33:13.864,16,0,0,44.256,-22.959767,-67.786889,-1.40,5.40,0.10,-9.80,-2.70,99.50,0,1,0,97,90,-50242,13705,44256,2841.50,43,WP,1,0,0,0,0,0,0,1764444793864,3685,3675,3679,3713,3662,3693,18,,,,,,,0,0,0,98.00,-27.00,995.00,0.00,-5.00,-50.00,14,193.00,55.79,80.54,-14.00,54.00,1.00,0,,,100,99,18,2,0,0,1,1,0,,,,,0.0,0.0,0.0,0.0,0.0,0.0,0
-22.959786,-67.786807,19.20,0.00,5.89,8.68,19.60,19.60,5.89,8.68,12183,2025-11-29 19:33:13.962,2025-11-29 16:33:13.962,16,0,0,44.256,-22.959767,-67.786889,-1.50,5.70,0.10,-9.20,-3.50,99.60,0,1,0,97,90,-50242,13705,44256,2841.50,43,WP,1,0,0,0,0,0,0,1764444793962,3685,3675,3679,3713,3662,3693,18,,,,,,,0,0,0,92.00,-35.00,996.00,0.00,-5.00,-49.00,14,192.00,58.95,86.84,-15.00,57.00,1.00,0,,,100,99,18,2,0,0,1,1,0,,,,,0.0,0.0,0.0,0.0,0.0,0.0,0
-22.959788,-67.786800,19.20,0.00,6.18,9.38,19.60,19.60,6.18,9.38,12287,2025-11-29 19:33:14.067,2025-11-29 16:33:14.067,16,0,0,44.484,-22.959767,-67.786889,-1.50,6.00,0.00,-8.50,-4.10,99.50,0,1,0,97,90,-44931,13613,44484,2841.50,43,WP,1,0,0,0,0,0,0,1764444794066,3685,3675,3679,3713,3662,3693,18,,,,,,,0,0,0,85.00,-41.00,995.00,0.00,-6.00,-49.00,14,192.00,61.85,93.81,-15.00,60.00,0.00,0,,,100,97,18,2,0,0,1,1,0,,,,,0.0,0.0,0.0,0.0,0.0,0.0,0
-22.959789,-67.786793,19.20,0.00,6.38,10.11,19.60,19.60,6.38,10.11,12385,2025-11-29 19:33:14.165,2025-11-29 16:33:14.165,16,0,0,44.484,-22.959767,-67.786889,-1.50,6.20,0.00,-7.50,-4.50,99.50,0,1,0,97,90,-44931,13613,44484,2841.50,43,WP,1,0,0,0,0,0,0,1764444794164,3685,3675,3679,3713,3662,3693,18,,,,,,,0,0,0,75.00,-45.00,995.00,0.00,-5.00,-49.00,14,192.00,63.79,101.11,-15.00,62.00,0.00,0,,,100,97,18,2,0,0,1,1,0,,,,,0.0,0.0,0.0,0.0,0.0,0.0,0
-22.959791,-67.786786,19.20,0.00,6.69,10.83,19.60,19.60,6.69,10.83,12484,2025-11-29 19:33:14.264,2025-11-29 16:33:14.264,16,0,0,44.484,-22.959767,-67.786889,-1.60,6.50,-0.10,-6.40,-4.50,99.40,0,1,0,97,90,-44931,13613,44484,2841.50,43,WP,1,0,0,0,0,0,0,1764444794263,3661,3700,3712,3695,3698,3727,18,,,,,,,0,0,0,64.00,-45.00,994.00,0.00,-5.00,-49.00,14,192.00,66.95,108.31,-16.00,65.00,-1.00,0,,,100,97,18,2,0,0,1,1,0,,,,,0.0,0.0,0.0,0.0,0.0,0.0,0
-22.959793,-67.786779,19.30,0.00,6.89,11.57,19.60,19.60,6.89,11.57,12586,2025-11-29 19:33:14.365,2025-11-29 16:33:14.366,16,0,0,44.484,-22.959767,-67.786889,-1.60,6.70,-0.20,-5.70,-4.40,99.30,0,1,0,97,90,-44931,13613,44484,2841.50,43,WP,1,0,0,0,0,0,0,1764444794365,3661,3700,3712,3695,3698,3727,18,,,,,,,0,0,0,57.00,-44.00,993.00,0.00,-5.00,-48.00,14,193.00,68.91,115.75,-16.00,67.00,-2.00,0,,,100,97,18,2,0,0,1,1,0,,,,,0.0,0.0,0.0,0.0,0.0,0.0,0
-22.959794,-67.786772,19.30,0.00,7.09,12.38,19.60,19.60,7.09,12.38,12688,2025-11-29 19:33:14.467,2025-11-29 16:33:14.467,16,0,0,44.484,-22.959767,-67.786889,-1.60,6.90,-0.20,-5.50,-4.20,99.30,0,1,0,97,90,-44931,13613,44484,2841.50,43,WP,1,0,0,0,0,0,0,1764444794467,3661,3700,3712,3695,3698,3727,18,,,,,,,0,0,0,55.00,-42.00,993.00,0.00,-5.00,-47.00,14,193.00,70.86,123.77,-16.00,69.00,-2.00,0,,,100,97,18,2,0,0,1,1,0,,,,,0.0,0.0,0.0,0.0,0.0,0.0,0
-22.959796,-67.786764,19.30,0.00,7.18,13.20,19.60,19.60,7.18,13.20,12790,2025-11-29 19:33:14.569,2025-11-29 16:33:14.569,16,0,0,44.484,-22.959767,-67.786889,-1.60,7.00,-0.20,-5.80,-4.00,99.40,0,1,0,97,90,-44931,13613,44484,2841.50,43,WP,1,0,0,0,0,0,0,1764444794569,3661,3700,3712,3695,3698,3727,18,,,,,,,0,0,0,58.00,-40.00,994.00,0.00,-5.00,-47.00,14,193.00,71.83,132.03,-16.00,70.00,-2.00,0,,,100,97,18,2,0,0,1,1,0,,,,,0.0,0.0,0.0,0.0,0.0,0.0,0
-22.959798,-67.786756,19.30,0.00,7.38,14.00,19.60,19.60,7.38,14.00,12887,2025-11-29 19:33:14.666,2025-11-29 16:33:14.666,16,0,0,44.484,-22.959767,-67.786889,-1.60,7.20,-0.30,-6.40,-3.60,99.40,0,1,0,97,90,-44931,13613,44484,2841.50,43,WP,1,0,0,0,0,0,0,1764444794666,3661,3700,3712,3695,3698,3727,18,,,,,,,0,0,0,64.00,-36.00,994.00,0.00,-5.00,-48.00,14,193.00,73.82,140.03,-16.00,72.00,-3.00,0,,,100,98,18,2,0,0,1,1,0,,,,,0.0,0.0,0.0,0.0,0.0,0.0,0
-22.959800,-67.786749,19.40,0.00,7.48,14.79,19.60,19.60,7.48,14.79,12991,2025-11-29 19:33:14.770,2025-11-29 16:33:14.770,16,0,0,44.484,-22.959767,-67.786889,-1.60,7.30,-0.30,-7.40,-3.40,99.40,0,1,0,97,90,-44931,13613,44484,2841.50,43,WP,1,0,0,0,0,0,0,1764444794770,3661,3700,3712,3695,3698,3727,18,,,,,,,0,0,0,74.00,-34.00,994.00,0.00,-5.00,-48.00,14,194.00,74.79,147.90,-16.00,73.00,-3.00,0,,,100,98,18,2,0,0,1,1,0,,,,,0.0,0.0,0.0,0.0,0.0,0.0,0
-22.959801,-67.786741,19.40,0.00,7.77,15.65,19.60,19.60,7.77,15.65,13091,2025-11-29 19:33:14.870,2025-11-29 16:33:14.871,16,0,0,44.484,-22.959767,-67.786889,-1.60,7.60,-0.20,-8.10,-3.10,99.40,0,1,0,97,90,-44931,13613,44484,2841.50,43,WP,1,0,0,0,0,0,0,1764444794870,3661,3700,3712,3695,3698,3727,18,,,,,,,0,0,0,81.00,-31.00,994.00,0.00,-5.00,-48.00,14,194.00,77.69,156.49,-16.00,76.00,-2.00,0,,,100,98,18,2,0,0,1,1,0,,,,,0.0,0.0,0.0,0.0,0.0,0.0,0
-22.959803,-67.786733,19.40,0.00,7.87,16.48,19.60,19.60,7.87,16.48,13188,2025-11-29 19:33:14.968,2025-11-29 16:33:14.968,16,0,0,44.484,-22.959767,-67.786889,-1.60,7.70,-0.20,-8.30,-3.10,99.50,0,1,0,97,90,-44931,13613,44484,2841.50,43,WP,1,0,0,0,0,0,0,1764444794967,3661,3700,3712,3695,3698,3727,18,,,,,,,0,0,0,83.00,-31.00,995.00,0.00,-5.00,-48.00,14,194.00,78.67,164.85,-16.00,77.00,-2.00,0,,,100,98,18,2,0,0,1,1,0,,,,,0.0,0.0,0.0,0.0,0.0,0.0,0
-22.959805,-67.786724,19.40,0.00,8.18,17.39,19.60,19.60,8.18,17.39,13297,2025-11-29 19:33:15.077,2025-11-29 16:33:15.077,16,0,0,44.484,-22.959767,-67.786889,-1.70,8.00,-0.10,-8.10,-3.10,99.50,0,1,0,97,90,-44931,13613,44484,2841.50,43,WP,1,0,0,0,0,0,0,1764444795076,3661,3700,3712,3695,3698,3727,18,,,,,,,0,0,0,81.00,-31.00,995.00,0.00,-5.00,-48.00,14,194.00,81.79,173.91,-17.00,80.00,-1.00,0,,,100,98,18,2,0,0,1,1,0,,,,,0.0,0.0,0.0,0.0,0.0,0.0,0
-22.959806,-67.786716,19.40,0.00,8.37,18.29,19.60,19.60,8.37,18.29,13400,2025-11-29 19:33:15.179,2025-11-29 16:33:15.179,16,0,0,44.484,-22.959767,-67.786889,-1.70,8.20,-0.10,-7.70,-3.30,99.60,0,1,0,97,90,-44931,13613,44484,2841.50,43,WP,1,0,0,0,0,0,0,1764444795179,3661,3700,3712,3695,3698,3727,18,,,,,,,0,0,0,77.00,-33.00,996.00,0.00,-5.00,-49.00,14,194.00,83.75,182.85,-17.00,82.00,-1.00,0,,,100,98,18,2,0,0,1,1,0,,,,,0.0,0.0,0.0,0.0,0.0,0.0,0
-22.959808,-67.786707,19.40,0.00,8.57,19.17,19.60,19.60,8.57,19.17,13495,2025-11-29 19:33:15.275,2025-11-29 16:33:15.275,16,0,0,44.484,-22.959767,-67.786889,-1.70,8.40,-0.10,-6.70,-3.40,99.60,0,1,0,97,90,-44931,13613,44484,2841.50,43,WP,1,0,0,0,0,0,0,1764444795274,3661,3700,3712,3695,3698,3727,18,,,,,,,0,0,0,67.00,-34.00,996.00,0.00,-5.00,-49.00,14,194.00,85.71,191.74,-17.00,84.00,-1.00,0,,,100,98,18,2,0,0,1,1,0,,,,,0.0,0.0,0.0,0.0,0.0,0.0,0
