latitude,longitude,altitude(m),ultrasonicHeight(m),speed(mps),distance(m),max_altitude(m),max_ascent(m),max_speed(mps),max_distance(m),time(millisecond),datetime(utc),datetime(local),satellites,pressure(Pa),temperature(F),voltage(v),home_latitude,home_longitude,velocityX(mps),velocityY(mps),velocityZ(mps),pitch(deg),roll(deg),yaw(deg),powerlevel,isflying,istakingphoto,remainPowerPercent,remainLifePercent,currentCurrent,currentElectricity,currentVoltage,batteryTemperature,dischargeCount,flightmode,isMotorsOn,isTakingVideo,Rc_elevator,Rc_aileron,Rc_throttle,Rc_rudder,Rc_gyro,timestamp,Battery_Cell1,Battery_Cell2,Battery_Cell3,Battery_Cell4,Battery_Cell5,Battery_Cell6,Dronetype,AppVersion,Planename,FlyControllerSerialNumber,RemoteSerialNumber,BatterySerialNumber,CENTER_BATTERY.productDate,CENTER_BATTERY.serialNo,CENTER_BATTERY.fullCapacity,CENTER_BATTERY.productDateRaw,pitchRaw,rollRaw,yawRaw,gimbalPitchRaw,gimbalRollRaw,gimbalYawRaw,flyState,altitudeRaw,speedRaw,distanceRaw,velocityXRaw,velocityYRaw,velocityZRaw,data_reuse,App_Tip,App_Warning,downlinkSignalQuality,uplinkSignalQuality,transmissionChannel,rcModeSwitch,rcHome,rcPause,rcTransform,rcJoystickMode,appMode,FlyControllerSerialNumber_legacy,RemoteSerialNumber_legacy,BatterySerialNumber_legacy,Battery2SerialNumber,frontAvoidDist,backAvoidDist,rightAvoidDist,leftAvoidDist,upAvoidDist,downAvoidDist,isBrakingToAvoid
-22.959743,-67.786883,0.60,0.00,0.85,1.10,0.60,0.60,0.85,1.10,4,2025-11-29 17:32:48.714,2025-11-29 14:32:48.714,13,0,0,51.555,-22.959740,-67.786893,0.00,0.30,-0.80,3.00,-0.20,88.00,0,1,0,98,90,-10791,14622,51555,2931.50,41,TakeOff,1,0,0,0,0,0,0,1764437568714,4312,4313,4303,4312,4315,4316,18,Litchi_iOS_2.15.7,EIK Matrice 1,0670131556,03LLCA05XT,,,0,14820,0,-30.00,-2.00,880.00,0.00,-4.00,34.00,11,6.00,8.54,10.99,0.00,3.00,-8.00,0,,,100,100,19,2,0,0,1,1,0,(null),(null),,,0.0,0.0,0.0,0.0,0.0,0.0,0
-22.959743,-67.786882,0.70,0.00,0.67,0.52,0.70,0.70,0.85,1.10,100,2025-11-29 17:32:48.810,2025-11-29 14:32:48.810,13,0,0,51.555,-22.959743,-67.786887,0.00,0.30,-0.60,3.10,-0.20,88.10,0,1,0,98,90,-10791,14622,51555,2931.50,41,TakeOff,1,0,0,0,0,0,0,1764437568810,4312,4313,4303,4312,4315,4316,18,,,,,,,0,0,0,-31.00,-2.00,881.00,0.00,-4.00,35.00,11,7.00,6.71,5.18,0.00,3.00,-6.00,0,,,100,100,19,2,0,0,1,1,0,,,,,0.0,0.0,0.0,0.0,0.0,0.0,0
-22.959743,-67.786882,0.70,0.00,0.67,0.55,0.70,0.70,0.85,1.10,202,2025-11-29 17:32:48.912,2025-11-29 14:32:48.912,13,0,0,51.555,-22.959743,-67.786887,0.00,0.30,-0.60,3.20,-0.20,88.00,0,1,0,98,90,-10791,14622,51555,2931.50,41,TakeOff,1,0,0,0,0,0,0,1764437568912,4312,4313,4303,4312,4315,4316,18,,,,,,,0,0,0,-32.00,-2.00,880.00,0.00,-4.00,35.00,11,7.00,6.71,5.51,0.00,3.00,-6.00,0,,,100,100,19,2,0,0,1,1,0,,,,,0.0,0.0,0.0,0.0,0.0,0.0,0
-22.959743,-67.786882,0.80,0.00,0.58,0.57,0.80,0.80,0.85,1.10,306,2025-11-29 17:32:49.016,2025-11-29 14:32:49.016,13,0,0,51.555,-22.959743,-67.786887,0.00,0.30,-0.50,3.20,-0.50,88.00,0,1,0,98,90,-10791,14622,51555,2931.50,41,TakeOff,1,0,0,0,0,0,0,1764437569016,4312,4313,4303,4312,4315,4316,18,,,,,,,0,0,0,-32.00,-5.00,880.00,0.00,-4.00,35.00,11,8.00,5.83,5.73,0.00,3.00,-5.00,0,,,100,100,19,2,0,0,1,1,0,,,,,0.0,0.0,0.0,0.0,0.0,0.0,0
-22.959743,-67.786882,0.80,0.00,0.45,0.60,0.80,0.80,0.85,1.10,402,2025-11-29 17:32:49.113,2025-11-29 14:32:49.113,13,0,0,51.555,-22.959743,-67.786887,0.00,0.20,-0.40,3.10,-0.60,88.00,0,1,0,98,90,-10791,14622,51555,2931.50,41,TakeOff,1,0,0,0,0,0,0,1764437569112,4312,4313,4303,4312,4315,4316,18,,,,,,,0,0,0,-31.00,-6.00,880.00,0.00,-4.00,35.00,11,8.00,4.47,5.97,0.00,2.00,-4.00,0,,,100,100,19,2,0,0,1,1,0,,,,,0.0,0.0,0.0,0.0,0.0,0.0,0
-22.959743,-67.786881,0.80,0.00,0.36,0.62,0.80,0.80,0.85,1.10,505,2025-11-29 17:32:49.215,2025-11-29 14:32:49.215,14,0,0,51.555,-22.959743,-67.786887,0.00,0.20,-0.30,3.00,-0.40,88.00,0,1,0,98,90,-10791,14622,51555,2931.50,41,TakeOff,1,0,0,0,0,0,0,1764437569215,4312,4313,4303,4312,4315,4316,18,,,,,,,0,0,0,-30.00,-4.00,880.00,0.00,-4.00,35.00,11,8.00,3.61,6.19,0.00,2.00,-3.00,0,,,100,100,19,2,0,0,1,1,0,,,,,0.0,0.0,0.0,0.0,0.0,0.0,0
-22.959743,-67.786881,0.80,0.00,0.36,0.64,0.80,0.80,0.85,1.10,618,2025-11-29 17:32:49.329,2025-11-29 14:32:49.329,14,0,0,51.555,-22.959743,-67.786887,0.00,0.20,-0.30,3.00,-0.30,88.00,0,1,0,98,90,-10791,14622,51555,2931.50,41,TakeOff,1,0,0,0,0,0,0,1764437569328,4312,4313,4303,4312,4315,4316,18,,,,,,,0,0,0,-30.00,-3.00,880.00,0.00,-4.00,35.00,11,8.00,3.61,6.39,0.00,2.00,-3.00,0,,,100,100,19,2,0,0,1,1,0,,,,,0.0,0.0,0.0,0.0,0.0,0.0,0
-22.959743,-67.786881,0.90,0.00,0.28,0.66,0.90,0.90,0.85,1.10,707,2025-11-29 17:32:49.417,2025-11-29 14:32:49.417,14,0,0,51.555,-22.959743,-67.786887,0.00,0.20,-0.20,2.80,0.10,88.10,0,1,0,98,90,-10791,14622,51555,2931.50,41,TakeOff,1,0,0,0,0,0,0,1764437569417,4312,4313,4303,4312,4315,4316,18,,,,,,,0,0,0,-28.00,1.00,881.00,0.00,-4.00,35.00,11,9.00,2.83,6.60,0.00,2.00,-2.00,0,,,100,100,19,2,0,0,1,1,0,,,,,0.0,0.0,0.0,0.0,0.0,0.0,0
-22.959743,-67.786881,0.90,0.00,0.22,0.68,0.90,0.90,0.85,1.10,811,2025-11-29 17:32:49.522,2025-11-29 14:32:49.522,14,0,0,51.555,-22.959743,-67.786887,0.00,0.10,-0.20,2.70,0.50,88.10,0,1,0,98,90,-10791,14622,51555,2931.50,41,TakeOff,1,0,0,0,0,0,0,1764437569521,4312,4313,4303,4312,4315,4316,18,,,,,,,0,0,0,-27.00,5.00,881.00,0.00,-4.00,35.00,11,9.00,2.24,6.79,0.00,1.00,-2.00,0,,,100,100,19,2,0,0,1,1,0,,,,,0.0,0.0,0.0,0.0,0.0,0.0,0
-22.959743,-67.786881,0.90,0.00,0.22,0.68,0.90,0.90,0.85,1.10,915,2025-11-29 17:32:49.625,2025-11-29 14:32:49.625,14,0,0,51.555,-22.959743,-67.786887,0.00,0.10,-0.20,2.40,0.70,88.20,0,1,0,98,90,-10791,14622,51555,2931.50,41,TakeOff,1,0,0,0,0,0,0,1764437569625,4312,4313,4303,4312,4315,4316,18,,,,,,,0,0,0,-24.00,7.00,882.00,0.00,-4.00,34.00,11,9.00,2.24,6.82,0.00,1.00,-2.00,0,,,100,100,19,2,0,0,1,1,0,,,,,0.0,0.0,0.0,0.0,0.0,0.0,0
-22.959743,-67.786881,0.90,0.00,0.32,0.69,0.90,0.90,0.85,1.10,1016,2025-11-29 17:32:49.726,2025-11-29 14:32:49.726,14,0,0,51.555,-22.959743,-67.786887,0.00,0.10,-0.30,2.20,0.40,88.20,0,1,0,98,90,-10791,14622,51555,2931.50,41,TakeOff,1,0,0,0,0,0,0,1764437569726,4312,4313,4303,4312,4315,4316,18,,,,,,,0,0,0,-22.00,4.00,882.00,0.00,-4.00,33.00,11,9.00,3.16,6.88,0.00,1.00,-3.00,0,,,100,100,19,2,0,0,1,1,0,,,,,0.0,0.0,0.0,0.0,0.0,0.0,0
-22.959743,-67.786881,0.90,0.00,0.30,0.69,0.90,0.90,0.85,1.10,1108,2025-11-29 17:32:49.818,2025-11-29 14:32:49.818,14,0,0,51.555,-22.959743,-67.786887,0.00,0.00,-0.30,2.10,-0.10,88.20,0,1,0,98,90,-10791,14622,51555,2931.50,41,TakeOff,1,0,0,0,0,0,0,1764437569818,4312,4313,4303,4312,4315,4316,18,,,,,,,0,0,0,-21.00,-1.00,882.00,0.00,-4.00,33.00,11,9.00,3.00,6.88,0.00,0.00,-3.00,0,,,100,100,19,2,0,0,1,1,0,,,,,0.0,0.0,0.0,0.0,0.0,0.0,0
-22.959744,-67.786881,1.00,0.00,0.40,0.69,1.00,1.00,0.85,1.10,1212,2025-11-29 17:32:49.923,2025-11-29 14:32:49.923,14,0,0,51.555,-22.959743,-67.786887,0.00,0.00,-0.40,1.90,-0.60,88.30,0,1,0,98,90,-10791,14622,51555,2931.50,41,TakeOff,1,0,0,0,0,0,0,1764437569922,4312,4313,4303,4312,4315,4316,18,,,,,,,0,0,0,-19.00,-6.00,883.00,0.00,-4.00,33.00,11,10.00,4.00,6.89,0.00,0.00,-4.00,0,,,100,100,19,2,0,0,1,1,0,,,,,0.0,0.0,0.0,0.0,0.0,0.0,0
-22.959744,-67.786881,1.00,0.00,0.40,0.69,1.00,1.00,0.85,1.10,1317,2025-11-29 17:32:50.028,2025-11-29 14:32:50.028,14,0,0,51.555,-22.959743,-67.786887,0.00,0.00,-0.40,1.80,-0.70,88.40,0,1,0,98,90,-10791,14622,51555,2931.50,41,TakeOff,1,0,0,0,0,0,0,1764437570027,4312,4313,4303,4312,4315,4316,18,,,,,,,0,0,0,-18.00,-7.00,884.00,0.00,-4.00,32.00,11,10.00,4.00,6.91,0.00,0.00,-4.00,0,,,100,100,19,2,0,0,1,1,0,,,,,0.0,0.0,0.0,0.0,0.0,0.0,0
-22.959744,-67.786881,1.10,0.00,0.50,0.69,1.10,1.10,0.85,1.10,1416,2025-11-29 17:32:50.126,2025-11-29 14:32:50.126,14,0,0,51.555,-22.959743,-67.786887,0.00,0.00,-0.50,1.80,-0.70,88.40,0,1,0,98,90,-10791,14622,51555,2931.50,41,WP,1,0,0,0,0,0,0,1764437570126,4312,4313,4303,4312,4315,4316,18,,,,,,,0,0,0,-18.00,-7.00,884.00,0.00,-4.00,31.00,14,11.00,5.00,6.94,0.00,0.00,-5.00,0,,,100,100,19,2,0,0,1,1,0,,,,,0.0,0.0,0.0,0.0,0.0,0.0,0
-22.959744,-67.786881,1.10,0.00,0.41,0.70,1.10,1.10,0.85,1.10,1510,2025-11-29 17:32:50.221,2025-11-29 14:32:50.221,14,0,0,51.555,-22.959743,-67.786887,-0.10,0.00,-0.40,1.80,-0.30,88.40,0,1,0,98,90,-10791,14622,51555,2931.50,41,WP,1,0,0,0,0,0,0,1764437570220,4312,4313,4303,4312,4315,4316,18,,,,,,,0,0,0,-18.00,-3.00,884.00,0.00,-4.00,32.00,14,11.00,4.12,7.04,-1.00,0.00,-4.00,0,,,100,100,19,2,0,0,1,1,0,,,,,0.0,0.0,0.0,0.0,0.0,0.0,0
-22.959744,-67.786881,1.10,0.00,0.32,0.71,1.10,1.10,0.85,1.10,1613,2025-11-29 17:32:50.324,2025-11-29 14:32:50.324,14,0,0,51.555,-22.959743,-67.786887,-0.10,0.00,-0.30,2.00,0.00,88.40,0,1,0,98,90,-10791,14622,51555,2931.50,41,WP,1,0,0,0,0,0,0,1764437570323,4312,4313,4303,4312,4315,4316,18,,,,,,,0,0,0,-20.00,0.00,884.00,0.00,-4.00,31.00,14,11.00,3.16,7.12,-1.00,0.00,-3.00,0,,,100,100,19,2,0,0,1,1,0,,,,,0.0,0.0,0.0,0.0,0.0,0.0,0
-22.959744,-67.786881,1.10,0.00,0.32,0.71,1.10,1.10,0.85,1.10,1718,2025-11-29 17:32:50.428,2025-11-29 14:32:50.429,14,0,0,51.555,-22.959743,-67.786887,-0.10,0.00,-0.30,2.30,-0.10,88.50,0,1,0,98,90,-10791,14622,51555,2931.50,41,WP,1,0,0,0,0,0,0,1764437570428,4312,4313,4303,4312,4315,4316,18,,,,,,,0,0,0,-23.00,-1.00,885.00,0.00,-4.00,31.00,14,11.00,3.16,7.15,-1.00,0.00,-3.00,0,,,100,100,19,2,0,0,1,1,0,,,,,0.0,0.0,0.0,0.0,0.0,0.0,0
-22.959744,-67.786881,1.20,0.00,0.32,0.72,1.20,1.20,0.85,1.10,1813,2025-11-29 17:32:50.523,2025-11-29 14:32:50.523,14,0,0,51.555,-22.959743,-67.786887,-0.10,0.00,-0.30,2.50,-0.80,88.40,0,1,0,98,90,-10791,14622,51555,2931.50,41,WP,1,0,0,0,0,0,0,1764437570523,4312,4313,4303,4312,4315,4316,18,,,,,,,0,0,0,-25.00,-8.00,884.00,0.00,-4.00,30.00,14,12.00,3.16,7.18,-1.00,0.00,-3.00,0,,,100,100,19,2,0,0,1,1,0,,,,,0.0,0.0,0.0,0.0,0.0,0.0,0
-22.959745,-67.786881,1.20,0.00,0.41,0.73,1.20,1.20,0.85,1.10,1914,2025-11-29 17:32:50.625,2025-11-29 14:32:50.625,14,0,0,51.555,-22.959743,-67.786887,-0.10,0.00,-0.40,2.40,-1.40,88.50,0,1,0,98,90,-10791,14622,51555,2931.50,41,WP,1,0,0,0,0,0,0,1764437570624,4312,4313,4303,4312,4315,4316,18,,,,,,,0,0,0,-24.00,-14.00,885.00,0.00,-4.00,31.00,14,12.00,4.12,7.27,-1.00,0.00,-4.00,0,,,100,100,19,2,0,0,1,1,0,,,,,0.0,0.0,0.0,0.0,0.0,0.0,0
-22.959745,-67.786881,1.20,0.00,0.40,0.73,1.20,1.20,0.85,1.10,2017,2025-11-29 17:32:50.727,2025-11-29 14:32:50.728,14,0,0,46.850,-22.959743,-67.786887,0.00,0.00,-0.40,2.20,-1.90,88.70,0,1,0,97,90,-50599,14523,46850,2931.50,41,WP,1,0,0,0,0,0,0,1764437570727,4312,4313,4303,4312,4315,4316,18,,,,,,,0,0,0,-22.00,-19.00,887.00,0.00,-4.00,29.00,14,12.00,4.00,7.33,0.00,0.00,-4.00,0,,,100,100,19,2,0,0,1,1,0,,,,,0.0,0.0,0.0,0.0,0.0,0.0,0
-22.959745,-67.786881,1.30,0.00,0.60,0.73,1.30,1.30,0.85,1.10,2119,2025-11-29 17:32:50.829,2025-11-29 14:32:50.830,14,0,0,46.850,-22.959743,-67.786887,0.00,0.00,-0.60,1.90,-2.20,88.80,0,1,0,97,90,-50599,14523,46850,2931.50,41,WP,1,0,0,0,0,0,0,1764437570829,4312,4313,4303,4312,4315,4316,18,,,,,,,0,0,0,-19.00,-22.00,888.00,0.00,-4.00,28.00,14,13.00,6.00,7.28,0.00,0.00,-6.00,0,,,100,100,19,2,0,0,1,1,0,,,,,0.0,0.0,0.0,0.0,0.0,0.0,0
-22.959745,-67.786881,1.30,0.00,0.90,0.72,1.30,1.30,0.90,1.10,2215,2025-11-29 17:32:50.925,2025-11-29 14:32:50.925,14,0,0,46.850,-22.959743,-67.786887,0.00,0.00,-0.90,1.60,-2.30,88.70,0,1,0,97,90,-50599,14523,46850,2931.50,41,WP,1,0,0,0,0,0,0,1764437570925,4312,4313,4303,4312,4315,4316,18,,,,,,,0,0,0,-16.00,-23.00,887.00,0.00,-4.00,27.00,14,13.00,9.00,7.23,0.00,0.00,-9.00,0,,,100,100,19,2,0,0,1,1,0,,,,,0.0,0.0,0.0,0.0,0.0,0.0,0
-22.959745,-67.786881,1.40,0.00,1.10,0.72,1.40,1.40,1.10,1.10,2318,2025-11-29 17:32:51.029,2025-11-29 14:32:51.029,14,0,0,46.850,-22.959743,-67.786887,0.00,0.00,-1.10,1.20,-2.40,88.50,0,1,0,97,90,-50599,14523,46850,2931.50,41,WP,1,0,0,0,0,0,0,1764437571028,4312,4313,4303,4312,4315,4316,18,,,,,,,0,0,0,-12.00,-24.00,885.00,0.00,-4.00,29.00,14,14.00,11.00,7.20,0.00,0.00,-11.00,0,,,100,100,19,2,0,0,1,1,0,,,,,0.0,0.0,0.0,0.0,0.0,0.0,0
-22.959745,-67.786881,1.60,0.00,1.40,0.72,1.60,1.60,1.40,1.10,2421,2025-11-29 17:32:51.131,2025-11-29 14:32:51.131,14,0,0,46.850,-22.959743,-67.786887,0.00,0.00,-1.40,0.60,-2.50,88.40,0,1,0,97,90,-50599,14523,46850,2931.50,41,WP,1,0,0,0,0,0,0,1764437571131,4312,4313,4303,4312,4315,4316,18,,,,,,,0,0,0,-6.00,-25.00,884.00,0.00,-4.00,29.00,14,16.00,14.00,7.16,0.00,0.00,-14.00,0,,,100,100,19,2,0,0,1,1,0,,,,,0.0,0.0,0.0,0.0,0.0,0.0,0
-22.959745,-67.786881,1.70,0.00,1.60,0.71,1.70,1.70,1.60,1.10,2521,2025-11-29 17:32:51.232,2025-11-29 14:32:51.232,14,0,0,46.850,-22.959743,-67.786887,0.10,0.00,-1.60,0.10,-1.90,88.40,0,1,0,97,90,-50599,14523,46850,2931.50,41,WP,1,0,0,0,0,0,0,1764437571231,4312,4313,4303,4312,4315,4316,18,,,,,,,0,0,0,-1.00,-19.00,884.00,0.00,-4.00,31.00,14,17.00,16.03,7.14,1.00,0.00,-16.00,0,,,100,100,19,2,0,0,1,1,0,,,,,0.0,0.0,0.0,0.0,0.0,0.0,0
-22.959745,-67.786881,1.90,0.00,1.90,0.71,1.90,1.90,1.90,1.10,2619,2025-11-29 17:32:51.329,2025-11-29 14:32:51.329,14,0,0,46.850,-22.959743,-67.786887,0.10,0.00,-1.90,-0.30,-0.90,88.30,0,1,0,97,90,-50599,14523,46850,2931.50,41,WP,1,0,0,0,0,0,0,1764437571329,4312,4313,4303,4312,4315,4316,18,,,,,,,0,0,0,3.00,-9.00,883.00,0.00,-4.00,31.00,14,19.00,19.03,7.12,1.00,0.00,-19.00,0,,,100,100,19,2,0,0,1,1,0,,,,,0.0,0.0,0.0,0.0,0.0,0.0,0
-22.959745,-67.786881,2.10,0.00,2.20,0.71,2.10,2.10,2.20,1.10,2725,2025-11-29 17:32:51.436,2025-11-29 14:32:51.436,14,0,0,46.850,-22.959743,-67.786887,0.10,0.00,-2.20,-0.40,0.00,88.20,0,1,0,97,90,-50599,14523,46850,2931.50,41,WP,1,0,0,0,0,0,0,1764437571435,4312,4313,4303,4312,4315,4316,18,,,,,,,0,0,0,4.00,0.00,882.00,0.00,-4.00,33.00,14,21.00,22.02,7.07,1.00,0.00,-22.00,0,,,100,100,19,2,0,0,1,1,0,,,,,0.0,0.0,0.0,0.0,0.0,0.0,0
-22.959744,-67.786881,2.30,0.00,2.50,0.71,2.30,2.30,2.50,1.10,2833,2025-11-29 17:32:51.544,2025-11-29 14:32:51.544,14,0,0,46.850,-22.959743,-67.786887,0.10,0.10,-2.50,-0.50,0.90,88.00,0,1,0,97,90,-50599,14523,46850,2931.50,41,WP,1,0,0,0,0,0,0,1764437571543,4312,4313,4303,4312,4315,4316,18,,,,,,,0,0,0,5.00,9.00,880.00,0.00,-4.00,34.00,14,23.00,25.04,7.09,1.00,1.00,-25.00,0,,,100,100,19,2,0,0,1,1,0,,,,,0.0,0.0,0.0,0.0,0.0,0.0,0
-22.959744,-67.786881,2.60,0.00,2.70,0.72,2.60,2.60,2.70,1.10,2923,2025-11-29 17:32:51.634,2025-11-29 14:32:51.634,14,0,0,46.850,-22.959743,-67.786887,0.00,0.10,-2.70,-0.10,1.60,87.90,0,1,0,97,90,-50599,14523,46850,2931.50,41,WP,1,0,0,0,0,0,0,1764437571633,4312,4313,4303,4312,4315,4316,18,,,,,,,0,0,0,1.00,16.00,879.00,0.00,-4.00,36.00,14,26.00,27.02,7.22,0.00,1.00,-27.00,0,,,100,100,19,2,0,0,1,1,0,,,,,0.0,0.0,0.0,0.0,0.0,0.0,0
-22.959744,-67.786880,2.90,0.00,2.90,0.74,2.90,2.90,2.90,1.10,3030,2025-11-29 17:32:51.741,2025-11-29 14:32:51.741,14,0,0,46.850,-22.959743,-67.786887,0.00,0.10,-2.90,0.20,2.10,88.00,0,1,0,97,90,-50599,14523,46850,2931.50,41,WP,1,0,0,0,0,0,0,1764437571740,4312,4313,4303,4312,4315,4316,18,,,,,,,0,0,0,-2.00,21.00,880.00,0.00,-4.00,36.00,14,29.00,29.02,7.38,0.00,1.00,-29.00,0,,,100,100,19,2,0,0,1,1,0,,,,,0.0,0.0,0.0,0.0,0.0,0.0,0
-22.959744,-67.786880,3.10,0.00,3.11,0.77,3.10,3.10,3.11,1.10,3132,2025-11-29 17:32:51.843,2025-11-29 14:32:51.843,14,0,0,46.850,-22.959743,-67.786887,0.00,0.20,-3.10,0.90,2.00,88.30,0,1,0,97,90,-50599,14523,46850,2931.50,41,WP,1,0,0,0,0,0,0,1764437571842,4312,4313,4303,4312,4315,4316,18,,,,,,,0,0,0,-9.00,20.00,883.00,0.00,-4.00,34.00,14,31.00,31.06,7.65,0.00,2.00,-31.00,0,,,100,100,19,2,0,0,1,1,0,,,,,0.0,0.0,0.0,0.0,0.0,0.0,0
-22.959744,-67.786880,3.40,0.00,3.31,0.79,3.40,3.40,3.31,1.10,3225,2025-11-29 17:32:51.935,2025-11-29 14:32:51.935,14,0,0,46.850,-22.959743,-67.786887,0.00,0.20,-3.30,2.00,1.20,88.50,0,1,0,97,90,-50599,14523,46850,2931.50,41,WP,1,0,0,0,0,0,0,1764437571935,4312,4313,4303,4312,4315,4316,18,,,,,,,0,0,0,-20.00,12.00,885.00,0.00,-4.00,34.00,14,34.00,33.06,7.92,0.00,2.00,-33.00,0,,,100,100,19,2,0,0,1,1,0,,,,,0.0,0.0,0.0,0.0,0.0,0.0,0
-22.959745,-67.786880,3.70,0.00,3.41,0.82,3.70,3.70,3.41,1.10,3328,2025-11-29 17:32:52.039,2025-11-29 14:32:52.039,14,0,0,46.850,-22.959743,-67.786887,-0.10,0.20,-3.40,2.80,0.00,88.50,0,1,0,97,90,-50599,14523,46850,2931.50,41,WP,1,0,0,0,0,0,0,1764437572038,4312,4313,4303,4312,4315,4316,18,,,,,,,0,0,0,-28.00,0.00,885.00,0.00,-4.00,30.00,14,37.00,34.07,8.18,-1.00,2.00,-34.00,0,,,100,100,19,2,0,0,1,1,0,,,,,0.0,0.0,0.0,0.0,0.0,0.0,0
-22.959745,-67.786879,4.10,0.00,3.40,0.84,4.10,4.10,3.41,1.10,3431,2025-11-29 17:32:52.142,2025-11-29 14:32:52.142,14,0,0,46.850,-22.959743,-67.786887,-0.10,0.10,-3.40,3.00,-1.00,88.50,0,1,0,97,90,-50599,14523,46850,2931.50,41,WP,1,0,0,0,0,0,0,1764437572141,4312,4313,4303,4312,4315,4316,18,,,,,,,0,0,0,-30.00,-10.00,885.00,0.00,-4.00,30.00,14,41.00,34.03,8.43,-1.00,1.00,-34.00,0,,,100,100,19,2,0,0,1,1,0,,,,,0.0,0.0,0.0,0.0,0.0,0.0,0
-22.959745,-67.786879,4.40,0.00,3.50,0.86,4.40,4.40,3.50,1.10,3531,2025-11-29 17:32:52.242,2025-11-29 14:32:52.242,14,0,0,46.850,-22.959743,-67.786887,-0.10,0.10,-3.50,3.00,-1.60,88.40,0,1,0,97,90,-50599,14523,46850,2931.50,41,WP,1,0,0,0,0,0,0,1764437572241,4312,4313,4303,4312,4315,4316,18,,,,,,,0,0,0,-30.00,-16.00,884.00,0.00,-4.00,31.00,14,44.00,35.03,8.64,-1.00,1.00,-35.00,0,,,100,100,19,2,0,0,1,1,0,,,,,0.0,0.0,0.0,0.0,0.0,0.0,0
-22.959745,-67.786879,4.70,0.00,3.50,0.88,4.70,4.70,3.50,1.10,3629,2025-11-29 17:32:52.340,2025-11-29 14:32:52.340,14,0,0,46.850,-22.959743,-67.786887,-0.10,0.10,-3.50,3.00,-2.00,88.30,0,1,0,97,90,-50599,14523,46850,2931.50,41,WP,1,0,0,0,0,0,0,1764437572339,4312,4313,4303,4312,4315,4316,18,,,,,,,0,0,0,-30.00,-20.00,883.00,0.00,-4.00,31.00,14,47.00,35.03,8.84,-1.00,1.00,-35.00,0,,,100,100,19,2,0,0,1,1,0,,,,,0.0,0.0,0.0,0.0,0.0,0.0,0
-22.959746,-67.786879,5.10,0.00,3.50,0.90,5.10,5.10,3.50,1.10,3636,2025-11-29 17:32:52.347,2025-11-29 14:32:52.347,14,0,0,46.850,-22.959743,-67.786887,-0.10,0.00,-3.50,3.00,-1.70,88.30,0,1,0,97,90,-50599,14523,46850,2931.50,41,WP,1,0,0,0,0,0,0,1764437572346,4312,4313,4303,4312,4315,4316,18,,,,,,,0,0,0,-30.00,-17.00,883.00,0.00,-4.00,32.00,14,51.00,35.01,8.96,-1.00,0.00,-35.00,0,,,100,100,19,2,0,0,1,1,0,,,,,0.0,0.0,0.0,0.0,0.0,0.0,0
-22.959746,-67.786879,5.70,0.00,3.40,0.92,5.70,5.70,3.50,1.10,3929,2025-11-29 17:32:52.639,2025-11-29 14:32:52.639,14,0,0,46.850,-22.959743,-67.786887,-0.10,0.00,-3.40,1.90,-2.10,88.10,0,1,0,97,90,-50599,14523,46850,2931.50,41,WP,1,0,0,0,0,0,0,1764437572639,4312,4313,4303,4312,4315,4316,18,,,,,,,0,0,0,-19.00,-21.00,881.00,0.00,-4.00,34.00,14,57.00,34.01,9.16,-1.00,0.00,-34.00,0,,,100,100,19,2,0,0,1,1,0,,,,,0.0,0.0,0.0,0.0,0.0,0.0,0
-22.959747,-67.786879,6.00,0.00,3.30,0.93,6.00,6.00,3.50,1.10,4046,2025-11-29 17:32:52.757,2025-11-29 14:32:52.757,14,0,0,46.850,-22.959743,-67.786887,-0.10,0.00,-3.30,1.90,-2.30,88.00,0,1,0,97,90,-50599,14523,46850,2931.50,41,WP,1,0,0,0,0,0,0,1764437572756,4312,4313,4303,4312,4315,4316,18,,,,,,,0,0,0,-19.00,-23.00,880.00,0.00,-4.00,34.00,14,60.00,33.02,9.25,-1.00,0.00,-33.00,0,,,100,100,19,2,0,0,1,1,0,,,,,0.0,0.0,0.0,0.0,0.0,0.0,0
-22.959747,-67.786880,6.40,0.00,3.30,0.92,6.40,6.40,3.50,1.10,4129,2025-11-29 17:32:52.840,2025-11-29 14:32:52.840,14,0,0,46.850,-22.959743,-67.786887,-0.10,0.00,-3.30,2.00,-2.30,88.10,0,1,0,97,90,-50599,14523,46850,2931.50,41,WP,1,0,0,0,0,0,0,1764437572839,4312,4313,4303,4312,4315,4316,18,,,,,,,0,0,0,-20.00,-23.00,881.00,0.00,-4.00,35.00,14,64.00,33.02,9.22,-1.00,0.00,-33.00,0,,,100,94,19,2,0,0,1,1,0,,,,,0.0,0.0,0.0,0.0,0.0,0.0,0
-22.959747,-67.786880,6.70,0.00,3.20,0.92,6.70,6.70,3.50,1.10,4239,2025-11-29 17:32:52.949,2025-11-29 14:32:52.949,14,0,0,46.850,-22.959743,-67.786887,-0.10,0.00,-3.20,1.80,-3.00,88.40,0,1,0,97,90,-50599,14523,46850,2931.50,41,WP,1,0,0,0,0,0,0,1764437572949,4312,4313,4303,4312,4315,4316,18,,,,,,,0,0,0,-18.00,-30.00,884.00,0.00,-4.00,33.00,14,67.00,32.02,9.23,-1.00,0.00,-32.00,0,,,100,94,19,2,0,0,1,1,0,,,,,0.0,0.0,0.0,0.0,0.0,0.0,0
-22.959747,-67.786880,7.00,0.00,3.20,0.91,7.00,7.00,3.50,1.10,4245,2025-11-29 17:32:52.955,2025-11-29 14:32:52.955,14,0,0,46.850,-22.959743,-67.786887,-0.10,0.00,-3.20,1.20,-3.40,88.60,0,1,0,97,90,-50599,14523,46850,2931.50,41,WP,1,0,0,0,0,0,0,1764437572955,4312,4313,4303,4312,4315,4316,18,,,,,,,0,0,0,-12.00,-34.00,886.00,0.00,-4.00,31.00,14,70.00,32.02,9.10,-1.00,0.00,-32.00,0,,,100,94,19,2,0,0,1,1,0,,,,,0.0,0.0,0.0,0.0,0.0,0.0,0
-22.959748,-67.786880,7.30,0.00,3.10,0.90,7.30,7.30,3.50,1.10,4444,2025-11-29 17:32:53.155,2025-11-29 14:32:53.155,14,0,0,46.850,-22.959743,-67.786887,-0.10,0.00,-3.10,0.30,-3.20,88.60,0,1,0,97,90,-50599,14523,46850,2931.50,41,WP,1,0,0,0,0,0,0,1764437573154,4312,4313,4303,4312,4315,4316,18,,,,,,,0,0,0,-3.00,-32.00,886.00,0.00,-4.00,29.00,14,73.00,31.02,9.05,-1.00,0.00,-31.00,0,,,100,94,19,2,0,0,1,1,0,,,,,0.0,0.0,0.0,0.0,0.0,0.0,0
-22.959748,-67.786881,7.60,0.00,3.10,0.90,7.60,7.60,3.50,1.10,4449,2025-11-29 17:32:53.160,2025-11-29 14:32:53.160,14,0,0,46.850,-22.959743,-67.786887,-0.10,0.00,-3.10,-0.30,-2.30,88.40,0,1,0,97,90,-50599,14523,46850,2931.50,41,WP,1,0,0,0,0,0,0,1764437573159,4312,4313,4303,4312,4315,4316,18,,,,,,,0,0,0,3.00,-23.00,884.00,0.00,-4.00,30.00,14,76.00,31.02,8.95,-1.00,0.00,-31.00,0,,,100,94,19,2,0,0,1,1,0,,,,,0.0,0.0,0.0,0.0,0.0,0.0,0
-22.959748,-67.786881,7.90,0.00,3.10,0.90,7.90,7.90,3.50,1.10,4536,2025-11-29 17:32:53.247,2025-11-29 14:32:53.247,14,0,0,46.850,-22.959743,-67.786887,-0.10,0.00,-3.10,-0.40,-1.40,88.20,0,1,0,97,90,-50599,14523,46850,2931.50,41,WP,1,0,0,0,0,0,0,1764437573246,4312,4313,4303,4312,4315,4316,18,,,,,,,0,0,0,4.00,-14.00,882.00,0.00,-4.00,32.00,14,79.00,31.02,8.95,-1.00,0.00,-31.00,0,,,100,93,19,2,0,0,1,1,0,,,,,0.0,0.0,0.0,0.0,0.0,0.0,0
-22.959748,-67.786881,8.20,0.00,3.10,0.90,8.20,8.20,3.50,1.10,4639,2025-11-29 17:32:53.349,2025-11-29 14:32:53.349,14,0,0,46.850,-22.959743,-67.786887,-0.10,0.00,-3.10,0.00,-1.40,88.10,0,1,0,97,90,-50599,14523,46850,2931.50,41,WP,1,0,0,0,0,0,0,1764437573349,4312,4313,4303,4312,4315,4316,18,,,,,,,0,0,0,-0.00,-14.00,881.00,0.00,-4.00,33.00,14,82.00,31.02,8.97,-1.00,0.00,-31.00,0,,,100,93,19,2,0,0,1,1,0,,,,,0.0,0.0,0.0,0.0,0.0,0.0,0
-22.959748,-67.786881,8.60,0.00,3.11,0.91,8.60,8.60,3.50,1.10,4740,2025-11-29 17:32:53.450,2025-11-29 14:32:53.450,14,0,0,46.204,-22.959743,-67.786887,-0.20,0.00,-3.10,0.60,-1.70,88.10,0,1,0,97,90,-54285,14523,46204,2931.50,41,WP,1,0,0,0,0,0,0,1764437573450,4312,4313,4303,4312,4315,4316,18,,,,,,,0,0,0,-6.00,-17.00,881.00,0.00,-4.00,34.00,14,86.00,31.06,9.10,-2.00,0.00,-31.00,0,,,100,93,19,2,0,0,1,1,0,,,,,0.0,0.0,0.0,0.0,0.0,0.0,0
-22.959749,-67.786881,8.90,0.00,3.21,0.93,8.90,8.90,3.50,1.10,4848,2025-11-29 17:32:53.559,2025-11-29 14:32:53.559,14,0,0,46.204,-22.959743,-67.786887,-0.20,0.00,-3.20,1.10,-2.50,88.20,0,1,0,97,90,-54285,14523,46204,2931.50,41,WP,1,0,0,0,0,0,0,1764437573558,4312,4313,4303,4312,4315,4316,18,,,,,,,0,0,0,-11.00,-25.00,882.00,0.00,-4.00,34.00,14,89.00,32.06,9.27,-2.00,0.00,-32.00,0,,,100,93,19,2,0,0,1,1,0,,,,,0.0,0.0,0.0,0.0,0.0,0.0,0
-22.959749,-67.786881,9.20,0.00,3.21,0.95,9.20,9.20,3.50,1.10,4949,2025-11-29 17:32:53.660,2025-11-29 14:32:53.660,14,0,0,46.204,-22.959743,-67.786887,-0.20,0.10,-3.20,1.30,-3.50,88.20,0,1,0,97,90,-54285,14523,46204,2931.50,41,WP,1,0,0,0,0,0,0,1764437573659,4312,4313,4303,4312,4315,4316,18,,,,,,,0,0,0,-13.00,-35.00,882.00,0.00,-4.00,34.00,14,92.00,32.08,9.50,-2.00,1.00,-32.00,0,,,100,93,19,2,0,0,1,1,0,,,,,0.0,0.0,0.0,0.0,0.0,0.0,0
-22.959749,-67.786881,9.50,0.00,3.21,0.98,9.50,9.50,3.50,1.10,5145,2025-11-29 17:32:53.856,2025-11-29 14:32:53.856,14,0,0,46.204,-22.959743,-67.786887,-0.20,0.10,-3.20,1.40,-4.20,88.20,0,1,0,97,90,-54285,14523,46204,2931.50,41,WP,1,0,0,0,0,0,0,1764437573855,4312,4313,4303,4312,4315,4316,18,,,,,,,0,0,0,-14.00,-42.00,882.00,0.00,-4.00,34.00,14,95.00,32.08,9.77,-2.00,1.00,-32.00,0,,,100,93,19,2,0,0,1,1,0,,,,,0.0,0.0,0.0,0.0,0.0,0.0,0
-22.959750,-67.786881,9.80,0.00,3.21,1.01,9.80,9.80,3.50,1.10,5152,2025-11-29 17:32:53.862,2025-11-29 14:32:53.862,14,0,0,46.204,-22.959743,-67.786887,-0.20,0.10,-3.20,1.60,-4.80,88.20,0,1,0,97,90,-54285,14523,46204,2931.50,41,WP,1,0,0,0,0,0,0,1764437573862,4312,4313,4303,4312,4315,4316,18,,,,,,,0,0,0,-16.00,-48.00,882.00,0.00,-4.00,34.00,14,98.00,32.08,10.08,-2.00,1.00,-32.00,0,,,100,95,19,2,0,0,1,1,0,,,,,0.0,0.0,0.0,0.0,0.0,0.0,0
-22.959750,-67.786881,10.20,0.00,3.21,1.05,10.20,10.20,3.50,1.10,5244,2025-11-29 17:32:53.954,2025-11-29 14:32:53.954,14,0,0,46.204,-22.959743,-67.786887,-0.20,0.10,-3.20,2.20,-4.80,88.20,0,1,0,97,90,-54285,14523,46204,2931.50,41,WP,1,0,0,0,0,0,0,1764437573954,4312,4313,4303,4312,4315,4316,18,,,,,,,0,0,0,-22.00,-48.00,882.00,0.00,-4.00,33.00,14,102.00,32.08,10.47,-2.00,1.00,-32.00,0,,,100,95,19,2,0,0,1,1,0,,,,,0.0,0.0,0.0,0.0,0.0,0.0,0
-22.959750,-67.786880,10.50,0.00,3.21,1.08,10.50,10.50,3.50,1.10,5364,2025-11-29 17:32:54.075,2025-11-29 14:32:54.075,14,0,0,46.204,-22.959743,-67.786887,-0.20,0.10,-3.20,3.10,-5.00,88.10,0,1,0,97,90,-54285,14523,46204,2931.50,41,WP,1,0,0,0,0,0,0,1764437574074,4312,4313,4303,4312,4315,4316,18,,,,,,,0,0,0,-31.00,-50.00,881.00,0.00,-4.00,34.00,14,105.00,32.08,10.84,-2.00,1.00,-32.00,0,,,100,95,19,2,0,0,1,1,0,,,,,0.0,0.0,0.0,0.0,0.0,0.0,0
-22.959750,-67.786880,10.80,0.00,3.21,1.12,10.80,10.80,3.50,1.12,5441,2025-11-29 17:32:54.152,2025-11-29 14:32:54.152,14,0,0,46.204,-22.959743,-67.786887,-0.20,0.10,-3.20,3.90,-5.10,88.00,0,1,0,97,90,-54285,14523,46204,2931.50,41,WP,1,0,0,0,0,0,0,1764437574151,4312,4313,4303,4312,4315,4316,18,,,,,,,0,0,0,-39.00,-51.00,880.00,0.00,-4.00,34.00,14,108.00,32.08,11.15,-2.00,1.00,-32.00,0,,,100,95,19,2,0,0,1,1,0,,,,,0.0,0.0,0.0,0.0,0.0,0.0,0
-22.959750,-67.786880,11.10,0.00,3.10,1.15,11.10,11.10,3.50,1.15,5547,2025-11-29 17:32:54.258,2025-11-29 14:32:54.258,14,0,0,46.204,-22.959743,-67.786887,-0.10,0.10,-3.10,4.40,-5.70,88.00,0,1,0,97,90,-54285,14523,46204,2931.50,41,WP,1,0,0,0,0,0,0,1764437574257,4312,4313,4303,4312,4315,4316,18,,,,,,,0,0,0,-44.00,-57.00,880.00,0.00,-4.00,35.00,14,111.00,31.03,11.46,-1.00,1.00,-31.00,0,,,100,95,19,2,0,0,1,1,0,,,,,0.0,0.0,0.0,0.0,0.0,0.0,0
-22.959751,-67.786880,11.40,0.00,3.10,1.17,11.40,11.40,3.50,1.17,5664,2025-11-29 17:32:54.374,2025-11-29 14:32:54.375,14,0,0,46.204,-22.959743,-67.786887,-0.10,0.10,-3.10,4.20,-6.20,88.00,0,1,0,97,90,-54285,14523,46204,2931.50,41,WP,1,0,0,0,0,0,0,1764437574374,4312,4313,4303,4312,4315,4316,18,,,,,,,0,0,0,-42.00,-62.00,880.00,0.00,-4.00,35.00,14,114.00,31.03,11.66,-1.00,1.00,-31.00,0,,,100,98,19,2,0,0,1,1,0,,,,,0.0,0.0,0.0,0.0,0.0,0.0,0
-22.959751,-67.786880,11.70,0.00,3.10,1.18,11.70,11.70,3.50,1.18,5743,2025-11-29 17:32:54.453,2025-11-29 14:32:54.453,14,0,0,46.204,-22.959743,-67.786887,0.00,0.10,-3.10,3.60,-6.60,88.00,0,1,0,97,90,-54285,14523,46204,2931.50,41,WP,1,0,0,0,0,0,0,1764437574453,4312,4313,4303,4312,4315,4316,18,,,,,,,0,0,0,-36.00,-66.00,880.00,0.00,-4.00,36.00,14,117.00,31.02,11.85,0.00,1.00,-31.00,0,,,100,98,19,2,0,0,1,1,0,,,,,0.0,0.0,0.0,0.0,0.0,0.0,0
-22.959751,-67.786880,12.00,0.00,3.10,1.19,12.00,12.00,3.50,1.19,5846,2025-11-29 17:32:54.556,2025-11-29 14:32:54.556,14,0,0,46.204,-22.959743,-67.786887,0.00,0.10,-3.10,2.90,-7.10,88.00,0,1,0,97,90,-54285,14523,46204,2931.50,41,WP,1,0,0,0,0,0,0,1764437574556,4312,4313,4303,4312,4315,4316,18,,,,,,,0,0,0,-29.00,-71.00,880.00,0.00,-4.00,35.00,14,120.00,31.02,11.87,0.00,1.00,-31.00,0,,,100,98,19,2,0,0,1,1,0,,,,,0.0,0.0,0.0,0.0,0.0,0.0,0
-22.959751,-67.786880,12.30,0.00,3.10,1.19,12.30,12.30,3.50,1.19,5960,2025-11-29 17:32:54.671,2025-11-29 14:32:54.671,14,0,0,46.204,-22.959743,-67.786887,0.10,0.10,-3.10,2.60,-7.40,88.00,0,1,0,97,90,-54285,14523,46204,2931.50,41,WP,1,0,0,0,0,0,0,1764437574670,4312,4313,4303,4312,4315,4316,18,,,,,,,0,0,0,-26.00,-74.00,880.00,0.00,-4.00,35.00,14,123.00,31.03,11.91,1.00,1.00,-31.00,0,,,100,98,19,2,0,0,1,1,0,,,,,0.0,0.0,0.0,0.0,0.0,0.0,0
-22.959750,-67.786880,12.70,0.00,3.10,1.17,12.70,12.70,3.50,1.19,6066,2025-11-29 17:32:54.776,2025-11-29 14:32:54.777,14,0,0,46.204,-22.959743,-67.786887,0.10,0.10,-3.10,2.70,-7.20,88.10,0,1,0,97,90,-54285,14523,46204,2931.50,41,WP,1,0,0,0,0,0,0,1764437574776,4312,4313,4303,4312,4315,4316,18,,,,,,,0,0,0,-27.00,-72.00,881.00,0.00,-4.00,35.00,14,127.00,31.03,11.73,1.00,1.00,-31.00,0,,,100,98,19,2,0,0,1,1,0,,,,,0.0,0.0,0.0,0.0,0.0,0.0,0
-22.959750,-67.786879,13.00,0.00,3.11,1.16,13.00,13.00,3.50,1.19,6147,2025-11-29 17:32:54.857,2025-11-29 14:32:54.857,14,0,0,46.204,-22.959743,-67.786887,0.20,0.10,-3.10,3.30,-6.20,88.10,0,1,0,97,90,-54285,14523,46204,2931.50,41,WP,1,0,0,0,0,0,0,1764437574857,4312,4313,4303,4312,4315,4316,18,,,,,,,0,0,0,-33.00,-62.00,881.00,0.00,-4.00,35.00,14,130.00,31.08,11.60,2.00,1.00,-31.00,0,,,100,97,19,2,0,0,1,1,0,,,,,0.0,0.0,0.0,0.0,0.0,0.0,0
-22.959750,-67.786879,13.30,0.00,3.12,1.12,13.30,13.30,3.50,1.19,6264,2025-11-29 17:32:54.975,2025-11-29 14:32:54.975,14,0,0,46.204,-22.959743,-67.786887,0.30,0.10,-3.10,3.80,-4.80,88.10,0,1,0,97,90,-54285,14523,46204,2931.50,41,WP,1,0,0,0,0,0,0,1764437574974,4312,4313,4303,4312,4315,4316,18,,,,,,,0,0,0,-38.00,-48.00,881.00,0.00,-4.00,35.00,14,133.00,31.16,11.23,3.00,1.00,-31.00,0,,,100,97,19,2,0,0,1,1,0,,,,,0.0,0.0,0.0,0.0,0.0,0.0,0
-22.959749,-67.786879,13.60,0.00,3.12,1.10,13.60,13.60,3.50,1.19,6348,2025-11-29 17:32:55.059,2025-11-29 14:32:55.059,14,0,0,46.204,-22.959743,-67.786887,0.30,0.10,-3.10,4.00,-3.30,88.20,0,1,0,97,90,-54285,14523,46204,2931.50,41,WP,1,0,0,0,0,0,0,1764437575058,4312,4313,4303,4312,4315,4316,18,,,,,,,0,0,0,-40.00,-33.00,882.00,0.00,-4.00,34.00,14,136.00,31.16,10.97,3.00,1.00,-31.00,0,,,100,97,19,2,0,0,1,1,0,,,,,0.0,0.0,0.0,0.0,0.0,0.0,0
-22.959749,-67.786879,13.90,0.00,3.13,1.05,13.90,13.90,3.50,1.19,6452,2025-11-29 17:32:55.162,2025-11-29 14:32:55.162,14,0,0,46.204,-22.959743,-67.786887,0.40,0.10,-3.10,3.80,-2.00,88.30,0,1,0,97,90,-54285,14523,46204,2931.50,41,WP,1,0,0,0,0,0,0,1764437575162,4312,4313,4303,4312,4315,4316,18,,,,,,,0,0,0,-38.00,-20.00,883.00,0.00,-4.00,33.00,14,139.00,31.27,10.52,4.00,1.00,-31.00,0,,,100,97,19,2,0,0,1,1,0,,,,,0.0,0.0,0.0,0.0,0.0,0.0,0
-22.959748,-67.786879,14.20,0.00,3.13,1.02,14.20,14.20,3.50,1.19,6550,2025-11-29 17:32:55.261,2025-11-29 14:32:55.261,14,0,0,46.204,-22.959743,-67.786887,0.40,0.00,-3.10,3.40,-0.90,88.30,0,1,0,97,90,-54285,14523,46204,2931.50,41,WP,1,0,0,0,0,0,0,1764437575260,4312,4313,4303,4312,4315,4316,18,,,,,,,0,0,0,-34.00,-9.00,883.00,0.00,-4.00,32.00,14,142.00,31.26,10.23,4.00,0.00,-31.00,0,,,100,97,19,2,0,0,1,1,0,,,,,0.0,0.0,0.0,0.0,0.0,0.0,0
-22.959748,-67.786879,14.50,0.00,3.11,0.98,14.50,14.50,3.50,1.19,6653,2025-11-29 17:32:55.364,2025-11-29 14:32:55.364,14,0,0,46.204,-22.959743,-67.786887,0.30,0.00,-3.10,2.80,0.00,88.20,0,1,0,97,90,-54285,14523,46204,2931.50,41,WP,1,0,0,0,0,0,0,1764437575363,4312,4313,4303,4312,4315,4316,18,,,,,,,0,0,0,-28.00,0.00,882.00,0.00,-4.00,33.00,14,145.00,31.14,9.80,3.00,0.00,-31.00,0,,,100,97,19,2,0,0,1,1,0,,,,,0.0,0.0,0.0,0.0,0.0,0.0,0
-22.959747,-67.786879,14.80,0.00,3.11,0.96,14.80,14.80,3.50,1.19,6749,2025-11-29 17:32:55.460,2025-11-29 14:32:55.460,14,0,0,46.204,-22.959743,-67.786887,0.30,0.00,-3.10,2.70,0.20,88.20,0,1,0,97,90,-54285,14523,46204,2931.50,41,WP,1,0,0,0,0,0,0,1764437575459,4312,4313,4303,4312,4315,4316,18,,,,,,,0,0,0,-27.00,2.00,882.00,0.00,-4.00,33.00,14,148.00,31.14,9.55,3.00,0.00,-31.00,0,,,100,99,19,2,0,0,1,1,0,,,,,0.0,0.0,0.0,0.0,0.0,0.0,0
-22.959747,-67.786879,15.10,0.00,3.11,0.93,15.10,15.10,3.50,1.19,6854,2025-11-29 17:32:55.564,2025-11-29 14:32:55.564,14,0,0,46.204,-22.959743,-67.786887,0.20,0.00,-3.10,2.60,0.00,88.20,0,1,0,97,90,-54285,14523,46204,2931.50,41,WP,1,0,0,0,0,0,0,1764437575564,4312,4313,4303,4312,4315,4316,18,,,,,,,0,0,0,-26.00,0.00,882.00,0.00,-4.00,34.00,14,151.00,31.06,9.29,2.00,0.00,-31.00,0,,,100,99,19,2,0,0,1,1,0,,,,,0.0,0.0,0.0,0.0,0.0,0.0,0
-22.959747,-67.786879,15.50,0.00,3.01,0.92,15.50,15.50,3.50,1.19,6955,2025-11-29 17:32:55.666,2025-11-29 14:32:55.666,14,0,0,46.204,-22.959743,-67.786887,0.20,0.10,-3.00,2.70,-0.60,88.20,0,1,0,97,90,-54285,14523,46204,2931.50,41,WP,1,0,0,0,0,0,0,1764437575665,4312,4313,4303,4312,4315,4316,18,,,,,,,0,0,0,-27.00,-6.00,882.00,0.00,-4.00,33.00,14,155.00,30.08,9.16,2.00,1.00,-30.00,0,,,100,99,19,2,0,0,1,1,0,,,,,0.0,0.0,0.0,0.0,0.0,0.0,0
-22.959746,-67.786879,15.80,0.00,2.91,0.91,15.80,15.80,3.50,1.19,7064,2025-11-29 17:32:55.775,2025-11-29 14:32:55.775,14,0,0,46.204,-22.959743,-67.786887,0.20,0.10,-2.90,2.90,-1.50,88.30,0,1,0,97,90,-54285,14523,46204,2931.50,41,WP,1,0,0,0,0,0,0,1764437575774,4312,4313,4303,4312,4315,4316,18,,,,,,,0,0,0,-29.00,-15.00,883.00,0.00,-4.00,33.00,14,158.00,29.09,9.07,2.00,1.00,-29.00,0,,,100,99,19,2,0,0,1,1,0,,,,,0.0,0.0,0.0,0.0,0.0,0.0,0
-22.959746,-67.786879,16.00,0.00,2.80,0.91,16.00,16.00,3.50,1.19,7165,2025-11-29 17:32:55.875,2025-11-29 14:32:55.875,14,0,0,46.204,-22.959743,-67.786887,0.10,0.10,-2.80,3.40,-2.20,88.30,0,1,0,97,90,-54285,14523,46204,2931.50,41,WP,1,0,0,0,0,0,0,1764437575875,4312,4313,4303,4312,4315,4316,18,,,,,,,0,0,0,-34.00,-22.00,883.00,0.00,-4.00,32.00,14,160.00,28.04,9.06,1.00,1.00,-28.00,0,,,100,99,19,2,0,0,1,1,0,,,,,0.0,0.0,0.0,0.0,0.0,0.0,0
-22.959746,-67.786879,16.30,0.00,2.60,0.91,16.30,16.30,3.50,1.19,7264,2025-11-29 17:32:55.974,2025-11-29 14:32:55.974,14,0,0,46.204,-22.959743,-67.786887,0.10,0.10,-2.60,4.00,-2.60,88.30,0,1,0,97,90,-54285,14523,46204,2931.50,41,WP,1,0,0,0,0,0,0,1764437575974,4312,4313,4303,4312,4315,4316,18,,,,,,,0,0,0,-40.00,-26.00,883.00,0.00,-4.00,33.00,14,163.00,26.04,9.08,1.00,1.00,-26.00,0,,,100,99,19,2,0,0,1,1,0,,,,,0.0,0.0,0.0,0.0,0.0,0.0,0
-22.959746,-67.786879,16.60,0.00,2.40,0.91,16.60,16.60,3.50,1.19,7366,2025-11-29 17:32:56.076,2025-11-29 14:32:56.076,14,0,0,46.204,-22.959743,-67.786887,0.10,0.10,-2.40,4.50,-2.50,88.20,0,1,0,97,90,-54285,14523,46204,2931.50,41,WP,1,0,0,0,0,0,0,1764437576076,4312,4313,4303,4312,4315,4316,18,,,,,,,0,0,0,-45.00,-25.00,882.00,0.00,-4.00,33.00,14,166.00,24.04,9.14,1.00,1.00,-24.00,0,,,100,99,19,2,0,0,1,1,0,,,,,0.0,0.0,0.0,0.0,0.0,0.0,0
-22.959746,-67.786879,16.80,0.00,2.20,0.92,16.80,16.80,3.50,1.19,7463,2025-11-29 17:32:56.174,2025-11-29 14:32:56.174,14,0,0,46.204,-22.959743,-67.786887,0.10,0.10,-2.20,5.30,-2.50,88.20,0,1,0,97,90,-54285,14523,46204,2931.50,41,WP,1,0,0,0,0,0,0,1764437576173,4312,4313,4303,4312,4315,4316,18,,,,,,,0,0,0,-53.00,-25.00,882.00,0.00,-4.00,33.00,14,168.00,22.05,9.20,1.00,1.00,-22.00,0,,,100,99,19,2,0,0,1,1,0,,,,,0.0,0.0,0.0,0.0,0.0,0.0,0
-22.959746,-67.786879,17.00,0.00,2.00,0.93,17.00,17.00,3.50,1.19,7562,2025-11-29 17:32:56.272,2025-11-29 14:32:56.273,14,0,0,46.204,-22.959743,-67.786887,0.10,0.10,-2.00,5.60,-2.30,88.20,0,1,0,97,90,-54285,14523,46204,2931.50,41,WP,1,0,0,0,0,0,0,1764437576272,4312,4313,4303,4312,4315,4316,18,,,,,,,0,0,0,-56.00,-23.00,882.00,0.00,-4.00,33.00,14,170.00,20.05,9.29,1.00,1.00,-20.00,0,,,100,99,19,2,0,0,1,1,0,,,,,0.0,0.0,0.0,0.0,0.0,0.0,0
-22.959746,-67.786879,17.20,0.00,1.81,0.94,17.20,17.20,3.50,1.19,7681,2025-11-29 17:32:56.391,2025-11-29 14:32:56.391,14,0,0,46.204,-22.959743,-67.786887,0.10,0.10,-1.80,5.80,-2.00,88.20,0,1,0,97,90,-54285,14523,46204,2931.50,41,WP,1,0,0,0,0,0,0,1764437576391,4312,4313,4303,4312,4315,4316,18,,,,,,,0,0,0,-58.00,-20.00,882.00,0.00,-4.00,34.00,14,172.00,18.06,9.39,1.00,1.00,-18.00,0,,,100,99,19,2,0,0,1,1,0,,,,,0.0,0.0,0.0,0.0,0.0,0.0,0
-22.959745,-67.786879,17.30,0.00,1.60,0.95,17.30,17.30,3.50,1.19,7759,2025-11-29 17:32:56.469,2025-11-29 14:32:56.469,14,0,0,46.204,-22.959743,-67.786887,0.10,0.00,-1.60,5.80,-1.60,88.20,0,1,0,97,90,-54285,14523,46204,2931.50,41,WP,1,0,0,0,0,0,0,1764437576469,4312,4313,4303,4312,4315,4316,18,,,,,,,0,0,0,-58.00,-16.00,882.00,0.00,-4.00,33.00,14,173.00,16.03,9.49,1.00,0.00,-16.00,0,,,100,98,19,2,0,0,1,1,0,,,,,0.0,0.0,0.0,0.0,0.0,0.0,0
-22.959745,-67.786878,17.50,0.00,1.50,0.96,17.50,17.50,3.50,1.19,7866,2025-11-29 17:32:56.576,2025-11-29 14:32:56.576,14,0,0,46.204,-22.959743,-67.786887,0.10,0.00,-1.50,5.70,-1.50,88.10,0,1,0,97,90,-54285,14523,46204,2931.50,41,WP,1,0,0,0,0,0,0,1764437576576,4312,4313,4303,4312,4315,4316,18,,,,,,,0,0,0,-57.00,-15.00,881.00,0.00,-4.00,34.00,14,175.00,15.03,9.56,1.00,0.00,-15.00,0,,,100,98,19,2,0,0,1,1,0,,,,,0.0,0.0,0.0,0.0,0.0,0.0,0
-22.959745,-67.786878,17.70,0.00,1.40,0.96,17.70,17.70,3.50,1.19,7963,2025-11-29 17:32:56.674,2025-11-29 14:32:56.674,14,0,0,45.055,-22.959743,-67.786887,0.10,0.00,-1.40,5.70,-1.20,88.20,0,1,0,97,90,-58959,14473,45055,2931.50,41,WP,1,0,0,0,0,0,0,1764437576673,4312,4313,4303,4312,4315,4316,18,,,,,,,0,0,0,-57.00,-12.00,882.00,0.00,-4.00,34.00,14,177.00,14.04,9.65,1.00,0.00,-14.00,0,,,100,98,19,2,0,0,1,1,0,,,,,0.0,0.0,0.0,0.0,0.0,0.0,0
-22.959745,-67.786878,17.80,0.00,1.30,0.96,17.80,17.80,3.50,1.19,8063,2025-11-29 17:32:56.773,2025-11-29 14:32:56.773,14,0,0,45.055,-22.959743,-67.786887,0.10,0.00,-1.30,5.70,-0.90,88.20,0,1,0,97,90,-58959,14473,45055,2931.50,41,WP,1,0,0,0,0,0,0,1764437576773,3747,3755,3734,3749,3754,3772,18,,,,,,,0,0,0,-57.00,-9.00,882.00,0.00,-4.00,33.00,14,178.00,13.04,9.59,1.00,0.00,-13.00,0,,,100,98,19,2,0,0,1,1,0,,,,,0.0,0.0,0.0,0.0,0.0,0.0,0
-22.959745,-67.786878,18.00,0.00,1.30,0.96,18.00,18.00,3.50,1.19,8165,2025-11-29 17:32:56.875,2025-11-29 14:32:56.875,14,0,0,45.055,-22.959743,-67.786887,0.10,0.00,-1.30,5.90,-0.70,88.30,0,1,0,97,90,-58959,14473,45055,2931.50,41,WP,1,0,0,0,0,0,0,1764437576875,3747,3755,3734,3749,3754,3772,18,,,,,,,0,0,0,-59.00,-7.00,883.00,0.00,-4.00,33.00,14,180.00,13.04,9.58,1.00,0.00,-13.00,0,,,100,98,19,2,0,0,1,1,0,,,,,0.0,0.0,0.0,0.0,0.0,0.0,0
-22.959745,-67.786878,18.10,0.00,1.20,0.94,18.10,18.10,3.50,1.19,8266,2025-11-29 17:32:56.976,2025-11-29 14:32:56.976,14,0,0,45.055,-22.959743,-67.786887,0.00,0.00,-1.20,5.90,-0.40,88.30,0,1,0,97,90,-58959,14473,45055,2931.50,41,WP,1,0,0,0,0,0,0,1764437576976,3747,3755,3734,3749,3754,3772,18,,,,,,,0,0,0,-59.00,-4.00,883.00,0.00,-4.00,32.00,14,181.00,12.00,9.45,0.00,0.00,-12.00,0,,,100,98,19,2,0,0,1,1,0,,,,,0.0,0.0,0.0,0.0,0.0,0.0,0
-22.959745,-67.786878,18.20,0.00,1.20,0.94,18.20,18.20,3.50,1.19,8366,2025-11-29 17:32:57.076,2025-11-29 14:32:57.076,14,0,0,45.055,-22.959743,-67.786887,0.00,0.00,-1.20,5.80,-0.40,88.30,0,1,0,97,90,-58959,14473,45055,2931.50,41,WP,1,0,0,0,0,0,0,1764437577076,3747,3755,3734,3749,3754,3772,18,,,,,,,0,0,0,-58.00,-4.00,883.00,0.00,-4.00,32.00,14,182.00,12.00,9.38,0.00,0.00,-12.00,0,,,100,98,19,2,0,0,1,1,0,,,,,0.0,0.0,0.0,0.0,0.0,0.0,0
-22.959745,-67.786879,18.40,0.00,1.20,0.92,18.40,18.40,3.50,1.19,8464,2025-11-29 17:32:57.174,2025-11-29 14:32:57.174,14,0,0,45.055,-22.959743,-67.786887,0.00,0.00,-1.20,5.40,-0.40,88.30,0,1,0,97,90,-58959,14473,45055,2931.50,41,WP,1,0,0,0,0,0,0,1764437577174,3747,3755,3734,3749,3754,3772,18,,,,,,,0,0,0,-54.00,-4.00,883.00,0.00,-4.00,32.00,14,184.00,12.00,9.19,0.00,0.00,-12.00,0,,,100,98,19,2,0,0,1,1,0,,,,,0.0,0.0,0.0,0.0,0.0,0.0,0
-22.959745,-67.786879,18.50,0.00,1.30,0.91,18.50,18.50,3.50,1.19,8566,2025-11-29 17:32:57.277,2025-11-29 14:32:57.277,14,0,0,45.055,-22.959743,-67.786887,0.00,-0.10,-1.30,5.00,-0.60,88.30,0,1,0,97,90,-58959,14473,45055,2931.50,41,WP,1,0,0,0,0,0,0,1764437577276,3747,3755,3734,3749,3754,3772,18,,,,,,,0,0,0,-50.00,-6.00,883.00,0.00,-4.00,32.00,14,185.00,13.04,9.07,0.00,-1.00,-13.00,0,,,100,98,19,2,0,0,1,1,0,,,,,0.0,0.0,0.0,0.0,0.0,0.0,0
-22.959744,-67.786879,18.70,0.00,1.30,0.88,18.70,18.70,3.50,1.19,8668,2025-11-29 17:32:57.378,2025-11-29 14:32:57.378,14,0,0,45.055,-22.959743,-67.786887,0.00,-0.10,-1.30,4.80,-0.70,88.30,0,1,0,97,90,-58959,14473,45055,2931.50,41,WP,1,0,0,0,0,0,0,1764437577378,3747,3755,3734,3749,3754,3772,18,,,,,,,0,0,0,-48.00,-7.00,883.00,0.00,-4.00,32.00,14,187.00,13.04,8.80,0.00,-1.00,-13.00,0,,,100,98,19,2,0,0,1,1,0,,,,,0.0,0.0,0.0,0.0,0.0,0.0,0
-22.959744,-67.786879,18.80,0.00,1.20,0.86,18.80,18.80,3.50,1.19,8766,2025-11-29 17:32:57.476,2025-11-29 14:32:57.477,14,0,0,45.055,-22.959743,-67.786887,0.00,-0.10,-1.20,4.70,-0.70,88.30,0,1,0,97,90,-58959,14473,45055,2931.50,41,WP,1,0,0,0,0,0,0,1764437577476,3747,3755,3734,3749,3754,3772,18,,,,,,,0,0,0,-47.00,-7.00,883.00,0.00,-4.00,32.00,14,188.00,12.04,8.63,0.00,-1.00,-12.00,0,,,100,98,19,2,0,0,1,1,0,,,,,0.0,0.0,0.0,0.0,0.0,0.0,0
-22.959744,-67.786879,18.90,0.00,1.20,0.84,18.90,18.90,3.50,1.19,8870,2025-11-29 17:32:57.580,2025-11-29 14:32:57.580,14,0,0,45.055,-22.959743,-67.786887,0.00,-0.10,-1.20,4.60,-0.60,88.30,0,1,0,97,90,-58959,14473,45055,2931.50,41,WP,1,0,0,0,0,0,0,1764437577580,3747,3755,3734,3749,3754,3772,18,,,,,,,0,0,0,-46.00,-6.00,883.00,0.00,-4.00,32.00,14,189.00,12.04,8.35,0.00,-1.00,-12.00,0,,,100,96,19,2,0,0,1,1,0,,,,,0.0,0.0,0.0,0.0,0.0,0.0,0
-22.959744,-67.786880,19.10,0.00,1.20,0.82,19.10,19.10,3.50,1.19,8967,2025-11-29 17:32:57.678,2025-11-29 14:32:57.678,14,0,0,45.055,-22.959743,-67.786887,0.00,-0.10,-1.20,4.40,-0.20,88.30,0,1,0,97,90,-58959,14473,45055,2931.50,41,WP,1,0,0,0,0,0,0,1764437577677,3747,3755,3734,3749,3754,3772,18,,,,,,,0,0,0,-44.00,-2.00,883.00,0.00,-4.00,32.00,14,191.00,12.04,8.16,0.00,-1.00,-12.00,0,,,100,96,19,2,0,0,1,1,0,,,,,0.0,0.0,0.0,0.0,0.0,0.0,0
-22.959744,-67.786880,19.20,0.00,1.10,0.79,19.20,19.20,3.50,1.19,9072,2025-11-29 17:32:57.783,2025-11-29 14:32:57.783,14,0,0,45.055,-22.959743,-67.786887,0.00,-0.10,-1.10,4.40,0.00,88.40,0,1,0,97,90,-58959,14473,45055,2931.50,41,WP,1,0,0,0,0,0,0,1764437577782,3747,3755,3734,3749,3754,3772,18,,,,,,,0,0,0,-44.00,0.00,884.00,0.00,-4.00,32.00,14,192.00,11.05,7.94,0.00,-1.00,-11.00,0,,,100,96,19,2,0,0,1,1,0,,,,,0.0,0.0,0.0,0.0,0.0,0.0,0
-22.959744,-67.786880,19.30,0.00,1.00,0.78,19.30,19.30,3.50,1.19,9172,2025-11-29 17:32:57.882,2025-11-29 14:32:57.882,14,0,0,45.055,-22.959743,-67.786887,0.00,-0.10,-1.00,4.50,0.00,88.40,0,1,0,97,90,-58959,14473,45055,2931.50,41,WP,1,0,0,0,0,0,0,1764437577882,3747,3755,3734,3749,3754,3772,18,,,,,,,0,0,0,-45.00,0.00,884.00,0.00,-4.00,32.00,14,193.00,10.05,7.80,0.00,-1.00,-10.00,0,,,100,96,19,2,0,0,1,1,0,,,,,0.0,0.0,0.0,0.0,0.0,0.0,0
-22.959744,-67.786880,19.40,0.00,0.91,0.76,19.40,19.40,3.50,1.19,9281,2025-11-29 17:32:57.992,2025-11-29 14:32:57.992,14,0,0,45.055,-22.959743,-67.786887,0.00,-0.10,-0.90,4.10,-0.30,90.80,0,1,0,97,90,-58959,14473,45055,2931.50,41,WP,1,0,0,0,0,0,0,1764437577991,3747,3755,3734,3749,3754,3772,18,,,,,,,0,0,0,-41.00,-3.00,908.00,0.00,-4.00,27.00,14,194.00,9.06,7.62,0.00,-1.00,-9.00,0,,,100,96,19,2,0,0,1,1,0,,,,,0.0,0.0,0.0,0.0,0.0,0.0,0
-22.959744,-67.786880,19.50,0.00,0.60,0.75,19.50,19.50,3.50,1.19,9376,2025-11-29 17:32:58.087,2025-11-29 14:32:58.087,14,0,0,45.055,-22.959743,-67.786887,0.00,0.00,-0.60,3.50,-0.60,96.30,0,1,0,97,90,-58959,14473,45055,2931.50,41,WP,1,0,0,0,0,0,0,1764437578086,3747,3755,3734,3749,3754,3772,18,,,,,,,0,0,0,-35.00,-6.00,963.00,0.00,-4.00,-9.00,14,195.00,6.00,7.53,0.00,0.00,-6.00,0,,,100,96,19,2,0,0,1,1,0,,,,,0.0,0.0,0.0,0.0,0.0,0.0,0
-22.959744,-67.786880,19.50,0.00,0.32,0.74,19.50,19.50,3.50,1.19,9482,2025-11-29 17:32:58.192,2025-11-29 14:32:58.192,14,0,0,45.055,-22.959743,-67.786887,-0.10,0.00,-0.30,3.40,-1.00,104.30,0,1,0,97,90,-58959,14473,45055,2931.50,41,WP,1,0,0,0,0,0,0,1764437578192,3747,3755,3734,3749,3754,3772,18,,,,,,,0,0,0,-34.00,-10.00,1043.00,0.00,-4.00,-74.00,14,195.00,3.16,7.37,-1.00,0.00,-3.00,0,,,100,97,19,2,0,0,1,1,0,,,,,0.0,0.0,0.0,0.0,0.0,0.0,0
-22.959744,-67.786880,19.50,0.00,0.10,0.73,19.50,19.50,3.50,1.19,9572,2025-11-29 17:32:58.283,2025-11-29 14:32:58.283,14,0,0,45.055,-22.959743,-67.786887,0.00,0.00,-0.10,3.90,-1.40,113.70,0,1,0,97,90,-58959,14473,45055,2931.50,41,WP,1,0,0,0,0,0,0,1764437578282,3747,3755,3734,3749,3754,3772,18,,,,,,,0,0,0,-39.00,-14.00,1137.00,0.00,-4.00,-160.00,14,195.00,1.00,7.30,0.00,0.00,-1.00,0,,,100,97,19,2,0,0,1,1,0,,,,,0.0,0.0,0.0,0.0,0.0,0.0,0
-22.959744,-67.786880,19.50,0.00,0.00,0.73,19.50,19.50,3.50,1.19,9679,2025-11-29 17:32:58.389,2025-11-29 14:32:58.389,14,0,0,45.055,-22.959743,-67.786887,0.00,0.00,0.00,4.60,-1.90,122.90,0,1,0,97,90,-58959,14473,45055,2931.50,41,WP,1,0,0,0,0,0,0,1764437578389,3747,3755,3734,3749,3754,3772,18,,,,,,,0,0,0,-46.00,-19.00,1229.00,0.00,-7.00,-197.00,14,195.00,0.00,7.31,0.00,0.00,0.00,0,,,100,97,19,2,0,0,1,1,0,,,,,0.0,0.0,0.0,0.0,0.0,0.0,0
-22.959745,-67.786880,19.50,0.00,0.10,0.74,19.50,19.50,3.50,1.19,9771,2025-11-29 17:32:58.482,2025-11-29 14:32:58.482,14,0,0,45.055,-22.959743,-67.786887,0.00,0.00,0.10,5.00,-2.60,132.10,0,1,0,97,90,-58959,14473,45055,2931.50,41,WP,1,0,0,0,0,0,0,1764437578481,3747,3755,3734,3749,3754,3772,18,,,,,,,0,0,0,-50.00,-26.00,1321.00,0.00,-9.00,-237.00,14,195.00,1.00,7.36,0.00,0.00,1.00,0,,,100,97,19,2,0,0,1,1,0,,,,,0.0,0.0,0.0,0.0,0.0,0.0,0
-22.959745,-67.786881,19.50,0.00,0.20,0.72,19.50,19.50,3.50,1.19,9880,2025-11-29 17:32:58.590,2025-11-29 14:32:58.590,14,0,0,45.055,-22.959743,-67.786887,0.00,0.00,0.20,5.10,-3.40,141.40,0,1,0,97,90,-58959,14473,45055,2931.50,41,WP,1,0,0,0,0,0,0,1764437578590,3747,3755,3734,3749,3754,3772,18,,,,,,,0,0,0,-51.00,-34.00,1414.00,0.00,-10.00,-248.00,14,195.00,2.00,7.24,0.00,0.00,2.00,0,,,100,97,19,2,0,0,1,1,0,,,,,0.0,0.0,0.0,0.0,0.0,0.0,0
-22.959745,-67.786881,19.40,0.00,0.20,0.72,19.50,19.50,3.50,1.19,9981,2025-11-29 17:32:58.692,2025-11-29 14:32:58.692,14,0,0,45.712,-22.959743,-67.786887,0.00,0.00,0.20,5.10,-4.10,150.70,0,1,0,97,90,-50394,14473,45712,2931.50,41,WP,1,0,0,0,0,0,0,1764437578691,3747,3755,3734,3749,3754,3772,18,,,,,,,0,0,0,-51.00,-41.00,1507.00,0.00,-10.00,-255.00,14,194.00,2.00,7.25,0.00,0.00,2.00,0,,,100,98,19,2,0,0,1,1,0,,,,,0.0,0.0,0.0,0.0,0.0,0.0,0
-22.959744,-67.786880,19.40,0.00,0.30,0.73,19.50,19.50,3.50,1.19,10178,2025-11-29 17:32:58.888,2025-11-29 14:32:58.888,14,0,0,45.712,-22.959743,-67.786887,0.20,0.20,0.10,4.40,-3.00,167.50,0,1,0,97,90,-50394,14473,45712,2931.50,41,WP,1,0,0,0,0,0,0,1764437578888,3747,3755,3734,3749,3754,3772,18,,,,,,,0,0,0,-44.00,-30.00,1675.00,-1.00,-10.00,-260.00,14,194.00,3.00,7.27,2.00,2.00,1.00,0,,,100,98,19,2,0,0,1,1,0,,,,,0.0,0.0,0.0,0.0,0.0,0.0,0
-22.959743,-67.786880,19.50,0.00,0.45,0.78,19.50,19.50,3.50,1.19,10379,2025-11-29 17:32:59.090,2025-11-29 14:32:59.090,14,0,0,45.712,-22.959743,-67.786887,0.20,0.40,0.00,1.90,0.90,176.60,0,1,0,97,90,-50394,14473,45712,2931.50,41,WP,1,0,0,0,0,0,0,1764437579089,3747,3755,3734,3749,3754,3772,18,,,,,,,0,0,0,-19.00,9.00,1766.00,0.00,-10.00,-238.00,14,195.00,4.47,7.77,2.00,4.00,0.00,0,,,100,98,19,2,0,0,1,1,0,,,,,0.0,0.0,0.0,0.0,0.0,0.0,0
-22.959743,-67.786879,19.50,0.00,0.50,0.83,19.50,19.50,3.50,1.19,10481,2025-11-29 17:32:59.192,2025-11-29 14:32:59.192,14,0,0,45.712,-22.959743,-67.786887,0.30,0.40,0.00,0.70,3.20,178.40,0,1,0,97,90,-50394,14473,45712,2931.50,41,WP,1,0,0,0,0,0,0,1764437579191,3747,3755,3734,3749,3754,3772,18,,,,,,,0,0,0,-7.00,32.00,1784.00,0.00,-8.00,-154.00,14,195.00,5.00,8.30,3.00,4.00,0.00,0,,,100,96,19,2,0,0,1,1,0,,,,,0.0,0.0,0.0,0.0,0.0,0.0,0
-22.959743,-67.786879,19.50,0.00,0.51,0.89,19.50,19.50,3.50,1.19,10583,2025-11-29 17:32:59.293,2025-11-29 14:32:59.293,14,0,0,45.712,-22.959743,-67.786887,0.30,0.40,-0.10,0.10,4.60,179.10,0,1,0,97,90,-50394,14473,45712,2931.50,41,WP,1,0,0,0,0,0,0,1764437579293,3747,3755,3734,3749,3754,3772,18,,,,,,,0,0,0,-1.00,46.00,1791.00,0.00,-7.00,-101.00,14,195.00,5.10,8.87,3.00,4.00,-1.00,0,,,100,96,19,2,0,0,1,1,0,,,,,0.0,0.0,0.0,0.0,0.0,0.0,0
-22.959742,-67.786878,19.50,0.00,0.55,0.97,19.50,19.50,3.50,1.19,10680,2025-11-29 17:32:59.391,2025-11-29 14:32:59.391,14,0,0,45.712,-22.959743,-67.786887,0.20,0.50,-0.10,-1.10,5.60,179.20,0,1,0,97,90,-50394,14473,45712,2931.50,41,WP,1,0,0,0,0,0,0,1764437579390,3747,3755,3734,3749,3754,3772,18,,,,,,,0,0,0,11.00,56.00,1792.00,0.00,-5.00,-49.00,14,195.00,5.48,9.69,2.00,5.00,-1.00,0,,,100,96,19,2,0,0,1,1,0,,,,,0.0,0.0,0.0,0.0,0.0,0.0,0
-22.959742,-67.786877,19.60,0.00,0.42,1.04,19.60,19.60,3.50,1.19,10783,2025-11-29 17:32:59.494,2025-11-29 14:32:59.494,14,0,0,45.712,-22.959743,-67.786887,0.10,0.40,-0.10,-3.30,5.80,179.20,0,1,0,97,90,-50394,14473,45712,2931.50,41,WP,1,0,0,0,0,0,0,1764437579493,3747,3755,3734,3749,3754,3772,18,,,,,,,0,0,0,33.00,58.00,1792.00,0.00,-4.00,-6.00,14,196.00,4.24,10.38,1.00,4.00,-1.00,0,,,100,96,19,2,0,0,1,1,0,,,,,0.0,0.0,0.0,0.0,0.0,0.0,0
-22.959741,-67.786877,19.60,0.00,0.41,1.11,19.60,19.60,3.50,1.19,10884,2025-11-29 17:32:59.595,2025-11-29 14:32:59.595,14,0,0,45.712,-22.959743,-67.786887,0.00,0.40,-0.10,-6.10,5.90,179.10,0,1,0,97,90,-50394,14473,45712,2931.50,41,WP,1,0,0,0,0,0,0,1764437579594,3747,3755,3734,3749,3754,3772,18,,,,,,,0,0,0,61.00,59.00,1791.00,0.00,-4.00,-3574.00,14,196.00,4.12,11.07,0.00,4.00,-1.00,0,,,100,96,19,2,0,0,1,1,0,,,,,0.0,0.0,0.0,0.0,0.0,0.0,0
-22.959741,-67.786876,19.60,0.00,0.41,1.16,19.60,19.60,3.50,1.19,10982,2025-11-29 17:32:59.693,2025-11-29 14:32:59.693,14,0,0,45.712,-22.959743,-67.786887,0.00,0.40,-0.10,-9.10,5.50,178.80,0,1,0,97,90,-50394,14473,45712,2931.50,41,WP,1,0,0,0,0,0,0,1764437579692,3747,3755,3734,3749,3754,3772,18,,,,,,,0,0,0,91.00,55.00,1788.00,0.00,-4.00,-3550.00,14,196.00,4.12,11.63,0.00,4.00,-1.00,0,,,100,96,19,2,0,0,1,1,0,,,,,0.0,0.0,0.0,0.0,0.0,0.0,0
-22.959741,-67.786876,19.70,0.00,0.37,1.21,19.70,19.70,3.50,1.21,11085,2025-11-29 17:32:59.795,2025-11-29 14:32:59.795,14,0,0,45.450,-22.959743,-67.786887,-0.20,0.30,-0.10,-11.60,5.50,178.60,0,1,0,97,90,-51711,14423,45450,2931.50,41,WP,1,0,0,0,0,0,0,1764437579795,3747,3755,3734,3749,3754,3772,18,,,,,,,0,0,0,116.00,55.00,1786.00,0.00,-4.00,-3531.00,14,197.00,3.74,12.13,-2.00,3.00,-1.00,0,,,100,96,19,2,0,0,1,1,0,,,,,0.0,0.0,0.0,0.0,0.0,0.0,0
-22.959741,-67.786875,19.70,0.00,0.59,1.25,19.70,19.70,3.50,1.25,11185,2025-11-29 17:32:59.895,2025-11-29 14:32:59.895,14,0,0,45.450,-22.959743,-67.786887,-0.50,0.30,-0.10,-13.50,5.70,178.40,0,1,0,97,90,-51711,14423,45450,2931.50,41,WP,1,0,0,0,0,0,0,1764437579895,3747,3755,3734,3749,3754,3772,18,,,,,,,0,0,0,135.00,57.00,1784.00,0.00,-5.00,-3515.00,14,197.00,5.92,12.54,-5.00,3.00,-1.00,0,,,100,96,19,2,0,0,1,1,0,,,,,0.0,0.0,0.0,0.0,0.0,0.0,0
-22.959742,-67.786875,19.70,0.00,0.76,1.29,19.70,19.70,3.50,1.29,11299,2025-11-29 17:33:00.009,2025-11-29 14:33:00.009,14,0,0,45.450,-22.959743,-67.786887,-0.70,0.30,0.00,-14.60,6.00,178.20,0,1,0,97,90,-51711,14423,45450,2931.50,41,WP,1,0,0,0,0,0,0,1764437580009,3747,3755,3734,3749,3754,3772,18,,,,,,,0,0,0,146.00,60.00,1782.00,0.00,-4.00,-3502.00,14,197.00,7.62,12.85,-7.00,3.00,0.00,0,,,100,96,19,2,0,0,1,1,0,,,,,0.0,0.0,0.0,0.0,0.0,0.0,0
-22.959743,-67.786874,19.70,0.00,1.02,1.32,19.70,19.70,3.50,1.32,11386,2025-11-29 17:33:00.096,2025-11-29 14:33:00.097,14,0,0,45.450,-22.959743,-67.786887,-1.00,0.20,0.00,-15.10,6.40,178.00,0,1,0,97,90,-51711,14423,45450,2931.50,41,WP,1,0,0,0,0,0,0,1764437580096,3747,3755,3734,3749,3754,3772,18,,,,,,,0,0,0,151.00,64.00,1780.00,0.00,-5.00,-3492.00,14,197.00,10.20,13.20,-10.00,2.00,0.00,0,,,100,96,19,2,0,0,1,1,0,,,,,0.0,0.0,0.0,0.0,0.0,0.0,0
-22.959744,-67.786874,19.70,0.00,1.32,1.36,19.70,19.70,3.50,1.36,11492,2025-11-29 17:33:00.202,2025-11-29 14:33:00.202,14,0,0,45.450,-22.959743,-67.786887,-1.30,0.20,0.00,-15.30,6.80,178.00,0,1,0,97,90,-51711,14423,45450,2931.50,41,WP,1,0,0,0,0,0,0,1764437580202,3747,3755,3734,3749,3754,3772,18,,,,,,,0,0,0,153.00,68.00,1780.00,0.00,-4.00,-3483.00,14,197.00,13.15,13.59,-13.00,2.00,0.00,0,,,100,94,19,2,0,0,1,1,0,,,,,0.0,0.0,0.0,0.0,0.0,0.0,0
-22.959746,-67.786874,19.70,0.00,1.51,1.41,19.70,19.70,3.50,1.41,11597,2025-11-29 17:33:00.308,2025-11-29 14:33:00.308,14,0,0,45.450,-22.959743,-67.786887,-1.50,0.20,0.00,-15.20,7.00,178.00,0,1,0,97,90,-51711,14423,45450,2931.50,41,WP,1,0,0,0,0,0,0,1764437580307,3747,3755,3734,3749,3754,3772,18,,,,,,,0,0,0,152.00,70.00,1780.00,0.00,-4.00,-3476.00,14,197.00,15.13,14.15,-15.00,2.00,0.00,0,,,100,94,19,2,0,0,1,1,0,,,,,0.0,0.0,0.0,0.0,0.0,0.0,0
-22.959748,-67.786874,19.60,0.00,1.81,1.51,19.70,19.70,3.50,1.51,11689,2025-11-29 17:33:00.400,2025-11-29 14:33:00.400,14,0,0,45.450,-22.959743,-67.786887,-1.80,0.10,0.10,-15.10,7.10,178.00,0,1,0,97,90,-51711,14423,45450,2931.50,41,WP,1,0,0,0,0,0,0,1764437580399,3747,3755,3734,3749,3754,3772,18,,,,,,,0,0,0,151.00,71.00,1780.00,0.00,-4.00,-3470.00,14,196.00,18.06,15.06,-18.00,1.00,1.00,0,,,100,94,19,2,0,0,1,1,0,,,,,0.0,0.0,0.0,0.0,0.0,0.0,0
-22.959750,-67.786874,19.60,0.00,2.10,1.63,19.70,19.70,3.50,1.63,11794,2025-11-29 17:33:00.505,2025-11-29 14:33:00.505,14,0,0,45.450,-22.959743,-67.786887,-2.10,0.10,0.10,-15.10,7.20,178.00,0,1,0,97,90,-51711,14423,45450,2931.50,41,WP,1,0,0,0,0,0,0,1764437580504,3747,3755,3734,3749,3754,3772,18,,,,,,,0,0,0,151.00,72.00,1780.00,0.00,-4.00,-3465.00,14,196.00,21.05,16.26,-21.00,1.00,1.00,0,,,100,94,19,2,0,0,1,1,0,,,,,0.0,0.0,0.0,0.0,0.0,0.0,0
-22.959753,-67.786873,19.60,0.00,2.40,1.81,19.70,19.70,3.50,1.81,11898,2025-11-29 17:33:00.608,2025-11-29 14:33:00.608,14,0,0,45.450,-22.959743,-67.786887,-2.40,0.10,0.10,-14.80,7.10,178.20,0,1,0,97,90,-51711,14423,45450,2931.50,41,WP,1,0,0,0,0,0,0,1764437580608,3747,3755,3734,3749,3754,3772,18,,,,,,,0,0,0,148.00,71.00,1782.00,0.00,-4.00,-3460.00,14,196.00,24.04,18.06,-24.00,1.00,1.00,0,,,100,94,19,2,0,0,1,1,0,,,,,0.0,0.0,0.0,0.0,0.0,0.0,0
-22.959755,-67.786873,19.60,0.00,2.60,2.01,19.70,19.70,3.50,2.01,11994,2025-11-29 17:33:00.705,2025-11-29 14:33:00.705,14,0,0,45.450,-22.959743,-67.786887,-2.60,0.10,0.00,-14.30,6.90,178.30,0,1,0,97,90,-51711,14423,45450,2931.50,41,WP,1,0,0,0,0,0,0,1764437580704,3747,3755,3734,3749,3754,3772,18,,,,,,,0,0,0,143.00,69.00,1783.00,0.00,-4.00,-3458.00,14,196.00,26.02,20.13,-26.00,1.00,0.00,0,,,100,97,19,2,0,0,1,1,0,,,,,0.0,0.0,0.0,0.0,0.0,0.0,0
-22.959759,-67.786873,19.60,0.00,2.90,2.29,19.70,19.70,3.50,2.29,12098,2025-11-29 17:33:00.809,2025-11-29 14:33:00.809,14,0,0,45.450,-22.959743,-67.786887,-2.90,0.10,0.00,-13.40,6.80,178.40,0,1,0,97,90,-51711,14423,45450,2931.50,41,WP,1,0,0,0,0,0,0,1764437580808,3747,3755,3734,3749,3754,3772,18,,,,,,,0,0,0,134.00,68.00,1784.00,0.00,-4.00,-3454.00,14,196.00,29.02,22.87,-29.00,1.00,0.00,0,,,100,97,19,2,0,0,1,1,0,,,,,0.0,0.0,0.0,0.0,0.0,0.0,0
-22.959762,-67.786873,19.60,0.00,3.10,2.58,19.70,19.70,3.50,2.58,12192,2025-11-29 17:33:00.902,2025-11-29 14:33:00.902,14,0,0,45.450,-22.959743,-67.786887,-3.10,0.10,0.00,-12.80,6.80,178.40,0,1,0,97,90,-51711,14423,45450,2931.50,41,WP,1,0,0,0,0,0,0,1764437580902,3747,3755,3734,3749,3754,3772,18,,,,,,,0,0,0,128.00,68.00,1784.00,0.00,-4.00,-3451.00,14,196.00,31.02,25.78,-31.00,1.00,0.00,0,,,100,97,19,2,0,0,1,1,0,,,,,0.0,0.0,0.0,0.0,0.0,0.0,0
-22.959765,-67.786873,19.60,0.00,3.40,2.92,19.70,19.70,3.50,2.92,12294,2025-11-29 17:33:01.004,2025-11-29 14:33:01.005,14,0,0,45.450,-22.959743,-67.786887,-3.40,0.00,0.00,-13.00,7.10,178.40,0,1,0,97,90,-51711,14423,45450,2931.50,41,WP,1,0,0,0,0,0,0,1764437581004,3747,3755,3734,3749,3754,3772,18,,,,,,,0,0,0,130.00,71.00,1784.00,0.00,-4.00,-3449.00,14,196.00,34.00,29.19,-34.00,0.00,0.00,0,,,100,97,19,2,0,0,1,1,0,,,,,0.0,0.0,0.0,0.0,0.0,0.0,0
-22.959769,-67.786872,19.60,0.00,3.60,3.27,19.70,19.70,3.60,3.27,12397,2025-11-29 17:33:01.108,2025-11-29 14:33:01.108,14,0,0,45.450,-22.959743,-67.786887,-3.60,0.00,0.00,-13.50,7.70,178.30,0,1,0,97,90,-51711,14423,45450,2931.50,41,WP,1,0,0,0,0,0,0,1764437581107,3747,3755,3734,3749,3754,3772,18,,,,,,,0,0,0,135.00,77.00,1783.00,0.00,-4.00,-3449.00,14,196.00,36.00,32.74,-36.00,0.00,0.00,0,,,100,97,19,2,0,0,1,1,0,,,,,0.0,0.0,0.0,0.0,0.0,0.0,0
-22.959773,-67.786872,19.60,0.00,3.80,3.69,19.70,19.70,3.80,3.69,12498,2025-11-29 17:33:01.208,2025-11-29 14:33:01.208,14,0,0,45.450,-22.959743,-67.786887,-3.80,0.00,0.00,-13.70,8.10,178.30,0,1,0,97,90,-51711,14423,45450,2931.50,41,WP,1,0,0,0,0,0,0,1764437581208,3747,3755,3734,3749,3754,3772,18,,,,,,,0,0,0,137.00,81.00,1783.00,0.00,-4.00,-3449.00,14,196.00,38.00,36.93,-38.00,0.00,0.00,0,,,100,95,19,2,0,0,1,1,0,,,,,0.0,0.0,0.0,0.0,0.0,0.0,0
-22.959777,-67.786872,19.60,0.00,4.10,4.11,19.70,19.70,4.10,4.11,12595,2025-11-29 17:33:01.306,2025-11-29 14:33:01.306,14,0,0,45.450,-22.959743,-67.786887,-4.10,0.00,0.00,-13.80,8.60,178.30,0,1,0,97,90,-51711,14423,45450,2931.50,41,WP,1,0,0,0,0,0,0,1764437581305,3747,3755,3734,3749,3754,3772,18,,,,,,,0,0,0,138.00,86.00,1783.00,0.00,-4.00,-3449.00,14,196.00,41.00,41.14,-41.00,0.00,0.00,0,,,100,95,19,2,0,0,1,1,0,,,,,0.0,0.0,0.0,0.0,0.0,0.0,0
-22.959782,-67.786872,19.60,0.00,4.30,4.58,19.70,19.70,4.30,4.58,12697,2025-11-29 17:33:01.407,2025-11-29 14:33:01.407,14,0,0,45.450,-22.959743,-67.786887,-4.30,0.00,0.00,-13.60,8.60,178.40,0,1,0,97,90,-51711,14423,45450,2931.50,41,WP,1,0,0,0,0,0,0,1764437581407,3747,3755,3734,3749,3754,3772,18,,,,,,,0,0,0,136.00,86.00,1784.00,0.00,-4.00,-3450.00,14,196.00,43.00,45.80,-43.00,0.00,0.00,0,,,100,95,19,2,0,0,1,1,0,,,,,0.0,0.0,0.0,0.0,0.0,0.0,0
-22.959786,-67.786872,19.60,0.00,4.50,5.05,19.70,19.70,4.50,5.05,12796,2025-11-29 17:33:01.506,2025-11-29 14:33:01.506,14,0,0,45.450,-22.959743,-67.786887,-4.50,0.00,0.00,-13.50,8.80,178.50,0,1,0,97,90,-51711,14423,45450,2931.50,41,WP,1,0,0,0,0,0,0,1764437581506,3747,3755,3734,3749,3754,3772,18,,,,,,,0,0,0,135.00,88.00,1785.00,0.00,-4.00,-3450.00,14,196.00,45.00,50.52,-45.00,0.00,0.00,0,,,100,95,19,2,0,0,1,1,0,,,,,0.0,0.0,0.0,0.0,0.0,0.0,0
-22.959796,-67.786872,19.60,0.00,5.00,6.13,19.70,19.70,5.00,6.13,12999,2025-11-29 17:33:01.709,2025-11-29 14:33:01.709,14,0,0,45.450,-22.959743,-67.786887,-5.00,-0.20,0.00,-12.70,9.00,178.80,0,1,0,97,90,-51711,14423,45450,2931.50,41,WP,1,0,0,0,0,0,0,1764437581709,3747,3755,3734,3749,3754,3772,18,,,,,,,0,0,0,127.00,90.00,1788.00,0.00,-4.00,-3450.00,14,196.00,50.04,61.28,-50.00,-2.00,0.00,0,,,100,95,19,2,0,0,1,1,0,,,,,0.0,0.0,0.0,0.0,0.0,0.0,0
-22.959802,-67.786872,19.60,0.00,5.31,6.71,19.70,19.70,5.31,6.71,13104,2025-11-29 17:33:01.814,2025-11-29 14:33:01.815,14,0,0,45.450,-22.959743,-67.786887,-5.30,-0.30,0.00,-12.30,9.10,178.90,0,1,0,97,90,-51711,14423,45450,2931.50,41,WP,1,0,0,0,0,0,0,1764437581814,3747,3755,3734,3749,3754,3772,18,,,,,,,0,0,0,123.00,91.00,1789.00,0.00,-4.00,-3450.00,14,196.00,53.08,67.11,-53.00,-3.00,0.00,0,,,100,95,19,2,0,0,1,1,0,,,,,0.0,0.0,0.0,0.0,0.0,0.0,0
-22.959807,-67.786873,19.60,0.00,5.51,7.29,19.70,19.70,5.51,7.29,13199,2025-11-29 17:33:01.910,2025-11-29 14:33:01.910,14,0,0,45.450,-22.959743,-67.786887,-5.50,-0.40,0.00,-11.90,9.00,179.10,0,1,0,97,90,-51711,14423,45450,2931.50,41,WP,1,0,0,0,0,0,0,1764437581909,3747,3755,3734,3749,3754,3772,18,,,,,,,0,0,0,119.00,90.00,1791.00,0.00,-4.00,-3450.00,14,196.00,55.15,72.91,-55.00,-4.00,0.00,0,,,100,95,19,2,0,0,1,1,0,,,,,0.0,0.0,0.0,0.0,0.0,0.0,0
-22.959813,-67.786873,19.60,0.00,5.72,7.91,19.70,19.70,5.72,7.91,13305,2025-11-29 17:33:02.015,2025-11-29 14:33:02.015,14,0,0,45.450,-22.959743,-67.786887,-5.70,-0.50,0.00,-11.80,8.40,179.20,0,1,0,97,90,-51711,14423,45450,2931.50,41,WP,1,0,0,0,0,0,0,1764437582015,3747,3755,3734,3749,3754,3772,18,,,,,,,0,0,0,118.00,84.00,1792.00,0.00,-4.00,-3450.00,14,196.00,57.22,79.05,-57.00,-5.00,0.00,0,,,100,95,19,2,0,0,1,1,0,,,,,0.0,0.0,0.0,0.0,0.0,0.0,0
-22.959819,-67.786874,19.60,0.00,5.93,8.52,19.70,19.70,5.93,8.52,13414,2025-11-29 17:33:02.124,2025-11-29 14:33:02.125,14,0,0,45.450,-22.959743,-67.786887,-5.90,-0.60,0.00,-11.90,7.30,179.30,0,1,0,97,90,-51711,14423,45450,2931.50,41,WP,1,0,0,0,0,0,0,1764437582124,3747,3755,3734,3749,3754,3772,18,,,,,,,0,0,0,119.00,73.00,1793.00,0.00,-4.00,-3450.00,14,196.00,59.30,85.20,-59.00,-6.00,0.00,0,,,100,95,19,2,0,0,1,1,0,,,,,0.0,0.0,0.0,0.0,0.0,0.0,0
-22.959825,-67.786874,19.50,0.00,6.13,9.20,19.70,19.70,6.13,9.20,13501,2025-11-29 17:33:02.212,2025-11-29 14:33:02.212,14,0,0,45.450,-22.959743,-67.786887,-6.10,-0.60,0.00,-12.20,5.80,179.30,0,1,0,97,90,-51711,14423,45450,2931.50,41,WP,1,0,0,0,0,0,0,1764437582211,3747,3755,3734,3749,3754,3772,18,,,,,,,0,0,0,122.00,58.00,1793.00,0.00,-4.00,-3450.00,14,195.00,61.29,92.02,-61.00,-6.00,0.00,0,,,100,95,19,2,0,0,1,1,0,,,,,0.0,0.0,0.0,0.0,0.0,0.0,0
-22.959831,-67.786875,19.50,0.00,6.33,9.87,19.70,19.70,6.33,9.87,13605,2025-11-29 17:33:02.315,2025-11-29 14:33:02.315,14,0,0,45.450,-22.959743,-67.786887,-6.30,-0.60,0.00,-12.60,4.70,179.20,0,1,0,97,90,-51711,14423,45450,2931.50,41,WP,1,0,0,0,0,0,0,1764437582315,3747,3755,3734,3749,3754,3772,18,,,,,,,0,0,0,126.00,47.00,1792.00,0.00,-4.00,-3450.00,14,195.00,63.29,98.74,-63.00,-6.00,0.00,0,,,100,95,19,2,0,0,1,1,0,,,,,0.0,0.0,0.0,0.0,0.0,0.0,0
