latitude,longitude,altitude(m),ultrasonicHeight(m),speed(mps),distance(m),max_altitude(m),max_ascent(m),max_speed(mps),max_distance(m),time(millisecond),datetime(utc),datetime(local),satellites,pressure(Pa),temperature(F),voltage(v),home_latitude,home_longitude,velocityX(mps),velocityY(mps),velocityZ(mps),pitch(deg),roll(deg),yaw(deg),powerlevel,isflying,istakingphoto,remainPowerPercent,remainLifePercent,currentCurrent,currentElectricity,currentVoltage,batteryTemperature,dischargeCount,flightmode,isMotorsOn,isTakingVideo,Rc_elevator,Rc_aileron,Rc_throttle,Rc_rudder,Rc_gyro,timestamp,Battery_Cell1,Battery_Cell2,Battery_Cell3,Battery_Cell4,Battery_Cell5,Battery_Cell6,Dronetype,AppVersion,Planename,FlyControllerSerialNumber,RemoteSerialNumber,BatterySerialNumber,CENTER_BATTERY.productDate,CENTER_BATTERY.serialNo,CENTER_BATTERY.fullCapacity,CENTER_BATTERY.productDateRaw,pitchRaw,rollRaw,yawRaw,gimbalPitchRaw,gimbalRollRaw,gimbalYawRaw,flyState,altitudeRaw,speedRaw,distanceRaw,velocityXRaw,velocityYRaw,velocityZRaw,data_reuse,App_Tip,App_Warning,downlinkSignalQuality,uplinkSignalQuality,transmissionChannel,rcModeSwitch,rcHome,rcPause,rcTransform,rcJoystickMode,appMode,FlyControllerSerialNumber_legacy,RemoteSerialNumber_legacy,BatterySerialNumber_legacy,Battery2SerialNumber,frontAvoidDist,backAvoidDist,rightAvoidDist,leftAvoidDist,upAvoidDist,downAvoidDist,isBrakingToAvoid
-22.959743,-67.786896,0.70,0.00,0.73,0.30,0.70,0.70,0.73,0.30,3,2025-12-01 16:51:27.656,2025-12-01 13:51:27.657,15,0,0,51.961,-22.959743,-67.786899,0.10,0.20,-0.70,1.20,1.10,105.00,0,1,0,98,96,-1899,15858,51961,2951.50,18,TakeOff,1,0,0,0,0,0,0,1764607887656,4323,4328,4328,4330,4331,4327,18,Litchi_iOS_2.15.7,EIK Matrice 1,0670131556,03LLCA05XT,,,0,16074,0,-12.00,11.00,1050.00,0.00,2.00,4.00,11,7.00,7.35,2.98,1.00,2.00,-7.00,0,,,100,100,17,2,0,0,1,1,0,(null),(null),(null),(null),0.0,0.0,0.0,0.0,0.0,0.0,0
-22.959742,-67.786896,0.70,0.00,0.73,0.33,0.70,0.70,0.73,0.33,115,2025-12-01 16:51:27.769,2025-12-01 13:51:27.769,17,0,0,51.961,-22.959743,-67.786899,0.10,0.20,-0.70,1.20,1.40,105.00,0,1,0,98,96,-1899,15858,51961,2951.50,18,TakeOff,1,0,0,0,0,0,0,1764607887768,4323,4328,4328,4330,4331,4327,18,,,,,,,0,0,0,-12.00,14.00,1050.00,0.00,3.00,4.00,11,7.00,7.35,3.33,1.00,2.00,-7.00,0,,,100,100,17,2,0,0,1,1,0,,,,,0.0,0.0,0.0,0.0,0.0,0.0,0
-22.959742,-67.786895,0.80,0.00,0.64,0.36,0.80,0.80,0.73,0.36,194,2025-12-01 16:51:27.848,2025-12-01 13:51:27.848,17,0,0,51.961,-22.959743,-67.786899,0.10,0.20,-0.60,1.40,1.40,105.00,0,1,0,98,96,-1899,15858,51961,2951.50,18,TakeOff,1,0,0,0,0,0,0,1764607887847,4323,4328,4328,4330,4331,4327,18,,,,,,,0,0,0,-14.00,14.00,1050.00,1.00,2.00,4.00,11,8.00,6.40,3.64,1.00,2.00,-6.00,0,,,100,100,17,2,0,0,1,1,0,,,,,0.0,0.0,0.0,0.0,0.0,0.0,0
-22.959742,-67.786895,0.90,0.00,0.55,0.39,0.90,0.90,0.73,0.39,314,2025-12-01 16:51:27.968,2025-12-01 13:51:27.968,17,0,0,51.961,-22.959743,-67.786899,0.10,0.20,-0.50,1.30,1.00,105.10,0,1,0,98,96,-1899,15858,51961,2951.50,18,TakeOff,1,0,0,0,0,0,0,1764607887967,4323,4328,4328,4330,4331,4327,18,,,,,,,0,0,0,-13.00,10.00,1051.00,0.00,3.00,4.00,11,9.00,5.48,3.91,1.00,2.00,-5.00,0,,,100,100,17,2,0,0,1,1,0,,,,,0.0,0.0,0.0,0.0,0.0,0.0,0
-22.959742,-67.786895,0.90,0.00,0.52,0.42,0.90,0.90,0.73,0.42,395,2025-12-01 16:51:28.048,2025-12-01 13:51:28.048,17,0,0,51.961,-22.959743,-67.786899,0.10,0.10,-0.50,1.10,1.00,105.20,0,1,0,98,96,-1899,15858,51961,2951.50,18,TakeOff,1,0,0,0,0,0,0,1764607888048,4323,4328,4328,4330,4331,4327,18,,,,,,,0,0,0,-11.00,10.00,1052.00,2.00,2.00,3.00,11,9.00,5.20,4.16,1.00,1.00,-5.00,0,,,100,100,17,2,0,0,1,1,0,,,,,0.0,0.0,0.0,0.0,0.0,0.0,0
-22.959742,-67.786895,0.90,0.00,0.42,0.44,0.90,0.90,0.73,0.44,505,2025-12-01 16:51:28.159,2025-12-01 13:51:28.159,16,0,0,51.961,-22.959743,-67.786899,0.10,0.10,-0.40,1.10,1.10,105.30,0,1,0,98,96,-1899,15858,51961,2951.50,18,TakeOff,1,0,0,0,0,0,0,1764607888158,4323,4328,4328,4330,4331,4327,18,,,,,,,0,0,0,-11.00,11.00,1053.00,1.00,3.00,2.00,11,9.00,4.24,4.37,1.00,1.00,-4.00,0,,,100,100,17,2,0,0,1,1,0,,,,,0.0,0.0,0.0,0.0,0.0,0.0,0
-22.959742,-67.786895,1.00,0.00,0.33,0.46,1.00,1.00,0.73,0.46,614,2025-12-01 16:51:28.267,2025-12-01 13:51:28.268,15,0,0,51.961,-22.959743,-67.786899,0.10,0.10,-0.30,1.30,1.30,105.40,0,1,0,98,96,-1899,15858,51961,2951.50,18,TakeOff,1,0,0,0,0,0,0,1764607888267,4323,4328,4328,4330,4331,4327,18,,,,,,,0,0,0,-13.00,13.00,1054.00,0.00,3.00,1.00,11,10.00,3.32,4.58,1.00,1.00,-3.00,0,,,100,100,17,2,0,0,1,1,0,,,,,0.0,0.0,0.0,0.0,0.0,0.0,0
-22.959741,-67.786894,1.00,0.00,0.33,0.48,1.00,1.00,0.73,0.48,698,2025-12-01 16:51:28.351,2025-12-01 13:51:28.351,15,0,0,51.961,-22.959743,-67.786899,0.10,0.10,-0.30,1.30,1.50,105.40,0,1,0,98,96,-1899,15858,51961,2951.50,18,TakeOff,1,0,0,0,0,0,0,1764607888351,4323,4328,4328,4330,4331,4327,18,,,,,,,0,0,0,-13.00,15.00,1054.00,1.00,2.00,0.00,11,10.00,3.32,4.76,1.00,1.00,-3.00,0,,,100,100,17,2,0,0,1,1,0,,,,,0.0,0.0,0.0,0.0,0.0,0.0,0
-22.959741,-67.786894,1.00,0.00,0.24,0.49,1.00,1.00,0.73,0.49,806,2025-12-01 16:51:28.459,2025-12-01 13:51:28.460,15,0,0,51.961,-22.959743,-67.786899,0.10,0.10,-0.20,1.10,1.70,105.30,0,1,0,98,96,-1899,15858,51961,2951.50,18,TakeOff,1,0,0,0,0,0,0,1764607888459,4323,4328,4328,4330,4331,4327,18,,,,,,,0,0,0,-11.00,17.00,1053.00,0.00,3.00,1.00,11,10.00,2.45,4.93,1.00,1.00,-2.00,0,,,100,100,17,2,0,0,1,1,0,,,,,0.0,0.0,0.0,0.0,0.0,0.0,0
-22.959741,-67.786894,1.00,0.00,0.24,0.50,1.00,1.00,0.73,0.50,913,2025-12-01 16:51:28.566,2025-12-01 13:51:28.566,16,0,0,51.961,-22.959743,-67.786899,0.10,0.10,-0.20,0.90,2.20,105.20,0,1,0,98,96,-1899,15858,51961,2951.50,18,WP,1,0,0,0,0,0,0,1764607888566,4323,4328,4328,4330,4331,4327,18,,,,,,,0,0,0,-9.00,22.00,1052.00,1.00,3.00,1.00,14,10.00,2.45,4.98,1.00,1.00,-2.00,0,,,100,100,17,2,0,0,1,1,0,,,,,0.0,0.0,0.0,0.0,0.0,0.0,0
-22.959741,-67.786894,1.10,0.00,0.22,0.51,1.10,1.10,0.73,0.51,1004,2025-12-01 16:51:28.658,2025-12-01 13:51:28.658,16,0,0,51.961,-22.959743,-67.786899,0.10,0.00,-0.20,0.80,2.20,105.20,0,1,0,98,96,-1899,15858,51961,2951.50,18,WP,1,0,0,0,0,0,0,1764607888657,4323,4328,4328,4330,4331,4327,18,,,,,,,0,0,0,-8.00,22.00,1052.00,1.00,3.00,2.00,14,11.00,2.24,5.08,1.00,0.00,-2.00,0,,,100,100,17,2,0,0,1,1,0,,,,,0.0,0.0,0.0,0.0,0.0,0.0,0
-22.959741,-67.786894,1.10,0.00,0.28,0.53,1.10,1.10,0.73,0.53,1103,2025-12-01 16:51:28.757,2025-12-01 13:51:28.757,17,0,0,51.961,-22.959743,-67.786899,0.20,0.00,-0.20,0.60,2.00,105.30,0,1,0,98,96,-1899,15858,51961,2951.50,18,WP,1,0,0,0,0,0,0,1764607888756,4323,4328,4328,4330,4331,4327,18,,,,,,,0,0,0,-6.00,20.00,1053.00,0.00,2.00,2.00,14,11.00,2.83,5.29,2.00,0.00,-2.00,0,,,100,100,17,2,0,0,1,1,0,,,,,0.0,0.0,0.0,0.0,0.0,0.0,0
-22.959740,-67.786894,1.10,0.00,0.30,0.55,1.10,1.10,0.73,0.55,1205,2025-12-01 16:51:28.859,2025-12-01 13:51:28.859,17,0,0,51.961,-22.959743,-67.786899,0.20,0.10,-0.20,0.20,1.90,105.30,0,1,0,98,96,-1899,15858,51961,2951.50,18,WP,1,0,0,0,0,0,0,1764607888858,4323,4328,4328,4330,4331,4327,18,,,,,,,0,0,0,-2.00,19.00,1053.00,0.00,2.00,1.00,14,11.00,3.00,5.49,2.00,1.00,-2.00,0,,,100,100,17,2,0,0,1,1,0,,,,,0.0,0.0,0.0,0.0,0.0,0.0,0
-22.959740,-67.786894,1.10,0.00,0.30,0.57,1.10,1.10,0.73,0.57,1305,2025-12-01 16:51:28.958,2025-12-01 13:51:28.958,17,0,0,49.578,-22.959743,-67.786899,0.20,0.10,-0.20,-0.10,1.80,105.30,0,1,0,98,96,-42581,15858,49578,2951.50,18,WP,1,0,0,0,0,0,0,1764607888958,4323,4328,4328,4330,4331,4327,18,,,,,,,0,0,0,1.00,18.00,1053.00,0.00,3.00,1.00,14,11.00,3.00,5.69,2.00,1.00,-2.00,0,,,100,100,17,2,0,0,1,1,0,,,,,0.0,0.0,0.0,0.0,0.0,0.0,0
-22.959740,-67.786894,1.20,0.00,0.46,0.59,1.20,1.20,0.73,0.59,1411,2025-12-01 16:51:29.065,2025-12-01 13:51:29.065,17,0,0,49.578,-22.959743,-67.786899,0.20,0.10,-0.40,0.00,1.70,105.20,0,1,0,98,96,-42581,15858,49578,2951.50,18,WP,1,0,0,0,0,0,0,1764607889064,4323,4328,4328,4330,4331,4327,18,,,,,,,0,0,0,-0.00,17.00,1052.00,1.00,3.00,2.00,14,12.00,4.58,5.91,2.00,1.00,-4.00,0,,,100,100,17,2,0,0,1,1,0,,,,,0.0,0.0,0.0,0.0,0.0,0.0,0
-22.959740,-67.786894,1.20,0.00,0.55,0.62,1.20,1.20,0.73,0.62,1513,2025-12-01 16:51:29.167,2025-12-01 13:51:29.167,17,0,0,49.578,-22.959743,-67.786899,0.20,0.10,-0.50,0.20,2.10,105.10,0,1,0,98,96,-42581,15858,49578,2951.50,18,WP,1,0,0,0,0,0,0,1764607889166,4323,4328,4328,4330,4331,4327,18,,,,,,,0,0,0,-2.00,21.00,1051.00,1.00,3.00,3.00,14,12.00,5.48,6.25,2.00,1.00,-5.00,0,,,100,100,17,2,0,0,1,1,0,,,,,0.0,0.0,0.0,0.0,0.0,0.0,0
-22.959739,-67.786894,1.30,0.00,0.73,0.66,1.30,1.30,0.73,0.66,1615,2025-12-01 16:51:29.269,2025-12-01 13:51:29.269,17,0,0,49.578,-22.959743,-67.786899,0.20,0.10,-0.70,0.60,2.40,105.20,0,1,0,98,96,-42581,15858,49578,2951.50,18,WP,1,0,0,0,0,0,0,1764607889268,4323,4328,4328,4330,4331,4327,18,,,,,,,0,0,0,-6.00,24.00,1052.00,1.00,3.00,3.00,14,13.00,7.35,6.57,2.00,1.00,-7.00,0,,,100,100,17,2,0,0,1,1,0,,,,,0.0,0.0,0.0,0.0,0.0,0.0,0
-22.959739,-67.786894,1.40,0.00,0.93,0.69,1.40,1.40,0.93,0.69,1704,2025-12-01 16:51:29.357,2025-12-01 13:51:29.357,17,0,0,49.578,-22.959743,-67.786899,0.20,0.10,-0.90,1.20,2.80,105.40,0,1,0,98,96,-42581,15858,49578,2951.50,18,WP,1,0,0,0,0,0,0,1764607889357,4323,4328,4328,4330,4331,4327,18,,,,,,,0,0,0,-12.00,28.00,1054.00,2.00,3.00,2.00,14,14.00,9.27,6.94,2.00,1.00,-9.00,0,,,100,100,17,2,0,0,1,1,0,,,,,0.0,0.0,0.0,0.0,0.0,0.0,0
-22.959739,-67.786894,1.50,0.00,1.22,0.73,1.50,1.50,1.22,0.73,1817,2025-12-01 16:51:29.471,2025-12-01 13:51:29.471,17,0,0,49.578,-22.959743,-67.786899,0.20,0.10,-1.20,1.30,3.40,105.50,0,1,0,98,96,-42581,15858,49578,2951.50,18,WP,1,0,0,0,0,0,0,1764607889470,4323,4328,4328,4330,4331,4327,18,,,,,,,0,0,0,-13.00,34.00,1055.00,1.00,3.00,0.00,14,15.00,12.21,7.26,2.00,1.00,-12.00,0,,,100,100,17,2,0,0,1,1,0,,,,,0.0,0.0,0.0,0.0,0.0,0.0,0
-22.959738,-67.786893,1.60,0.00,1.52,0.76,1.60,1.60,1.52,0.76,1824,2025-12-01 16:51:29.478,2025-12-01 13:51:29.478,17,0,0,49.578,-22.959743,-67.786899,0.20,0.10,-1.50,1.30,4.10,105.70,0,1,0,98,96,-42581,15858,49578,2951.50,18,WP,1,0,0,0,0,0,0,1764607889477,4323,4328,4328,4330,4331,4327,18,,,,,,,0,0,0,-13.00,41.00,1057.00,1.00,3.00,-1.00,14,16.00,15.17,7.59,2.00,1.00,-15.00,0,,,100,100,17,2,0,0,1,1,0,,,,,0.0,0.0,0.0,0.0,0.0,0.0,0
-22.959738,-67.786893,1.80,0.00,1.81,0.78,1.80,1.80,1.81,0.78,2012,2025-12-01 16:51:29.666,2025-12-01 13:51:29.666,17,0,0,49.578,-22.959743,-67.786899,0.10,0.10,-1.80,0.70,4.50,105.80,0,1,0,98,96,-42581,15858,49578,2951.50,18,WP,1,0,0,0,0,0,0,1764607889665,4323,4328,4328,4330,4331,4327,18,,,,,,,0,0,0,-7.00,45.00,1058.00,0.00,3.00,-3.00,14,18.00,18.06,7.84,1.00,1.00,-18.00,0,,,100,100,17,2,0,0,1,1,0,,,,,0.0,0.0,0.0,0.0,0.0,0.0,0
-22.959738,-67.786893,2.00,0.00,2.10,0.80,2.00,2.00,2.10,0.80,2115,2025-12-01 16:51:29.769,2025-12-01 13:51:29.769,18,0,0,49.578,-22.959743,-67.786899,0.10,0.00,-2.10,0.30,4.30,106.10,0,1,0,98,96,-42581,15858,49578,2951.50,18,WP,1,0,0,0,0,0,0,1764607889768,4323,4328,4328,4330,4331,4327,18,,,,,,,0,0,0,-3.00,43.00,1061.00,0.00,3.00,-4.00,14,20.00,21.02,8.01,1.00,0.00,-21.00,0,,,100,100,17,2,0,0,1,1,0,,,,,0.0,0.0,0.0,0.0,0.0,0.0,0
-22.959738,-67.786893,2.20,0.00,2.40,0.81,2.20,2.20,2.40,0.81,2215,2025-12-01 16:51:29.869,2025-12-01 13:51:29.869,18,0,0,49.578,-22.959743,-67.786899,0.10,0.00,-2.40,0.40,3.90,106.20,0,1,0,98,96,-42581,15858,49578,2951.50,18,WP,1,0,0,0,0,0,0,1764607889868,4323,4328,4328,4330,4331,4327,18,,,,,,,0,0,0,-4.00,39.00,1062.00,1.00,2.00,-6.00,14,22.00,24.02,8.13,1.00,0.00,-24.00,0,,,100,100,17,2,0,0,1,1,0,,,,,0.0,0.0,0.0,0.0,0.0,0.0,0
-22.959738,-67.786893,2.50,0.00,2.70,0.82,2.50,2.50,2.70,0.82,2312,2025-12-01 16:51:29.966,2025-12-01 13:51:29.966,18,0,0,49.578,-22.959743,-67.786899,0.00,0.00,-2.70,0.30,4.10,106.20,0,1,0,98,96,-42581,15858,49578,2951.50,18,WP,1,0,0,0,0,0,0,1764607889965,4323,4328,4328,4330,4331,4327,18,,,,,,,0,0,0,-3.00,41.00,1062.00,0.00,3.00,-7.00,14,25.00,27.00,8.18,0.00,0.00,-27.00,0,,,100,100,17,2,0,0,1,1,0,,,,,0.0,0.0,0.0,0.0,0.0,0.0,0
-22.959738,-67.786893,2.80,0.00,3.00,0.82,2.80,2.80,3.00,0.82,2411,2025-12-01 16:51:30.064,2025-12-01 13:51:30.064,18,0,0,49.578,-22.959743,-67.786899,0.00,0.00,-3.00,0.30,4.60,106.30,0,1,0,98,96,-42581,15858,49578,2951.50,18,WP,1,0,0,0,0,0,0,1764607890064,4323,4328,4328,4330,4331,4327,18,,,,,,,0,0,0,-3.00,46.00,1063.00,0.00,3.00,-8.00,14,28.00,30.00,8.21,0.00,0.00,-30.00,0,,,100,100,17,2,0,0,1,1,0,,,,,0.0,0.0,0.0,0.0,0.0,0.0,0
-22.959738,-67.786893,3.10,0.00,3.20,0.82,3.10,3.10,3.20,0.82,2516,2025-12-01 16:51:30.169,2025-12-01 13:51:30.169,18,0,0,49.578,-22.959743,-67.786899,0.00,0.00,-3.20,0.20,4.70,106.20,0,1,0,98,96,-42581,15858,49578,2951.50,18,WP,1,0,0,0,0,0,0,1764607890169,4323,4328,4328,4330,4331,4327,18,,,,,,,0,0,0,-2.00,47.00,1062.00,0.00,3.00,-8.00,14,31.00,32.00,8.22,0.00,0.00,-32.00,0,,,100,100,17,2,0,0,1,1,0,,,,,0.0,0.0,0.0,0.0,0.0,0.0,0
-22.959738,-67.786893,3.40,0.00,3.40,0.82,3.40,3.40,3.40,0.82,2523,2025-12-01 16:51:30.177,2025-12-01 13:51:30.177,18,0,0,49.578,-22.959743,-67.786899,0.00,0.10,-3.40,0.10,3.90,105.70,0,1,0,98,96,-42581,15858,49578,2951.50,18,WP,1,0,0,0,0,0,0,1764607890176,4323,4328,4328,4330,4331,4327,18,,,,,,,0,0,0,-1.00,39.00,1057.00,1.00,3.00,-5.00,14,34.00,34.01,8.21,0.00,1.00,-34.00,0,,,100,100,17,2,0,0,1,1,0,,,,,0.0,0.0,0.0,0.0,0.0,0.0,0
-22.959738,-67.786893,3.70,0.00,3.40,0.81,3.70,3.70,3.40,0.82,2616,2025-12-01 16:51:30.269,2025-12-01 13:51:30.269,18,0,0,49.578,-22.959743,-67.786899,-0.10,0.10,-3.40,0.30,2.70,105.20,0,1,0,98,96,-42581,15858,49578,2951.50,18,WP,1,0,0,0,0,0,0,1764607890269,4323,4328,4328,4330,4331,4327,18,,,,,,,0,0,0,-3.00,27.00,1052.00,0.00,3.00,0.00,14,37.00,34.03,8.15,-1.00,1.00,-34.00,0,,,100,100,17,2,0,0,1,1,0,,,,,0.0,0.0,0.0,0.0,0.0,0.0,0
-22.959738,-67.786893,4.10,0.00,3.50,0.81,4.10,4.10,3.50,0.82,2814,2025-12-01 16:51:30.467,2025-12-01 13:51:30.467,18,0,0,49.578,-22.959743,-67.786899,-0.10,0.10,-3.50,1.00,1.70,104.90,0,1,0,98,96,-42581,15858,49578,2951.50,18,WP,1,0,0,0,0,0,0,1764607890467,4323,4328,4328,4330,4331,4327,18,,,,,,,0,0,0,-10.00,17.00,1049.00,1.00,3.00,4.00,14,41.00,35.03,8.10,-1.00,1.00,-35.00,0,,,100,100,17,2,0,0,1,1,0,,,,,0.0,0.0,0.0,0.0,0.0,0.0,0
-22.959738,-67.786893,4.40,0.00,3.51,0.81,4.40,4.40,3.51,0.82,2916,2025-12-01 16:51:30.570,2025-12-01 13:51:30.570,17,0,0,49.578,-22.959743,-67.786899,-0.10,0.20,-3.50,2.00,1.30,104.90,0,1,0,98,96,-42581,15858,49578,2951.50,18,WP,1,0,0,0,0,0,0,1764607890569,4323,4328,4328,4330,4331,4327,18,,,,,,,0,0,0,-20.00,13.00,1049.00,1.00,2.00,6.00,14,44.00,35.07,8.13,-1.00,2.00,-35.00,0,,,100,100,17,2,0,0,1,1,0,,,,,0.0,0.0,0.0,0.0,0.0,0.0,0
-22.959739,-67.786892,4.70,0.00,3.41,0.82,4.70,4.70,3.51,0.82,2932,2025-12-01 16:51:30.585,2025-12-01 13:51:30.585,17,0,0,49.578,-22.959743,-67.786899,-0.10,0.20,-3.40,3.00,1.90,104.90,0,1,0,98,96,-42581,15858,49578,2951.50,18,WP,1,0,0,0,0,0,0,1764607890585,4323,4328,4328,4330,4331,4327,18,,,,,,,0,0,0,-30.00,19.00,1049.00,0.00,3.00,5.00,14,47.00,34.07,8.18,-1.00,2.00,-34.00,0,,,100,100,17,2,0,0,1,1,0,,,,,0.0,0.0,0.0,0.0,0.0,0.0,0
-22.959739,-67.786892,5.00,0.00,3.41,0.83,5.00,5.00,3.51,0.83,3015,2025-12-01 16:51:30.668,2025-12-01 13:51:30.668,18,0,0,49.578,-22.959743,-67.786899,-0.10,0.20,-3.40,3.50,3.00,104.80,0,1,0,98,96,-42581,15858,49578,2951.50,18,WP,1,0,0,0,0,0,0,1764607890668,4323,4328,4328,4330,4331,4327,18,,,,,,,0,0,0,-35.00,30.00,1048.00,1.00,3.00,5.00,14,50.00,34.07,8.31,-1.00,2.00,-34.00,0,,,100,100,17,2,0,0,1,1,0,,,,,0.0,0.0,0.0,0.0,0.0,0.0,0
-22.959739,-67.786892,5.30,0.00,3.31,0.84,5.30,5.30,3.51,0.84,3116,2025-12-01 16:51:30.770,2025-12-01 13:51:30.770,18,0,0,49.578,-22.959743,-67.786899,-0.10,0.20,-3.30,3.60,4.30,104.80,0,1,0,98,96,-42581,15858,49578,2951.50,18,WP,1,0,0,0,0,0,0,1764607890769,4323,4328,4328,4330,4331,4327,18,,,,,,,0,0,0,-36.00,43.00,1048.00,0.00,2.00,6.00,14,53.00,33.08,8.42,-1.00,2.00,-33.00,0,,,100,100,17,2,0,0,1,1,0,,,,,0.0,0.0,0.0,0.0,0.0,0.0,0
-22.959739,-67.786892,5.70,0.00,3.21,0.85,5.70,5.70,3.51,0.85,3220,2025-12-01 16:51:30.873,2025-12-01 13:51:30.873,18,0,0,49.578,-22.959743,-67.786899,-0.10,0.20,-3.20,3.50,4.90,104.90,0,1,0,98,96,-42581,15858,49578,2951.50,18,WP,1,0,0,0,0,0,0,1764607890873,4323,4328,4328,4330,4331,4327,18,,,,,,,0,0,0,-35.00,49.00,1049.00,0.00,3.00,5.00,14,57.00,32.08,8.50,-1.00,2.00,-32.00,0,,,100,100,17,2,0,0,1,1,0,,,,,0.0,0.0,0.0,0.0,0.0,0.0,0
-22.959739,-67.786892,6.00,0.00,3.11,0.86,6.00,6.00,3.51,0.86,3317,2025-12-01 16:51:30.970,2025-12-01 13:51:30.970,18,0,0,48.429,-22.959743,-67.786899,-0.20,0.20,-3.10,2.90,4.10,105.10,0,1,0,98,96,-54520,15858,48429,2951.50,18,WP,1,0,0,0,0,0,0,1764607890970,4323,4328,4328,4330,4331,4327,18,,,,,,,0,0,0,-29.00,41.00,1051.00,0.00,2.00,4.00,14,60.00,31.13,8.56,-2.00,2.00,-31.00,0,,,100,100,17,2,0,0,1,1,0,,,,,0.0,0.0,0.0,0.0,0.0,0.0,0
-22.959739,-67.786891,6.30,0.00,3.11,0.86,6.30,6.30,3.51,0.86,3419,2025-12-01 16:51:31.072,2025-12-01 13:51:31.073,18,0,0,48.429,-22.959743,-67.786899,-0.20,0.10,-3.10,2.70,2.50,105.20,0,1,0,98,96,-54520,15858,48429,2951.50,18,WP,1,0,0,0,0,0,0,1764607891072,4323,4328,4328,4330,4331,4327,18,,,,,,,0,0,0,-27.00,25.00,1052.00,0.00,2.00,3.00,14,63.00,31.08,8.57,-2.00,1.00,-31.00,0,,,100,99,17,2,0,0,1,1,0,,,,,0.0,0.0,0.0,0.0,0.0,0.0,0
-22.959740,-67.786891,6.60,0.00,3.01,0.86,6.60,6.60,3.51,0.86,3523,2025-12-01 16:51:31.177,2025-12-01 13:51:31.177,18,0,0,48.429,-22.959743,-67.786899,-0.20,0.10,-3.00,3.40,1.40,105.20,0,1,0,98,96,-54520,15858,48429,2951.50,18,WP,1,0,0,0,0,0,0,1764607891176,4323,4328,4328,4330,4331,4327,18,,,,,,,0,0,0,-34.00,14.00,1052.00,1.00,2.00,3.00,14,66.00,30.08,8.58,-2.00,1.00,-30.00,0,,,100,99,17,2,0,0,1,1,0,,,,,0.0,0.0,0.0,0.0,0.0,0.0,0
-22.959740,-67.786891,6.90,0.00,3.00,0.86,6.90,6.90,3.51,0.86,3631,2025-12-01 16:51:31.285,2025-12-01 13:51:31.285,18,0,0,48.429,-22.959743,-67.786899,-0.10,0.10,-3.00,4.20,0.50,105.20,0,1,0,98,96,-54520,15858,48429,2951.50,18,WP,1,0,0,0,0,0,0,1764607891284,4323,4328,4328,4330,4331,4327,18,,,,,,,0,0,0,-42.00,5.00,1052.00,1.00,2.00,3.00,14,69.00,30.03,8.62,-1.00,1.00,-30.00,0,,,100,99,17,2,0,0,1,1,0,,,,,0.0,0.0,0.0,0.0,0.0,0.0,0
-22.959740,-67.786891,7.20,0.00,3.00,0.86,7.20,7.20,3.51,0.86,3724,2025-12-01 16:51:31.377,2025-12-01 13:51:31.377,18,0,0,48.429,-22.959743,-67.786899,-0.10,0.00,-3.00,4.60,0.00,105.10,0,1,0,98,96,-54520,15858,48429,2951.50,18,WP,1,0,0,0,0,0,0,1764607891377,4323,4328,4328,4330,4331,4327,18,,,,,,,0,0,0,-46.00,0.00,1051.00,1.00,2.00,3.00,14,72.00,30.02,8.65,-1.00,0.00,-30.00,0,,,100,99,17,2,0,0,1,1,0,,,,,0.0,0.0,0.0,0.0,0.0,0.0,0
-22.959740,-67.786891,7.50,0.00,3.00,0.86,7.50,7.50,3.51,0.86,3831,2025-12-01 16:51:31.485,2025-12-01 13:51:31.485,18,0,0,48.429,-22.959743,-67.786899,0.00,0.00,-3.00,4.60,-0.10,105.10,0,1,0,98,96,-54520,15858,48429,2951.50,18,WP,1,0,0,0,0,0,0,1764607891484,4323,4328,4328,4330,4331,4327,18,,,,,,,0,0,0,-46.00,-1.00,1051.00,0.00,2.00,3.00,14,75.00,30.00,8.60,0.00,0.00,-30.00,0,,,100,99,17,2,0,0,1,1,0,,,,,0.0,0.0,0.0,0.0,0.0,0.0,0
-22.959740,-67.786891,7.80,0.00,3.10,0.86,7.80,7.80,3.51,0.86,3932,2025-12-01 16:51:31.586,2025-12-01 13:51:31.586,18,0,0,48.429,-22.959743,-67.786899,0.00,0.00,-3.10,4.30,0.20,105.10,0,1,0,98,96,-54520,15858,48429,2951.50,18,WP,1,0,0,0,0,0,0,1764607891585,4323,4328,4328,4330,4331,4327,18,,,,,,,0,0,0,-43.00,2.00,1051.00,0.00,3.00,3.00,14,78.00,31.00,8.55,0.00,0.00,-31.00,0,,,100,99,17,2,0,0,1,1,0,,,,,0.0,0.0,0.0,0.0,0.0,0.0,0
-22.959740,-67.786891,8.10,0.00,3.10,0.85,8.10,8.10,3.51,0.86,4032,2025-12-01 16:51:31.685,2025-12-01 13:51:31.685,18,0,0,48.429,-22.959743,-67.786899,0.00,0.00,-3.10,3.60,1.00,105.10,0,1,0,98,96,-54520,15858,48429,2951.50,18,WP,1,0,0,0,0,0,0,1764607891685,4323,4328,4328,4330,4331,4327,18,,,,,,,0,0,0,-36.00,10.00,1051.00,0.00,3.00,3.00,14,81.00,31.00,8.52,0.00,0.00,-31.00,0,,,100,99,17,2,0,0,1,1,0,,,,,0.0,0.0,0.0,0.0,0.0,0.0,0
-22.959740,-67.786891,8.40,0.00,3.10,0.85,8.40,8.40,3.51,0.86,4133,2025-12-01 16:51:31.787,2025-12-01 13:51:31.787,18,0,0,48.429,-22.959743,-67.786899,0.00,0.00,-3.10,2.60,1.50,105.20,0,1,0,98,96,-54520,15858,48429,2951.50,18,WP,1,0,0,0,0,0,0,1764607891786,4323,4328,4328,4330,4331,4327,18,,,,,,,0,0,0,-26.00,15.00,1052.00,0.00,3.00,3.00,14,84.00,31.00,8.47,0.00,0.00,-31.00,0,,,100,99,17,2,0,0,1,1,0,,,,,0.0,0.0,0.0,0.0,0.0,0.0,0
-22.959740,-67.786891,8.70,0.00,3.10,0.84,8.70,8.70,3.51,0.86,4228,2025-12-01 16:51:31.882,2025-12-01 13:51:31.882,18,0,0,48.429,-22.959743,-67.786899,0.00,0.00,-3.10,2.00,2.00,105.20,0,1,0,98,96,-54520,15858,48429,2951.50,18,WP,1,0,0,0,0,0,0,1764607891881,4323,4328,4328,4330,4331,4327,18,,,,,,,0,0,0,-20.00,20.00,1052.00,0.00,3.00,3.00,14,87.00,31.00,8.45,0.00,0.00,-31.00,0,,,100,99,17,2,0,0,1,1,0,,,,,0.0,0.0,0.0,0.0,0.0,0.0,0
-22.959740,-67.786891,9.00,0.00,3.10,0.84,9.00,9.00,3.51,0.86,4333,2025-12-01 16:51:31.986,2025-12-01 13:51:31.986,18,0,0,48.429,-22.959743,-67.786899,0.00,0.00,-3.10,1.90,2.70,105.30,0,1,0,98,96,-54520,15858,48429,2951.50,18,WP,1,0,0,0,0,0,0,1764607891986,4323,4328,4328,4330,4331,4327,18,,,,,,,0,0,0,-19.00,27.00,1053.00,0.00,3.00,2.00,14,90.00,31.00,8.44,0.00,0.00,-31.00,0,,,100,99,17,2,0,0,1,1,0,,,,,0.0,0.0,0.0,0.0,0.0,0.0,0
-22.959740,-67.786891,9.30,0.00,3.10,0.85,9.30,9.30,3.51,0.86,4430,2025-12-01 16:51:32.084,2025-12-01 13:51:32.084,18,0,0,48.429,-22.959743,-67.786899,0.00,0.00,-3.10,2.30,3.10,105.40,0,1,0,98,96,-54520,15858,48429,2951.50,18,WP,1,0,0,0,0,0,0,1764607892083,4323,4328,4328,4330,4331,4327,18,,,,,,,0,0,0,-23.00,31.00,1054.00,0.00,3.00,1.00,14,93.00,31.00,8.50,0.00,0.00,-31.00,0,,,100,99,17,2,0,0,1,1,0,,,,,0.0,0.0,0.0,0.0,0.0,0.0,0
-22.959740,-67.786891,9.70,0.00,3.10,0.86,9.70,9.70,3.51,0.86,4527,2025-12-01 16:51:32.180,2025-12-01 13:51:32.180,18,0,0,48.429,-22.959743,-67.786899,0.00,0.00,-3.10,2.60,3.10,105.40,0,1,0,98,96,-54520,15858,48429,2951.50,18,WP,1,0,0,0,0,0,0,1764607892180,4323,4328,4328,4330,4331,4327,18,,,,,,,0,0,0,-26.00,31.00,1054.00,0.00,3.00,0.00,14,97.00,31.00,8.55,0.00,0.00,-31.00,0,,,100,99,17,2,0,0,1,1,0,,,,,0.0,0.0,0.0,0.0,0.0,0.0,0
-22.959740,-67.786891,10.00,0.00,3.10,0.87,10.00,10.00,3.51,0.87,4632,2025-12-01 16:51:32.285,2025-12-01 13:51:32.285,18,0,0,48.429,-22.959743,-67.786899,0.00,0.00,-3.10,3.10,3.10,105.30,0,1,0,98,96,-54520,15858,48429,2951.50,18,WP,1,0,0,0,0,0,0,1764607892285,4323,4328,4328,4330,4331,4327,18,,,,,,,0,0,0,-31.00,31.00,1053.00,0.00,2.00,1.00,14,100.00,31.00,8.74,0.00,0.00,-31.00,0,,,100,99,17,2,0,0,1,1,0,,,,,0.0,0.0,0.0,0.0,0.0,0.0,0
-22.959740,-67.786891,10.30,0.00,3.10,0.88,10.30,10.30,3.51,0.88,4733,2025-12-01 16:51:32.387,2025-12-01 13:51:32.387,18,0,0,48.429,-22.959743,-67.786899,0.00,0.00,-3.10,4.00,3.00,105.00,0,1,0,98,96,-54520,15858,48429,2951.50,18,WP,1,0,0,0,0,0,0,1764607892386,4323,4328,4328,4330,4331,4327,18,,,,,,,0,0,0,-40.00,30.00,1050.00,0.00,2.00,1.00,14,103.00,31.00,8.84,0.00,0.00,-31.00,0,,,100,99,17,2,0,0,1,1,0,,,,,0.0,0.0,0.0,0.0,0.0,0.0,0
-22.959739,-67.786891,10.60,0.00,3.10,0.90,10.60,10.60,3.51,0.90,4832,2025-12-01 16:51:32.486,2025-12-01 13:51:32.486,18,0,0,48.429,-22.959743,-67.786899,0.00,0.00,-3.10,4.70,3.00,104.70,0,1,0,98,96,-54520,15858,48429,2951.50,18,WP,1,0,0,0,0,0,0,1764607892485,4323,4328,4328,4330,4331,4327,18,,,,,,,0,0,0,-47.00,30.00,1047.00,0.00,2.00,5.00,14,106.00,31.00,9.00,0.00,0.00,-31.00,0,,,100,99,17,2,0,0,1,1,0,,,,,0.0,0.0,0.0,0.0,0.0,0.0,0
-22.959739,-67.786891,10.90,0.00,3.10,0.91,10.90,10.90,3.51,0.91,4931,2025-12-01 16:51:32.585,2025-12-01 13:51:32.585,18,0,0,48.429,-22.959743,-67.786899,0.00,0.00,-3.10,5.00,3.10,104.60,0,1,0,98,96,-54520,15858,48429,2951.50,18,WP,1,0,0,0,0,0,0,1764607892584,4323,4328,4328,4330,4331,4327,18,,,,,,,0,0,0,-50.00,31.00,1046.00,0.00,2.00,8.00,14,109.00,31.00,9.06,0.00,0.00,-31.00,0,,,100,98,17,2,0,0,1,1,0,,,,,0.0,0.0,0.0,0.0,0.0,0.0,0
-22.959739,-67.786891,11.20,0.00,3.10,0.91,11.20,11.20,3.51,0.91,5031,2025-12-01 16:51:32.685,2025-12-01 13:51:32.685,18,0,0,48.429,-22.959743,-67.786899,-0.10,0.00,-3.10,4.60,3.40,104.60,0,1,0,98,96,-54520,15858,48429,2951.50,18,WP,1,0,0,0,0,0,0,1764607892684,4323,4328,4328,4330,4331,4327,18,,,,,,,0,0,0,-46.00,34.00,1046.00,0.00,2.00,9.00,14,112.00,31.02,9.12,-1.00,0.00,-31.00,0,,,100,98,17,2,0,0,1,1,0,,,,,0.0,0.0,0.0,0.0,0.0,0.0,0
-22.959740,-67.786891,11.60,0.00,3.10,0.91,11.60,11.60,3.51,0.91,5129,2025-12-01 16:51:32.782,2025-12-01 13:51:32.782,18,0,0,48.429,-22.959743,-67.786899,-0.10,0.00,-3.10,3.80,3.60,104.80,0,1,0,98,96,-54520,15858,48429,2951.50,18,WP,1,0,0,0,0,0,0,1764607892782,4323,4328,4328,4330,4331,4327,18,,,,,,,0,0,0,-38.00,36.00,1048.00,0.00,3.00,8.00,14,116.00,31.02,9.08,-1.00,0.00,-31.00,0,,,100,98,17,2,0,0,1,1,0,,,,,0.0,0.0,0.0,0.0,0.0,0.0,0
-22.959740,-67.786891,11.90,0.00,3.00,0.90,11.90,11.90,3.51,0.91,5236,2025-12-01 16:51:32.889,2025-12-01 13:51:32.890,18,0,0,48.429,-22.959743,-67.786899,-0.10,0.00,-3.00,3.60,3.60,104.90,0,1,0,98,96,-54520,15858,48429,2951.50,18,WP,1,0,0,0,0,0,0,1764607892889,4323,4328,4328,4330,4331,4327,18,,,,,,,0,0,0,-36.00,36.00,1049.00,0.00,2.00,6.00,14,119.00,30.02,9.00,-1.00,0.00,-30.00,0,,,100,98,17,2,0,0,1,1,0,,,,,0.0,0.0,0.0,0.0,0.0,0.0,0
-22.959740,-67.786891,12.20,0.00,3.01,0.88,12.20,12.20,3.51,0.91,5332,2025-12-01 16:51:32.986,2025-12-01 13:51:32.986,18,0,0,47.439,-22.959743,-67.786899,-0.20,0.00,-3.00,3.70,3.70,105.00,0,1,0,97,96,-63915,15697,47439,2951.50,18,WP,1,0,0,0,0,0,0,1764607892985,4323,4328,4328,4330,4331,4327,18,,,,,,,0,0,0,-37.00,37.00,1050.00,0.00,2.00,4.00,14,122.00,30.07,8.83,-2.00,0.00,-30.00,0,,,100,98,17,2,0,0,1,1,0,,,,,0.0,0.0,0.0,0.0,0.0,0.0,0
-22.959740,-67.786891,12.50,0.00,3.01,0.86,12.50,12.50,3.51,0.91,5433,2025-12-01 16:51:33.086,2025-12-01 13:51:33.086,18,0,0,47.439,-22.959743,-67.786899,-0.30,0.00,-3.00,4.00,3.60,105.00,0,1,0,97,96,-63915,15697,47439,2951.50,18,WP,1,0,0,0,0,0,0,1764607893086,4323,4328,4328,4330,4331,4327,18,,,,,,,0,0,0,-40.00,36.00,1050.00,0.00,2.00,4.00,14,125.00,30.15,8.61,-3.00,0.00,-30.00,0,,,100,98,17,2,0,0,1,1,0,,,,,0.0,0.0,0.0,0.0,0.0,0.0,0
-22.959741,-67.786891,12.80,0.00,3.02,0.83,12.80,12.80,3.51,0.91,5536,2025-12-01 16:51:33.189,2025-12-01 13:51:33.189,18,0,0,47.439,-22.959743,-67.786899,-0.30,-0.10,-3.00,4.20,2.90,104.90,0,1,0,97,96,-63915,15697,47439,2951.50,18,WP,1,0,0,0,0,0,0,1764607893189,4323,4328,4328,4330,4331,4327,18,,,,,,,0,0,0,-42.00,29.00,1049.00,0.00,2.00,5.00,14,128.00,30.17,8.34,-3.00,-1.00,-30.00,0,,,100,98,17,2,0,0,1,1,0,,,,,0.0,0.0,0.0,0.0,0.0,0.0,0
-22.959741,-67.786891,13.10,0.00,3.02,0.79,13.10,13.10,3.51,0.91,5634,2025-12-01 16:51:33.288,2025-12-01 13:51:33.288,18,0,0,47.439,-22.959743,-67.786899,-0.30,-0.10,-3.00,4.50,1.60,104.90,0,1,0,97,96,-63915,15697,47439,2951.50,18,WP,1,0,0,0,0,0,0,1764607893287,4323,4328,4328,4330,4331,4327,18,,,,,,,0,0,0,-45.00,16.00,1049.00,0.00,2.00,5.00,14,131.00,30.17,7.94,-3.00,-1.00,-30.00,0,,,100,98,17,2,0,0,1,1,0,,,,,0.0,0.0,0.0,0.0,0.0,0.0,0
-22.959741,-67.786892,13.40,0.00,2.92,0.76,13.40,13.40,3.51,0.91,5739,2025-12-01 16:51:33.392,2025-12-01 13:51:33.392,18,0,0,47.439,-22.959743,-67.786899,-0.30,-0.20,-2.90,4.80,0.30,105.00,0,1,0,97,96,-63915,15697,47439,2951.50,18,WP,1,0,0,0,0,0,0,1764607893392,4323,4328,4328,4330,4331,4327,18,,,,,,,0,0,0,-48.00,3.00,1050.00,1.00,2.00,4.00,14,134.00,29.22,7.56,-3.00,-2.00,-29.00,0,,,100,98,17,2,0,0,1,1,0,,,,,0.0,0.0,0.0,0.0,0.0,0.0,0
-22.959742,-67.786892,13.70,0.00,2.92,0.72,13.70,13.70,3.51,0.91,5848,2025-12-01 16:51:33.501,2025-12-01 13:51:33.501,18,0,0,47.439,-22.959743,-67.786899,-0.30,-0.20,-2.90,4.90,-0.70,105.20,0,1,0,97,96,-63915,15697,47439,2951.50,18,WP,1,0,0,0,0,0,0,1764607893501,4323,4328,4328,4330,4331,4327,18,,,,,,,0,0,0,-49.00,-7.00,1052.00,1.00,2.00,3.00,14,137.00,29.22,7.18,-3.00,-2.00,-29.00,0,,,100,98,17,2,0,0,1,1,0,,,,,0.0,0.0,0.0,0.0,0.0,0.0,0
-22.959742,-67.786892,14.00,0.00,3.02,0.68,14.00,14.00,3.51,0.91,5940,2025-12-01 16:51:33.594,2025-12-01 13:51:33.594,18,0,0,47.439,-22.959743,-67.786899,-0.30,-0.20,-3.00,4.50,-1.60,105.40,0,1,0,97,96,-63915,15697,47439,2951.50,18,WP,1,0,0,0,0,0,0,1764607893593,4323,4328,4328,4330,4331,4327,18,,,,,,,0,0,0,-45.00,-16.00,1054.00,0.00,3.00,2.00,14,140.00,30.22,6.80,-3.00,-2.00,-30.00,0,,,100,97,17,2,0,0,1,1,0,,,,,0.0,0.0,0.0,0.0,0.0,0.0,0
-22.959742,-67.786892,14.30,0.00,3.01,0.64,14.30,14.30,3.51,0.91,6048,2025-12-01 16:51:33.701,2025-12-01 13:51:33.701,18,0,0,47.439,-22.959743,-67.786899,-0.20,-0.20,-3.00,3.90,-2.10,105.50,0,1,0,97,96,-63915,15697,47439,2951.50,18,WP,1,0,0,0,0,0,0,1764607893701,4323,4328,4328,4330,4331,4327,18,,,,,,,0,0,0,-39.00,-21.00,1055.00,0.00,3.00,0.00,14,143.00,30.13,6.40,-2.00,-2.00,-30.00,0,,,100,97,17,2,0,0,1,1,0,,,,,0.0,0.0,0.0,0.0,0.0,0.0,0
-22.959742,-67.786893,14.60,0.00,2.91,0.60,14.60,14.60,3.51,0.91,6144,2025-12-01 16:51:33.797,2025-12-01 13:51:33.797,18,0,0,47.439,-22.959743,-67.786899,-0.10,-0.20,-2.90,3.20,-2.40,105.40,0,1,0,97,96,-63915,15697,47439,2951.50,18,WP,1,0,0,0,0,0,0,1764607893797,4323,4328,4328,4330,4331,4327,18,,,,,,,0,0,0,-32.00,-24.00,1054.00,0.00,3.00,0.00,14,146.00,29.09,6.02,-1.00,-2.00,-29.00,0,,,100,97,17,2,0,0,1,1,0,,,,,0.0,0.0,0.0,0.0,0.0,0.0,0
-22.959743,-67.786893,14.90,0.00,2.91,0.56,14.90,14.90,3.51,0.91,6244,2025-12-01 16:51:33.898,2025-12-01 13:51:33.898,18,0,0,47.439,-22.959743,-67.786899,-0.10,-0.20,-2.90,2.30,-2.00,105.30,0,1,0,97,96,-63915,15697,47439,2951.50,18,WP,1,0,0,0,0,0,0,1764607893897,4323,4328,4328,4330,4331,4327,18,,,,,,,0,0,0,-23.00,-20.00,1053.00,0.00,3.00,1.00,14,149.00,29.09,5.63,-1.00,-2.00,-29.00,0,,,100,97,17,2,0,0,1,1,0,,,,,0.0,0.0,0.0,0.0,0.0,0.0,0
-22.959743,-67.786894,15.20,0.00,2.91,0.53,15.20,15.20,3.51,0.91,6349,2025-12-01 16:51:34.003,2025-12-01 13:51:34.003,18,0,0,47.439,-22.959743,-67.786899,0.00,-0.20,-2.90,1.80,-1.30,105.20,0,1,0,97,96,-63915,15697,47439,2951.50,18,WP,1,0,0,0,0,0,0,1764607894002,4323,4328,4328,4330,4331,4327,18,,,,,,,0,0,0,-18.00,-13.00,1052.00,0.00,3.00,2.00,14,152.00,29.07,5.29,0.00,-2.00,-29.00,0,,,100,97,17,2,0,0,1,1,0,,,,,0.0,0.0,0.0,0.0,0.0,0.0,0
-22.959743,-67.786894,15.50,0.00,3.01,0.50,15.50,15.50,3.51,0.91,6440,2025-12-01 16:51:34.094,2025-12-01 13:51:34.094,18,0,0,47.439,-22.959743,-67.786899,0.00,-0.20,-3.00,1.80,-0.50,105.20,0,1,0,97,96,-63915,15697,47439,2951.50,18,WP,1,0,0,0,0,0,0,1764607894093,4323,4328,4328,4330,4331,4327,18,,,,,,,0,0,0,-18.00,-5.00,1052.00,0.00,3.00,2.00,14,155.00,30.07,4.99,0.00,-2.00,-30.00,0,,,100,97,17,2,0,0,1,1,0,,,,,0.0,0.0,0.0,0.0,0.0,0.0,0
-22.959743,-67.786894,15.80,0.00,2.91,0.47,15.80,15.80,3.51,0.91,6547,2025-12-01 16:51:34.200,2025-12-01 13:51:34.200,18,0,0,47.439,-22.959743,-67.786899,0.00,-0.20,-2.90,2.30,0.20,105.20,0,1,0,97,96,-63915,15697,47439,2951.50,18,WP,1,0,0,0,0,0,0,1764607894200,4323,4328,4328,4330,4331,4327,18,,,,,,,0,0,0,-23.00,2.00,1052.00,0.00,2.00,2.00,14,158.00,29.07,4.73,0.00,-2.00,-29.00,0,,,100,97,17,2,0,0,1,1,0,,,,,0.0,0.0,0.0,0.0,0.0,0.0,0
-22.959742,-67.786894,16.10,0.00,2.80,0.46,16.10,16.10,3.51,0.91,6650,2025-12-01 16:51:34.303,2025-12-01 13:51:34.303,18,0,0,47.439,-22.959743,-67.786899,0.00,-0.10,-2.80,2.60,1.00,105.20,0,1,0,97,96,-63915,15697,47439,2951.50,18,WP,1,0,0,0,0,0,0,1764607894303,4323,4328,4328,4330,4331,4327,18,,,,,,,0,0,0,-26.00,10.00,1052.00,0.00,2.00,3.00,14,161.00,28.02,4.57,0.00,-1.00,-28.00,0,,,100,97,17,2,0,0,1,1,0,,,,,0.0,0.0,0.0,0.0,0.0,0.0,0
-22.959742,-67.786894,16.30,0.00,2.70,0.44,16.30,16.30,3.51,0.91,6744,2025-12-01 16:51:34.398,2025-12-01 13:51:34.398,18,0,0,47.439,-22.959743,-67.786899,0.00,-0.10,-2.70,2.70,1.40,105.30,0,1,0,97,96,-63915,15697,47439,2951.50,18,WP,1,0,0,0,0,0,0,1764607894397,4323,4328,4328,4330,4331,4327,18,,,,,,,0,0,0,-27.00,14.00,1053.00,0.00,2.00,3.00,14,163.00,27.02,4.41,0.00,-1.00,-27.00,0,,,100,97,17,2,0,0,1,1,0,,,,,0.0,0.0,0.0,0.0,0.0,0.0,0
-22.959742,-67.786895,16.60,0.00,2.50,0.42,16.60,16.60,3.51,0.91,6847,2025-12-01 16:51:34.500,2025-12-01 13:51:34.501,18,0,0,47.439,-22.959743,-67.786899,0.00,-0.10,-2.50,2.70,1.30,105.30,0,1,0,97,96,-63915,15697,47439,2951.50,18,WP,1,0,0,0,0,0,0,1764607894500,4323,4328,4328,4330,4331,4327,18,,,,,,,0,0,0,-27.00,13.00,1053.00,0.00,2.00,2.00,14,166.00,25.02,4.23,0.00,-1.00,-25.00,0,,,100,97,17,2,0,0,1,1,0,,,,,0.0,0.0,0.0,0.0,0.0,0.0,0
-22.959742,-67.786895,16.90,0.00,2.30,0.41,16.90,16.90,3.51,0.91,6949,2025-12-01 16:51:34.602,2025-12-01 13:51:34.602,18,0,0,47.439,-22.959743,-67.786899,0.00,-0.10,-2.30,2.70,1.20,105.30,0,1,0,97,96,-63915,15697,47439,2951.50,18,WP,1,0,0,0,0,0,0,1764607894602,4323,4328,4328,4330,4331,4327,18,,,,,,,0,0,0,-27.00,12.00,1053.00,0.00,2.00,1.00,14,169.00,23.02,4.07,0.00,-1.00,-23.00,0,,,100,96,17,2,0,0,1,1,0,,,,,0.0,0.0,0.0,0.0,0.0,0.0,0
-22.959742,-67.786895,17.10,0.00,2.10,0.40,17.10,17.10,3.51,0.91,7047,2025-12-01 16:51:34.700,2025-12-01 13:51:34.701,18,0,0,47.439,-22.959743,-67.786899,0.00,-0.10,-2.10,3.00,1.10,105.30,0,1,0,97,96,-63915,15697,47439,2951.50,18,WP,1,0,0,0,0,0,0,1764607894700,4323,4328,4328,4330,4331,4327,18,,,,,,,0,0,0,-30.00,11.00,1053.00,0.00,2.00,1.00,14,171.00,21.02,3.98,0.00,-1.00,-21.00,0,,,100,96,17,2,0,0,1,1,0,,,,,0.0,0.0,0.0,0.0,0.0,0.0,0
-22.959742,-67.786895,17.30,0.00,2.00,0.39,17.30,17.30,3.51,0.91,7147,2025-12-01 16:51:34.801,2025-12-01 13:51:34.801,18,0,0,47.439,-22.959743,-67.786899,0.00,-0.10,-2.00,3.30,0.90,105.30,0,1,0,97,96,-63915,15697,47439,2951.50,18,WP,1,0,0,0,0,0,0,1764607894800,4323,4328,4328,4330,4331,4327,18,,,,,,,0,0,0,-33.00,9.00,1053.00,0.00,2.00,1.00,14,173.00,20.02,3.88,0.00,-1.00,-20.00,0,,,100,96,17,2,0,0,1,1,0,,,,,0.0,0.0,0.0,0.0,0.0,0.0,0
-22.959742,-67.786895,17.50,0.00,1.80,0.37,17.50,17.50,3.51,0.91,7246,2025-12-01 16:51:34.900,2025-12-01 13:51:34.900,18,0,0,47.439,-22.959743,-67.786899,0.00,-0.10,-1.80,3.40,0.40,105.30,0,1,0,97,96,-63915,15697,47439,2951.50,18,WP,1,0,0,0,0,0,0,1764607894899,4323,4328,4328,4330,4331,4327,18,,,,,,,0,0,0,-34.00,4.00,1053.00,0.00,2.00,1.00,14,175.00,18.03,3.75,0.00,-1.00,-18.00,0,,,100,96,17,2,0,0,1,1,0,,,,,0.0,0.0,0.0,0.0,0.0,0.0,0
-22.959742,-67.786895,17.70,0.00,1.60,0.36,17.70,17.70,3.51,0.91,7348,2025-12-01 16:51:35.001,2025-12-01 13:51:35.001,18,0,0,47.439,-22.959743,-67.786899,0.00,-0.10,-1.60,3.50,0.00,105.30,0,1,0,97,96,-63915,15697,47439,2951.50,18,WP,1,0,0,0,0,0,0,1764607895001,4323,4328,4328,4330,4331,4327,18,,,,,,,0,0,0,-35.00,0.00,1053.00,0.00,2.00,1.00,14,177.00,16.03,3.64,0.00,-1.00,-16.00,0,,,100,96,17,2,0,0,1,1,0,,,,,0.0,0.0,0.0,0.0,0.0,0.0,0
-22.959742,-67.786895,17.80,0.00,1.50,0.35,17.80,17.80,3.51,0.91,7452,2025-12-01 16:51:35.106,2025-12-01 13:51:35.106,18,0,0,47.439,-22.959743,-67.786899,0.00,-0.10,-1.50,3.30,-0.40,105.40,0,1,0,97,96,-63915,15697,47439,2951.50,18,WP,1,0,0,0,0,0,0,1764607895105,4323,4328,4328,4330,4331,4327,18,,,,,,,0,0,0,-33.00,-4.00,1054.00,0.00,2.00,1.00,14,178.00,15.03,3.48,0.00,-1.00,-15.00,0,,,100,99,17,2,0,0,1,1,0,,,,,0.0,0.0,0.0,0.0,0.0,0.0,0
-22.959742,-67.786895,18.00,0.00,1.30,0.34,18.00,18.00,3.51,0.91,7548,2025-12-01 16:51:35.201,2025-12-01 13:51:35.201,18,0,0,47.439,-22.959743,-67.786899,0.00,-0.10,-1.30,3.00,-0.50,105.40,0,1,0,97,96,-63915,15697,47439,2951.50,18,WP,1,0,0,0,0,0,0,1764607895201,4323,4328,4328,4330,4331,4327,18,,,,,,,0,0,0,-30.00,-5.00,1054.00,0.00,3.00,1.00,14,180.00,13.04,3.37,0.00,-1.00,-13.00,0,,,100,99,17,2,0,0,1,1,0,,,,,0.0,0.0,0.0,0.0,0.0,0.0,0
-22.959742,-67.786896,18.10,0.00,1.30,0.32,18.10,18.10,3.51,0.91,7662,2025-12-01 16:51:35.316,2025-12-01 13:51:35.316,18,0,0,47.439,-22.959743,-67.786899,0.00,-0.10,-1.30,2.60,-0.90,105.40,0,1,0,97,96,-63915,15697,47439,2951.50,18,WP,1,0,0,0,0,0,0,1764607895315,4323,4328,4328,4330,4331,4327,18,,,,,,,0,0,0,-26.00,-9.00,1054.00,0.00,2.00,1.00,14,181.00,13.04,3.21,0.00,-1.00,-13.00,0,,,100,99,17,2,0,0,1,1,0,,,,,0.0,0.0,0.0,0.0,0.0,0.0,0
-22.959742,-67.786896,18.20,0.00,1.20,0.31,18.20,18.20,3.51,0.91,7764,2025-12-01 16:51:35.418,2025-12-01 13:51:35.418,18,0,0,47.439,-22.959743,-67.786899,0.00,0.00,-1.20,2.50,-1.20,105.30,0,1,0,97,96,-63915,15697,47439,2951.50,18,WP,1,0,0,0,0,0,0,1764607895417,4323,4328,4328,4330,4331,4327,18,,,,,,,0,0,0,-25.00,-12.00,1053.00,0.00,2.00,1.00,14,182.00,12.00,3.13,0.00,0.00,-12.00,0,,,100,99,17,2,0,0,1,1,0,,,,,0.0,0.0,0.0,0.0,0.0,0.0,0
-22.959743,-67.786896,18.40,0.00,1.20,0.30,18.40,18.40,3.51,0.91,7848,2025-12-01 16:51:35.501,2025-12-01 13:51:35.501,18,0,0,47.439,-22.959743,-67.786899,0.00,0.00,-1.20,2.70,-1.30,105.30,0,1,0,97,96,-63915,15697,47439,2951.50,18,WP,1,0,0,0,0,0,0,1764607895501,4323,4328,4328,4330,4331,4327,18,,,,,,,0,0,0,-27.00,-13.00,1053.00,0.00,3.00,1.00,14,184.00,12.00,3.01,0.00,0.00,-12.00,0,,,100,99,17,2,0,0,1,1,0,,,,,0.0,0.0,0.0,0.0,0.0,0.0,0
-22.959742,-67.786896,18.50,0.00,1.10,0.30,18.50,18.50,3.51,0.91,7951,2025-12-01 16:51:35.605,2025-12-01 13:51:35.605,18,0,0,47.522,-22.959743,-67.786899,0.00,0.00,-1.10,2.60,-1.20,105.30,0,1,0,97,96,-56406,15697,47522,2951.50,18,WP,1,0,0,0,0,0,0,1764607895604,4323,4328,4328,4330,4331,4327,18,,,,,,,0,0,0,-26.00,-12.00,1053.00,0.00,3.00,1.00,14,185.00,11.00,2.97,0.00,0.00,-11.00,0,,,100,99,17,2,0,0,1,1,0,,,,,0.0,0.0,0.0,0.0,0.0,0.0,0
-22.959742,-67.786896,18.60,0.00,1.10,0.29,18.60,18.60,3.51,0.91,8064,2025-12-01 16:51:35.717,2025-12-01 13:51:35.717,18,0,0,47.522,-22.959743,-67.786899,0.10,0.00,-1.10,2.30,-0.90,105.40,0,1,0,97,96,-56406,15697,47522,2951.50,18,WP,1,0,0,0,0,0,0,1764607895717,3934,3950,3963,3965,3955,3951,18,,,,,,,0,0,0,-23.00,-9.00,1054.00,0.00,3.00,1.00,14,186.00,11.05,2.90,1.00,0.00,-11.00,0,,,100,99,17,2,0,0,1,1,0,,,,,0.0,0.0,0.0,0.0,0.0,0.0,0
-22.959742,-67.786896,18.70,0.00,1.20,0.29,18.70,18.70,3.51,0.91,8152,2025-12-01 16:51:35.806,2025-12-01 13:51:35.806,18,0,0,47.522,-22.959743,-67.786899,0.10,0.00,-1.20,2.10,-0.30,105.30,0,1,0,97,96,-56406,15697,47522,2951.50,18,WP,1,0,0,0,0,0,0,1764607895805,3934,3950,3963,3965,3955,3951,18,,,,,,,0,0,0,-21.00,-3.00,1053.00,0.00,3.00,1.00,14,187.00,12.04,2.92,1.00,0.00,-12.00,0,,,100,99,17,2,0,0,1,1,0,,,,,0.0,0.0,0.0,0.0,0.0,0.0,0
-22.959742,-67.786896,18.90,0.00,1.20,0.29,18.90,18.90,3.51,0.91,8263,2025-12-01 16:51:35.917,2025-12-01 13:51:35.917,18,0,0,47.522,-22.959743,-67.786899,0.10,0.00,-1.20,2.00,0.20,105.30,0,1,0,97,96,-56406,15697,47522,2951.50,18,WP,1,0,0,0,0,0,0,1764607895916,3934,3950,3963,3965,3955,3951,18,,,,,,,0,0,0,-20.00,2.00,1053.00,0.00,3.00,1.00,14,189.00,12.04,2.94,1.00,0.00,-12.00,0,,,100,99,17,2,0,0,1,1,0,,,,,0.0,0.0,0.0,0.0,0.0,0.0,0
-22.959742,-67.786896,19.00,0.00,1.20,0.30,19.00,19.00,3.51,0.91,8366,2025-12-01 16:51:36.020,2025-12-01 13:51:36.020,18,0,0,47.522,-22.959743,-67.786899,0.10,0.00,-1.20,1.90,0.80,105.30,0,1,0,97,96,-56406,15697,47522,2951.50,18,WP,1,0,0,0,0,0,0,1764607896019,3934,3950,3963,3965,3955,3951,18,,,,,,,0,0,0,-19.00,8.00,1053.00,0.00,3.00,1.00,14,190.00,12.04,3.04,1.00,0.00,-12.00,0,,,100,99,17,2,0,0,1,1,0,,,,,0.0,0.0,0.0,0.0,0.0,0.0,0
-22.959742,-67.786896,19.10,0.00,1.20,0.32,19.10,19.10,3.51,0.91,8461,2025-12-01 16:51:36.115,2025-12-01 13:51:36.115,18,0,0,47.522,-22.959743,-67.786899,0.10,0.00,-1.20,2.10,1.30,105.30,0,1,0,97,96,-56406,15697,47522,2951.50,18,WP,1,0,0,0,0,0,0,1764607896114,3934,3950,3963,3965,3955,3951,18,,,,,,,0,0,0,-21.00,13.00,1053.00,0.00,3.00,1.00,14,191.00,12.04,3.20,1.00,0.00,-12.00,0,,,100,97,17,2,0,0,1,1,0,,,,,0.0,0.0,0.0,0.0,0.0,0.0,0
-22.959742,-67.786896,19.20,0.00,1.10,0.34,19.20,19.20,3.51,0.91,8566,2025-12-01 16:51:36.220,2025-12-01 13:51:36.220,18,0,0,47.522,-22.959743,-67.786899,0.10,0.00,-1.10,2.40,1.70,105.30,0,1,0,97,96,-56406,15697,47522,2951.50,18,WP,1,0,0,0,0,0,0,1764607896219,3934,3950,3963,3965,3955,3951,18,,,,,,,0,0,0,-24.00,17.00,1053.00,0.00,3.00,1.00,14,192.00,11.05,3.38,1.00,0.00,-11.00,0,,,100,97,17,2,0,0,1,1,0,,,,,0.0,0.0,0.0,0.0,0.0,0.0,0
-22.959741,-67.786896,19.40,0.00,1.00,0.35,19.40,19.40,3.51,0.91,8665,2025-12-01 16:51:36.318,2025-12-01 13:51:36.318,18,0,0,47.522,-22.959743,-67.786899,0.00,0.00,-1.00,3.10,1.70,105.30,0,1,0,97,96,-56406,15697,47522,2951.50,18,WP,1,0,0,0,0,0,0,1764607896318,3934,3950,3963,3965,3955,3951,18,,,,,,,0,0,0,-31.00,17.00,1053.00,0.00,2.00,1.00,14,194.00,10.00,3.53,0.00,0.00,-10.00,0,,,100,97,17,2,0,0,1,1,0,,,,,0.0,0.0,0.0,0.0,0.0,0.0,0
-22.959741,-67.786896,19.50,0.00,0.90,0.37,19.50,19.50,3.51,0.91,8760,2025-12-01 16:51:36.414,2025-12-01 13:51:36.414,18,0,0,47.522,-22.959743,-67.786899,0.00,0.00,-0.90,3.30,1.80,107.10,0,1,0,97,96,-56406,15697,47522,2951.50,18,WP,1,0,0,0,0,0,0,1764607896413,3934,3950,3963,3965,3955,3951,18,,,,,,,0,0,0,-33.00,18.00,1071.00,0.00,2.00,1.00,14,195.00,9.00,3.70,0.00,0.00,-9.00,0,,,100,97,17,2,0,0,1,1,0,,,,,0.0,0.0,0.0,0.0,0.0,0.0,0
-22.959741,-67.786896,19.60,0.00,0.71,0.38,19.60,19.60,3.51,0.91,8865,2025-12-01 16:51:36.518,2025-12-01 13:51:36.518,18,0,0,47.522,-22.959743,-67.786899,0.00,0.10,-0.70,2.70,2.60,112.50,0,1,0,97,96,-56406,15697,47522,2951.50,18,WP,1,0,0,0,0,0,0,1764607896518,3934,3950,3963,3965,3955,3951,18,,,,,,,0,0,0,-27.00,26.00,1125.00,0.00,2.00,-3.00,14,196.00,7.07,3.80,0.00,1.00,-7.00,0,,,100,97,17,2,0,0,1,1,0,,,,,0.0,0.0,0.0,0.0,0.0,0.0,0
-22.959741,-67.786895,19.60,0.00,0.41,0.39,19.60,19.60,3.51,0.91,8962,2025-12-01 16:51:36.615,2025-12-01 13:51:36.615,18,0,0,47.522,-22.959743,-67.786899,0.00,0.10,-0.40,1.40,3.70,120.60,0,1,0,97,96,-56406,15697,47522,2951.50,18,WP,1,0,0,0,0,0,0,1764607896615,3934,3950,3963,3965,3955,3951,18,,,,,,,0,0,0,-14.00,37.00,1206.00,0.00,2.00,-43.00,14,196.00,4.12,3.91,0.00,1.00,-4.00,0,,,100,97,17,2,0,0,1,1,0,,,,,0.0,0.0,0.0,0.0,0.0,0.0,0
-22.959741,-67.786895,19.70,0.00,0.22,0.39,19.70,19.70,3.51,0.91,9061,2025-12-01 16:51:36.715,2025-12-01 13:51:36.715,18,0,0,47.522,-22.959743,-67.786899,0.00,0.10,-0.20,0.70,4.30,129.80,0,1,0,97,96,-56406,15697,47522,2951.50,18,WP,1,0,0,0,0,0,0,1764607896714,3934,3950,3963,3965,3955,3951,18,,,,,,,0,0,0,-7.00,43.00,1298.00,0.00,3.00,-112.00,14,197.00,2.24,3.94,0.00,1.00,-2.00,0,,,100,97,17,2,0,0,1,1,0,,,,,0.0,0.0,0.0,0.0,0.0,0.0,0
-22.959742,-67.786895,19.70,0.00,0.00,0.40,19.70,19.70,3.51,0.91,9165,2025-12-01 16:51:36.818,2025-12-01 13:51:36.818,18,0,0,47.522,-22.959743,-67.786899,0.00,0.00,0.00,1.30,3.80,139.20,0,1,0,97,96,-56406,15697,47522,2951.50,18,WP,1,0,0,0,0,0,0,1764607896818,3934,3950,3963,3965,3955,3951,18,,,,,,,0,0,0,-13.00,38.00,1392.00,0.00,3.00,-201.00,14,197.00,0.00,3.98,0.00,0.00,0.00,0,,,100,97,17,2,0,0,1,1,0,,,,,0.0,0.0,0.0,0.0,0.0,0.0,0
-22.959742,-67.786895,19.70,0.00,0.00,0.39,19.70,19.70,3.51,0.91,9264,2025-12-01 16:51:36.917,2025-12-01 13:51:36.917,18,0,0,47.522,-22.959743,-67.786899,0.00,0.00,0.00,2.40,2.60,148.20,0,1,0,97,96,-56406,15697,47522,2951.50,18,WP,1,0,0,0,0,0,0,1764607896917,3934,3950,3963,3965,3955,3951,18,,,,,,,0,0,0,-24.00,26.00,1482.00,0.00,3.00,-280.00,14,197.00,0.00,3.93,0.00,0.00,0.00,0,,,100,97,17,2,0,0,1,1,0,,,,,0.0,0.0,0.0,0.0,0.0,0.0,0
-22.959742,-67.786895,19.70,0.00,0.14,0.40,19.70,19.70,3.51,0.91,9361,2025-12-01 16:51:37.015,2025-12-01 13:51:37.015,18,0,0,47.522,-22.959743,-67.786899,0.00,0.10,0.10,3.60,1.30,157.20,0,1,0,97,96,-56406,15697,47522,2951.50,18,WP,1,0,0,0,0,0,0,1764607897014,3934,3950,3963,3965,3955,3951,18,,,,,,,0,0,0,-36.00,13.00,1572.00,0.00,3.00,-347.00,14,197.00,1.41,3.96,0.00,1.00,1.00,0,,,100,97,17,2,0,0,1,1,0,,,,,0.0,0.0,0.0,0.0,0.0,0.0,0
-22.959742,-67.786895,19.70,0.00,0.14,0.39,19.70,19.70,3.51,0.91,9468,2025-12-01 16:51:37.121,2025-12-01 13:51:37.121,18,0,0,47.522,-22.959743,-67.786899,0.00,0.10,0.10,4.10,0.40,165.30,0,1,0,97,96,-56406,15697,47522,2951.50,18,WP,1,0,0,0,0,0,0,1764607897121,3934,3950,3963,3965,3955,3951,18,,,,,,,0,0,0,-41.00,4.00,1653.00,0.00,2.00,-400.00,14,197.00,1.41,3.89,0.00,1.00,1.00,0,,,100,97,17,2,0,0,1,1,0,,,,,0.0,0.0,0.0,0.0,0.0,0.0,0
-22.959742,-67.786895,19.70,0.00,0.14,0.39,19.70,19.70,3.51,0.91,9569,2025-12-01 16:51:37.222,2025-12-01 13:51:37.222,18,0,0,47.522,-22.959743,-67.786899,0.00,0.10,0.10,4.20,0.10,171.20,0,1,0,97,96,-56406,15697,47522,2951.50,18,WP,1,0,0,0,0,0,0,1764607897222,3934,3950,3963,3965,3955,3951,18,,,,,,,0,0,0,-42.00,1.00,1712.00,0.00,2.00,-440.00,14,197.00,1.41,3.94,0.00,1.00,1.00,0,,,100,97,17,2,0,0,1,1,0,,,,,0.0,0.0,0.0,0.0,0.0,0.0,0
-22.959742,-67.786895,19.70,0.00,0.14,0.40,19.70,19.70,3.51,0.91,9664,2025-12-01 16:51:37.318,2025-12-01 13:51:37.318,18,0,0,47.522,-22.959743,-67.786899,0.00,0.10,0.10,3.70,0.60,175.20,0,1,0,97,96,-56406,15697,47522,2951.50,18,WP,1,0,0,0,0,0,0,1764607897317,3934,3950,3963,3965,3955,3951,18,,,,,,,0,0,0,-37.00,6.00,1752.00,0.00,2.00,-452.00,14,197.00,1.41,4.04,0.00,1.00,1.00,0,,,100,97,17,2,0,0,1,1,0,,,,,0.0,0.0,0.0,0.0,0.0,0.0,0
-22.959742,-67.786895,19.70,0.00,0.24,0.42,19.70,19.70,3.51,0.91,9766,2025-12-01 16:51:37.419,2025-12-01 13:51:37.420,18,0,0,47.757,-22.959743,-67.786899,0.10,0.20,0.10,2.90,1.50,177.80,0,1,0,97,96,-50547,15697,47757,2951.50,18,WP,1,0,0,0,0,0,0,1764607897419,3934,3950,3963,3965,3955,3951,18,,,,,,,0,0,0,-29.00,15.00,1778.00,0.00,2.00,-440.00,14,197.00,2.45,4.23,1.00,2.00,1.00,0,,,100,97,17,2,0,0,1,1,0,,,,,0.0,0.0,0.0,0.0,0.0,0.0,0
-22.959742,-67.786895,19.70,0.00,0.28,0.46,19.70,19.70,3.51,0.91,9868,2025-12-01 16:51:37.522,2025-12-01 13:51:37.522,18,0,0,47.757,-22.959743,-67.786899,0.20,0.20,0.00,1.80,2.20,178.80,0,1,0,97,96,-50547,15697,47757,2951.50,18,WP,1,0,0,0,0,0,0,1764607897521,3934,3950,3963,3965,3955,3951,18,,,,,,,0,0,0,-18.00,22.00,1788.00,1.00,2.00,-411.00,14,197.00,2.83,4.58,2.00,2.00,0.00,0,,,100,97,17,2,0,0,1,1,0,,,,,0.0,0.0,0.0,0.0,0.0,0.0,0
-22.959741,-67.786894,19.70,0.00,0.28,0.49,19.70,19.70,3.51,0.91,9972,2025-12-01 16:51:37.626,2025-12-01 13:51:37.626,18,0,0,47.757,-22.959743,-67.786899,0.20,0.20,0.00,0.20,2.20,179.20,0,1,0,97,96,-50547,15697,47757,2951.50,18,WP,1,0,0,0,0,0,0,1764607897625,3934,3950,3963,3965,3955,3951,18,,,,,,,0,0,0,-2.00,22.00,1792.00,0.00,2.00,-371.00,14,197.00,2.83,4.93,2.00,2.00,0.00,0,,,100,100,17,2,0,0,1,1,0,,,,,0.0,0.0,0.0,0.0,0.0,0.0,0
-22.959741,-67.786894,19.70,0.00,0.22,0.54,19.70,19.70,3.51,0.91,10067,2025-12-01 16:51:37.721,2025-12-01 13:51:37.721,18,0,0,47.757,-22.959743,-67.786899,0.10,0.20,0.00,-2.90,2.60,179.50,0,1,0,97,96,-50547,15697,47757,2951.50,18,WP,1,0,0,0,0,0,0,1764607897720,3934,3950,3963,3965,3955,3951,18,,,,,,,0,0,0,29.00,26.00,1795.00,0.00,3.00,-327.00,14,197.00,2.24,5.44,1.00,2.00,0.00,0,,,100,100,17,2,0,0,1,1,0,,,,,0.0,0.0,0.0,0.0,0.0,0.0,0
-22.959741,-67.786894,19.70,0.00,0.22,0.59,19.70,19.70,3.51,0.91,10167,2025-12-01 16:51:37.821,2025-12-01 13:51:37.821,18,0,0,47.757,-22.959743,-67.786899,0.10,0.20,0.00,-6.80,3.40,179.50,0,1,0,97,96,-50547,15697,47757,2951.50,18,WP,1,0,0,0,0,0,0,1764607897820,3934,3950,3963,3965,3955,3951,18,,,,,,,0,0,0,68.00,34.00,1795.00,0.00,3.00,-291.00,14,197.00,2.24,5.86,1.00,2.00,0.00,0,,,100,100,17,2,0,0,1,1,0,,,,,0.0,0.0,0.0,0.0,0.0,0.0,0
-22.959741,-67.786893,19.70,0.00,0.30,0.64,19.70,19.70,3.51,0.91,10273,2025-12-01 16:51:37.926,2025-12-01 13:51:37.926,18,0,0,47.757,-22.959743,-67.786899,0.00,0.30,0.00,-10.50,4.30,179.40,0,1,0,97,96,-50547,15697,47757,2951.50,18,WP,1,0,0,0,0,0,0,1764607897926,3934,3950,3963,3965,3955,3951,18,,,,,,,0,0,0,105.00,43.00,1794.00,0.00,2.00,-262.00,14,197.00,3.00,6.38,0.00,3.00,0.00,0,,,100,100,17,2,0,0,1,1,0,,,,,0.0,0.0,0.0,0.0,0.0,0.0,0
-22.959741,-67.786893,19.70,0.00,0.28,0.67,19.70,19.70,3.51,0.91,10372,2025-12-01 16:51:38.026,2025-12-01 13:51:38.026,18,0,0,47.757,-22.959743,-67.786899,-0.20,0.20,0.00,-13.30,5.00,179.20,0,1,0,97,96,-50547,15697,47757,2951.50,18,WP,1,0,0,0,0,0,0,1764607898025,3934,3950,3963,3965,3955,3951,18,,,,,,,0,0,0,133.00,50.00,1792.00,0.00,2.00,-239.00,14,197.00,2.83,6.72,-2.00,2.00,0.00,0,,,100,100,17,2,0,0,1,1,0,,,,,0.0,0.0,0.0,0.0,0.0,0.0,0
-22.959741,-67.786892,19.70,0.00,0.45,0.69,19.70,19.70,3.51,0.91,10476,2025-12-01 16:51:38.129,2025-12-01 13:51:38.130,18,0,0,47.757,-22.959743,-67.786899,-0.40,0.20,0.00,-14.90,5.50,179.00,0,1,0,97,96,-50547,15697,47757,2951.50,18,WP,1,0,0,0,0,0,0,1764607898129,3934,3950,3963,3965,3955,3951,18,,,,,,,0,0,0,149.00,55.00,1790.00,0.00,2.00,-220.00,14,197.00,4.47,6.91,-4.00,2.00,0.00,0,,,100,99,17,2,0,0,1,1,0,,,,,0.0,0.0,0.0,0.0,0.0,0.0,0
-22.959742,-67.786892,19.70,0.00,0.73,0.70,19.70,19.70,3.51,0.91,10572,2025-12-01 16:51:38.226,2025-12-01 13:51:38.226,18,0,0,47.757,-22.959743,-67.786899,-0.70,0.20,0.00,-15.60,5.90,178.90,0,1,0,97,96,-50547,15697,47757,2951.50,18,WP,1,0,0,0,0,0,0,1764607898225,3934,3950,3963,3965,3955,3951,18,,,,,,,0,0,0,156.00,59.00,1789.00,0.00,2.00,-204.00,14,197.00,7.28,7.02,-7.00,2.00,0.00,0,,,100,99,17,2,0,0,1,1,0,,,,,0.0,0.0,0.0,0.0,0.0,0.0,0
-22.959742,-67.786892,19.80,0.00,0.92,0.71,19.80,19.80,3.51,0.91,10680,2025-12-01 16:51:38.334,2025-12-01 13:51:38.334,18,0,0,47.757,-22.959743,-67.786899,-0.90,0.20,0.00,-15.50,6.00,178.80,0,1,0,97,96,-50547,15697,47757,2951.50,18,WP,1,0,0,0,0,0,0,1764607898333,3934,3950,3963,3965,3955,3951,18,,,,,,,0,0,0,155.00,60.00,1788.00,0.00,2.00,-191.00,14,198.00,9.22,7.13,-9.00,2.00,0.00,0,,,100,99,17,2,0,0,1,1,0,,,,,0.0,0.0,0.0,0.0,0.0,0.0,0
-22.959744,-67.786891,19.80,0.00,1.22,0.74,19.80,19.80,3.51,0.91,10777,2025-12-01 16:51:38.431,2025-12-01 13:51:38.431,18,0,0,47.757,-22.959743,-67.786899,-1.20,0.20,0.00,-15.30,6.00,178.80,0,1,0,97,96,-50547,15697,47757,2951.50,18,WP,1,0,0,0,0,0,0,1764607898430,3934,3950,3963,3965,3955,3951,18,,,,,,,0,0,0,153.00,60.00,1788.00,0.00,2.00,-181.00,14,198.00,12.17,7.36,-12.00,2.00,0.00,0,,,100,99,17,2,0,0,1,1,0,,,,,0.0,0.0,0.0,0.0,0.0,0.0,0
-22.959745,-67.786891,19.80,0.00,1.40,0.79,19.80,19.80,3.51,0.91,10882,2025-12-01 16:51:38.536,2025-12-01 13:51:38.536,18,0,0,47.757,-22.959743,-67.786899,-1.40,0.10,0.00,-15.20,6.00,178.80,0,1,0,97,96,-50547,15697,47757,2951.50,18,WP,1,0,0,0,0,0,0,1764607898535,3934,3950,3963,3965,3955,3951,18,,,,,,,0,0,0,152.00,60.00,1788.00,0.00,3.00,-172.00,14,198.00,14.04,7.85,-14.00,1.00,0.00,0,,,100,99,17,2,0,0,1,1,0,,,,,0.0,0.0,0.0,0.0,0.0,0.0,0
-22.959747,-67.786891,19.80,0.00,1.70,0.87,19.80,19.80,3.51,0.91,10978,2025-12-01 16:51:38.632,2025-12-01 13:51:38.632,18,0,0,47.757,-22.959743,-67.786899,-1.70,0.10,0.00,-14.90,6.00,178.80,0,1,0,97,96,-50547,15697,47757,2951.50,18,WP,1,0,0,0,0,0,0,1764607898631,3934,3950,3963,3965,3955,3951,18,,,,,,,0,0,0,149.00,60.00,1788.00,0.00,2.00,-164.00,14,198.00,17.03,8.69,-17.00,1.00,0.00,0,,,100,98,17,2,0,0,1,1,0,,,,,0.0,0.0,0.0,0.0,0.0,0.0,0
-22.959749,-67.786891,19.80,0.00,1.90,1.02,19.80,19.80,3.51,1.02,11080,2025-12-01 16:51:38.733,2025-12-01 13:51:38.733,18,0,0,47.757,-22.959743,-67.786899,-1.90,0.10,0.00,-14.90,6.10,178.80,0,1,0,97,96,-50547,15697,47757,2951.50,18,WP,1,0,0,0,0,0,0,1764607898733,3934,3950,3963,3965,3955,3951,18,,,,,,,0,0,0,149.00,61.00,1788.00,0.00,2.00,-158.00,14,198.00,19.03,10.16,-19.00,1.00,0.00,0,,,100,98,17,2,0,0,1,1,0,,,,,0.0,0.0,0.0,0.0,0.0,0.0,0
-22.959751,-67.786891,19.80,0.00,2.20,1.20,19.80,19.80,3.51,1.20,11179,2025-12-01 16:51:38.833,2025-12-01 13:51:38.833,18,0,0,47.757,-22.959743,-67.786899,-2.20,0.10,0.00,-14.80,6.10,178.80,0,1,0,97,96,-50547,15697,47757,2951.50,18,WP,1,0,0,0,0,0,0,1764607898832,3934,3950,3963,3965,3955,3951,18,,,,,,,0,0,0,148.00,61.00,1788.00,0.00,2.00,-152.00,14,198.00,22.02,11.96,-22.00,1.00,0.00,0,,,100,98,17,2,0,0,1,1,0,,,,,0.0,0.0,0.0,0.0,0.0,0.0,0
-22.959754,-67.786891,19.80,0.00,2.40,1.44,19.80,19.80,3.51,1.44,11277,2025-12-01 16:51:38.931,2025-12-01 13:51:38.931,18,0,0,47.757,-22.959743,-67.786899,-2.40,0.10,0.00,-14.60,6.40,178.90,0,1,0,97,96,-50547,15697,47757,2951.50,18,WP,1,0,0,0,0,0,0,1764607898930,3934,3950,3963,3965,3955,3951,18,,,,,,,0,0,0,146.00,64.00,1789.00,0.00,2.00,-147.00,14,198.00,24.02,14.36,-24.00,1.00,0.00,0,,,100,98,17,2,0,0,1,1,0,,,,,0.0,0.0,0.0,0.0,0.0,0.0,0
-22.959757,-67.786891,19.80,0.00,2.60,1.69,19.80,19.80,3.51,1.69,11381,2025-12-01 16:51:39.035,2025-12-01 13:51:39.035,18,0,0,47.862,-22.959743,-67.786899,-2.60,0.00,0.00,-14.40,6.80,179.00,0,1,0,97,96,-52394,15644,47862,2951.50,18,WP,1,0,0,0,0,0,0,1764607899034,3934,3950,3963,3965,3955,3951,18,,,,,,,0,0,0,144.00,68.00,1790.00,0.00,2.00,-143.00,14,198.00,26.00,16.94,-26.00,0.00,0.00,0,,,100,98,17,2,0,0,1,1,0,,,,,0.0,0.0,0.0,0.0,0.0,0.0,0
-22.959760,-67.786891,19.80,0.00,2.90,2.01,19.80,19.80,3.51,2.01,11480,2025-12-01 16:51:39.134,2025-12-01 13:51:39.134,18,0,0,47.862,-22.959743,-67.786899,-2.90,0.00,0.00,-14.30,7.20,179.00,0,1,0,97,96,-52394,15644,47862,2951.50,18,WP,1,0,0,0,0,0,0,1764607899133,3934,3950,3963,3965,3955,3951,18,,,,,,,0,0,0,143.00,72.00,1790.00,0.00,2.00,-143.00,14,198.00,29.00,20.06,-29.00,0.00,0.00,0,,,100,96,17,2,0,0,1,1,0,,,,,0.0,0.0,0.0,0.0,0.0,0.0,0
-22.959763,-67.786891,19.90,0.00,3.10,2.33,19.90,19.90,3.51,2.33,11578,2025-12-01 16:51:39.231,2025-12-01 13:51:39.231,18,0,0,47.862,-22.959743,-67.786899,-3.10,0.00,0.00,-14.80,7.30,179.00,0,1,0,97,96,-52394,15644,47862,2951.50,18,WP,1,0,0,0,0,0,0,1764607899231,3934,3950,3963,3965,3955,3951,18,,,,,,,0,0,0,148.00,73.00,1790.00,-1.00,2.00,-136.00,14,199.00,31.00,23.27,-31.00,0.00,0.00,0,,,100,96,17,2,0,0,1,1,0,,,,,0.0,0.0,0.0,0.0,0.0,0.0,0
-22.959767,-67.786891,19.90,0.00,3.30,2.70,19.90,19.90,3.51,2.70,11681,2025-12-01 16:51:39.335,2025-12-01 13:51:39.335,18,0,0,47.862,-22.959743,-67.786899,-3.30,0.00,0.00,-15.30,7.20,179.00,0,1,0,97,96,-52394,15644,47862,2951.50,18,WP,1,0,0,0,0,0,0,1764607899334,3934,3950,3963,3965,3955,3951,18,,,,,,,0,0,0,153.00,72.00,1790.00,-1.00,2.00,-132.00,14,199.00,33.00,26.96,-33.00,0.00,0.00,0,,,100,96,17,2,0,0,1,1,0,,,,,0.0,0.0,0.0,0.0,0.0,0.0,0
-22.959770,-67.786891,19.90,0.00,3.60,3.09,19.90,19.90,3.60,3.09,11783,2025-12-01 16:51:39.436,2025-12-01 13:51:39.437,18,0,0,47.862,-22.959743,-67.786899,-3.60,-0.10,0.00,-15.80,6.90,179.10,0,1,0,97,96,-52394,15644,47862,2951.50,18,WP,1,0,0,0,0,0,0,1764607899436,3934,3950,3963,3965,3955,3951,18,,,,,,,0,0,0,158.00,69.00,1791.00,-1.00,2.00,-129.00,14,199.00,36.01,30.93,-36.00,-1.00,0.00,0,,,100,96,17,2,0,0,1,1,0,,,,,0.0,0.0,0.0,0.0,0.0,0.0,0
-22.959778,-67.786891,19.90,0.00,4.00,3.92,19.90,19.90,4.00,3.92,11980,2025-12-01 16:51:39.634,2025-12-01 13:51:39.634,18,0,0,47.862,-22.959743,-67.786899,-4.00,-0.20,0.00,-16.70,5.80,179.10,0,1,0,97,96,-52394,15644,47862,2951.50,18,WP,1,0,0,0,0,0,0,1764607899633,3934,3950,3963,3965,3955,3951,18,,,,,,,0,0,0,167.00,58.00,1791.00,-1.00,2.00,-123.00,14,199.00,40.05,39.23,-40.00,-2.00,0.00,0,,,100,96,17,2,0,0,1,1,0,,,,,0.0,0.0,0.0,0.0,0.0,0.0,0
-22.959782,-67.786892,19.90,0.00,4.30,4.40,19.90,19.90,4.30,4.40,12083,2025-12-01 16:51:39.737,2025-12-01 13:51:39.737,18,0,0,47.862,-22.959743,-67.786899,-4.30,-0.20,0.00,-16.60,5.40,179.30,0,1,0,97,96,-52394,15644,47862,2951.50,18,WP,1,0,0,0,0,0,0,1764607899736,3934,3950,3963,3965,3955,3951,18,,,,,,,0,0,0,166.00,54.00,1793.00,0.00,2.00,-121.00,14,199.00,43.05,43.99,-43.00,-2.00,0.00,0,,,100,96,17,2,0,0,1,1,0,,,,,0.0,0.0,0.0,0.0,0.0,0.0,0
-22.959787,-67.786892,19.90,0.00,4.50,4.88,19.90,19.90,4.50,4.88,12185,2025-12-01 16:51:39.839,2025-12-01 13:51:39.839,18,0,0,47.862,-22.959743,-67.786899,-4.50,-0.20,0.00,-16.00,5.00,179.20,0,1,0,97,96,-52394,15644,47862,2951.50,18,WP,1,0,0,0,0,0,0,1764607899838,3934,3950,3963,3965,3955,3951,18,,,,,,,0,0,0,160.00,50.00,1792.00,0.00,2.00,-119.00,14,199.00,45.04,48.83,-45.00,-2.00,0.00,0,,,100,96,17,2,0,0,1,1,0,,,,,0.0,0.0,0.0,0.0,0.0,0.0,0
-22.959792,-67.786892,19.80,0.00,4.81,5.40,19.90,19.90,4.81,5.40,12292,2025-12-01 16:51:39.946,2025-12-01 13:51:39.946,18,0,0,47.862,-22.959743,-67.786899,-4.80,-0.20,0.10,-15.00,5.00,179.20,0,1,0,97,96,-52394,15644,47862,2951.50,18,WP,1,0,0,0,0,0,0,1764607899945,3934,3950,3963,3965,3955,3951,18,,,,,,,0,0,0,150.00,50.00,1792.00,2.00,2.00,-117.00,14,198.00,48.05,53.99,-48.00,-2.00,1.00,0,,,100,96,17,2,0,0,1,1,0,,,,,0.0,0.0,0.0,0.0,0.0,0.0,0
-22.959796,-67.786892,19.80,0.00,5.00,5.92,19.90,19.90,5.00,5.92,12387,2025-12-01 16:51:40.040,2025-12-01 13:51:40.041,18,0,0,47.862,-22.959743,-67.786899,-5.00,-0.20,0.00,-14.80,4.80,179.10,0,1,0,97,96,-52394,15644,47862,2951.50,18,WP,1,0,0,0,0,0,0,1764607900040,3934,3950,3963,3965,3955,3951,18,,,,,,,0,0,0,148.00,48.00,1791.00,5.00,2.00,-115.00,14,198.00,50.04,59.22,-50.00,-2.00,0.00,0,,,100,96,17,2,0,0,1,1,0,,,,,0.0,0.0,0.0,0.0,0.0,0.0,0
-22.959802,-67.786892,19.80,0.00,5.20,6.51,19.90,19.90,5.20,6.51,12485,2025-12-01 16:51:40.138,2025-12-01 13:51:40.138,18,0,0,47.862,-22.959743,-67.786899,-5.20,-0.20,0.00,-15.10,4.90,179.10,0,1,0,97,96,-52394,15644,47862,2951.50,18,WP,1,0,0,0,0,0,0,1764607900138,3934,3950,3963,3965,3955,3951,18,,,,,,,0,0,0,151.00,49.00,1791.00,5.00,2.00,-115.00,14,198.00,52.04,65.13,-52.00,-2.00,0.00,0,,,100,97,17,2,0,0,1,1,0,,,,,0.0,0.0,0.0,0.0,0.0,0.0,0
-22.959807,-67.786893,19.80,0.00,5.50,7.10,19.90,19.90,5.50,7.10,12586,2025-12-01 16:51:40.239,2025-12-01 13:51:40.239,18,0,0,47.862,-22.959743,-67.786899,-5.50,-0.20,0.00,-15.70,4.40,179.10,0,1,0,97,96,-52394,15644,47862,2951.50,18,WP,1,0,0,0,0,0,0,1764607900239,3934,3950,3963,3965,3955,3951,18,,,,,,,0,0,0,157.00,44.00,1791.00,3.00,2.00,-108.00,14,198.00,55.04,70.98,-55.00,-2.00,0.00,0,,,100,97,17,2,0,0,1,1,0,,,,,0.0,0.0,0.0,0.0,0.0,0.0,0
-22.959813,-67.786893,19.80,0.00,5.70,7.75,19.90,19.90,5.70,7.75,12697,2025-12-01 16:51:40.351,2025-12-01 13:51:40.351,18,0,0,47.862,-22.959743,-67.786899,-5.70,-0.20,0.00,-15.90,4.40,179.20,0,1,0,97,96,-52394,15644,47862,2951.50,18,WP,1,0,0,0,0,0,0,1764607900350,3934,3950,3963,3965,3955,3951,18,,,,,,,0,0,0,159.00,44.00,1792.00,3.00,2.00,-107.00,14,198.00,57.04,77.48,-57.00,-2.00,0.00,0,,,100,97,17,2,0,0,1,1,0,,,,,0.0,0.0,0.0,0.0,0.0,0.0,0
-22.959819,-67.786893,19.80,0.00,6.00,8.39,19.90,19.90,6.00,8.39,12793,2025-12-01 16:51:40.446,2025-12-01 13:51:40.446,18,0,0,47.862,-22.959743,-67.786899,-6.00,-0.20,0.00,-16.10,4.50,179.30,0,1,0,97,96,-52394,15644,47862,2951.50,18,WP,1,0,0,0,0,0,0,1764607900446,3934,3950,3963,3965,3955,3951,18,,,,,,,0,0,0,161.00,45.00,1793.00,3.00,2.00,-106.00,14,198.00,60.03,83.87,-60.00,-2.00,0.00,0,,,100,97,17,2,0,0,1,1,0,,,,,0.0,0.0,0.0,0.0,0.0,0.0,0
-22.959825,-67.786893,19.80,0.00,6.10,9.03,19.90,19.90,6.10,9.03,12898,2025-12-01 16:51:40.551,2025-12-01 13:51:40.551,18,0,0,47.862,-22.959743,-67.786899,-6.10,-0.20,0.00,-16.00,5.30,179.30,0,1,0,97,96,-52394,15644,47862,2951.50,18,WP,1,0,0,0,0,0,0,1764607900551,3934,3950,3963,3965,3955,3951,18,,,,,,,0,0,0,160.00,53.00,1793.00,4.00,3.00,-105.00,14,198.00,61.03,90.34,-61.00,-2.00,0.00,0,,,100,97,17,2,0,0,1,1,0,,,,,0.0,0.0,0.0,0.0,0.0,0.0,0
-22.959831,-67.786893,19.80,0.00,6.30,9.69,19.90,19.90,6.30,9.69,12989,2025-12-01 16:51:40.643,2025-12-01 13:51:40.643,18,0,0,47.862,-22.959743,-67.786899,-6.30,-0.20,0.00,-15.90,6.30,179.40,0,1,0,97,96,-52394,15644,47862,2951.50,18,WP,1,0,0,0,0,0,0,1764607900642,3934,3950,3963,3965,3955,3951,18,,,,,,,0,0,0,159.00,63.00,1794.00,4.00,3.00,-104.00,14,198.00,63.03,96.89,-63.00,-2.00,0.00,0,,,100,98,17,2,0,0,1,1,0,,,,,0.0,0.0,0.0,0.0,0.0,0.0,0
-22.959837,-67.786894,19.80,0.00,6.51,10.42,19.90,19.90,6.51,10.42,13095,2025-12-01 16:51:40.748,2025-12-01 13:51:40.748,18,0,0,47.862,-22.959743,-67.786899,-6.50,-0.30,0.00,-16.10,6.80,179.40,0,1,0,97,96,-52394,15644,47862,2951.50,18,WP,1,0,0,0,0,0,0,1764607900748,3934,3950,3963,3965,3955,3951,18,,,,,,,0,0,0,161.00,68.00,1794.00,3.00,2.00,-103.00,14,198.00,65.07,104.24,-65.00,-3.00,0.00,0,,,100,98,17,2,0,0,1,1,0,,,,,0.0,0.0,0.0,0.0,0.0,0.0,0
-22.959845,-67.786894,19.80,0.00,6.71,11.23,19.90,19.90,6.71,11.23,13198,2025-12-01 16:51:40.852,2025-12-01 13:51:40.852,18,0,0,47.862,-22.959743,-67.786899,-6.70,-0.30,0.00,-16.60,6.70,179.30,0,1,0,97,96,-52394,15644,47862,2951.50,18,WP,1,0,0,0,0,0,0,1764607900851,3934,3950,3963,3965,3955,3951,18,,,,,,,0,0,0,166.00,67.00,1793.00,2.00,3.00,-102.00,14,198.00,67.07,112.27,-67.00,-3.00,0.00,0,,,100,98,17,2,0,0,1,1,0,,,,,0.0,0.0,0.0,0.0,0.0,0.0,0
-22.959858,-67.786895,19.70,0.00,7.21,12.72,19.90,19.90,7.21,12.72,13394,2025-12-01 16:51:41.047,2025-12-01 13:51:41.047,18,0,0,47.862,-22.959743,-67.786899,-7.20,-0.40,0.00,-17.60,4.70,179.20,0,1,0,97,96,-52394,15644,47862,2951.50,18,WP,1,0,0,0,0,0,0,1764607901047,3934,3950,3963,3965,3955,3951,18,,,,,,,0,0,0,176.00,47.00,1792.00,1.00,2.00,-97.00,14,197.00,72.11,127.22,-72.00,-4.00,0.00,0,,,100,98,17,2,0,0,1,1,0,,,,,0.0,0.0,0.0,0.0,0.0,0.0,0
-22.959865,-67.786895,19.70,0.00,7.51,13.51,19.90,19.90,7.51,13.51,13494,2025-12-01 16:51:41.148,2025-12-01 13:51:41.148,18,0,0,47.862,-22.959743,-67.786899,-7.50,-0.40,0.00,-17.70,3.70,179.30,0,1,0,97,96,-52394,15644,47862,2951.50,18,WP,1,0,0,0,0,0,0,1764607901147,3934,3950,3963,3965,3955,3951,18,,,,,,,0,0,0,177.00,37.00,1793.00,1.00,2.00,-95.00,14,197.00,75.11,135.13,-75.00,-4.00,0.00,0,,,100,97,17,2,0,0,1,1,0,,,,,0.0,0.0,0.0,0.0,0.0,0.0,0
