latitude,longitude,altitude(m),ultrasonicHeight(m),speed(mps),distance(m),max_altitude(m),max_ascent(m),max_speed(mps),max_distance(m),time(millisecond),datetime(utc),datetime(local),satellites,pressure(Pa),temperature(F),voltage(v),home_latitude,home_longitude,velocityX(mps),velocityY(mps),velocityZ(mps),pitch(deg),roll(deg),yaw(deg),powerlevel,isflying,istakingphoto,remainPowerPercent,remainLifePercent,currentCurrent,currentElectricity,currentVoltage,batteryTemperature,dischargeCount,flightmode,isMotorsOn,isTakingVideo,Rc_elevator,Rc_aileron,Rc_throttle,Rc_rudder,Rc_gyro,timestamp,Battery_Cell1,Battery_Cell2,Battery_Cell3,Battery_Cell4,Battery_Cell5,Battery_Cell6,Dronetype,AppVersion,Planename,FlyControllerSerialNumber,RemoteSerialNumber,BatterySerialNumber,CENTER_BATTERY.productDate,CENTER_BATTERY.serialNo,CENTER_BATTERY.fullCapacity,CENTER_BATTERY.productDateRaw,pitchRaw,rollRaw,yawRaw,gimbalPitchRaw,gimbalRollRaw,gimbalYawRaw,flyState,altitudeRaw,speedRaw,distanceRaw,velocityXRaw,velocityYRaw,velocityZRaw,data_reuse,App_Tip,App_Warning,downlinkSignalQuality,uplinkSignalQuality,transmissionChannel,rcModeSwitch,rcHome,rcPause,rcTransform,rcJoystickMode,appMode,FlyControllerSerialNumber_legacy,RemoteSerialNumber_legacy,BatterySerialNumber_legacy,Battery2SerialNumber,frontAvoidDist,backAvoidDist,rightAvoidDist,leftAvoidDist,upAvoidDist,downAvoidDist,isBrakingToAvoid
-22.959715,-67.786915,0.60,0.00,0.61,1.04,0.60,0.60,0.61,1.04,4,2025-11-29 15:55:30.715,2025-11-29 12:55:30.716,16,0,0,52.020,-22.959721,-67.786908,0.00,0.10,-0.60,0.10,0.50,130.50,0,1,0,97,96,-1443,15864,52020,3001.50,16,TakeOff,1,0,0,0,0,0,0,1764431730715,4323,4329,4326,4333,4334,4330,18,Litchi_iOS_2.15.7,EIK Matrice 1,0670131556,03LLCA05XT,,,0,16188,0,-1.00,5.00,1305.00,0.00,-4.00,8.00,11,6.00,6.08,10.39,0.00,1.00,-6.00,0,,,100,100,19,2,0,0,1,1,0,(null),(null),(null),(null),0.0,0.0,0.0,0.0,0.0,0.0,0
-22.959715,-67.786915,0.70,0.00,0.61,1.02,0.70,0.70,0.61,1.04,98,2025-11-29 15:55:30.810,2025-11-29 12:55:30.810,17,0,0,52.020,-22.959721,-67.786908,0.00,0.10,-0.60,0.40,0.30,130.50,0,1,0,97,96,-1443,15864,52020,3001.50,16,TakeOff,1,0,0,0,0,0,0,1764431730809,4323,4329,4326,4333,4334,4330,18,,,,,,,0,0,0,-4.00,3.00,1305.00,0.00,-4.00,8.00,11,7.00,6.08,10.17,0.00,1.00,-6.00,0,,,100,100,19,2,0,0,1,1,0,,,,,0.0,0.0,0.0,0.0,0.0,0.0,0
-22.959715,-67.786915,0.70,0.00,0.51,1.00,0.70,0.70,0.61,1.04,200,2025-11-29 15:55:30.912,2025-11-29 12:55:30.912,17,0,0,52.020,-22.959721,-67.786908,0.00,0.10,-0.50,0.50,0.40,130.60,0,1,0,97,96,-1443,15864,52020,3001.50,16,TakeOff,1,0,0,0,0,0,0,1764431730911,4323,4329,4326,4333,4334,4330,18,,,,,,,0,0,0,-5.00,4.00,1306.00,0.00,-4.00,8.00,11,7.00,5.10,9.97,0.00,1.00,-5.00,0,,,100,100,19,2,0,0,1,1,0,,,,,0.0,0.0,0.0,0.0,0.0,0.0,0
-22.959715,-67.786914,0.80,0.00,0.45,0.97,0.80,0.80,0.61,1.04,303,2025-11-29 15:55:31.015,2025-11-29 12:55:31.015,17,0,0,52.020,-22.959721,-67.786908,0.00,0.20,-0.40,0.80,0.70,130.60,0,1,0,97,96,-1443,15864,52020,3001.50,16,TakeOff,1,0,0,0,0,0,0,1764431731014,4323,4329,4326,4333,4334,4330,18,,,,,,,0,0,0,-8.00,7.00,1306.00,0.00,-4.00,7.00,11,8.00,4.47,9.72,0.00,2.00,-4.00,0,,,100,100,19,2,0,0,1,1,0,,,,,0.0,0.0,0.0,0.0,0.0,0.0,0
-22.959715,-67.786914,0.80,0.00,0.45,0.95,0.80,0.80,0.61,1.04,403,2025-11-29 15:55:31.114,2025-11-29 12:55:31.114,17,0,0,52.020,-22.959721,-67.786908,0.00,0.20,-0.40,1.20,1.10,130.60,0,1,0,97,96,-1443,15864,52020,3001.50,16,TakeOff,1,0,0,0,0,0,0,1764431731114,4323,4329,4326,4333,4334,4330,18,,,,,,,0,0,0,-12.00,11.00,1306.00,0.00,-4.00,7.00,11,8.00,4.47,9.50,0.00,2.00,-4.00,0,,,100,100,19,2,0,0,1,1,0,,,,,0.0,0.0,0.0,0.0,0.0,0.0,0
-22.959715,-67.786914,0.90,0.00,0.45,0.93,0.90,0.90,0.61,1.04,503,2025-11-29 15:55:31.215,2025-11-29 12:55:31.215,17,0,0,52.020,-22.959721,-67.786908,0.00,0.20,-0.40,1.70,1.70,130.60,0,1,0,97,96,-1443,15864,52020,3001.50,16,TakeOff,1,0,0,0,0,0,0,1764431731214,4323,4329,4326,4333,4334,4330,18,,,,,,,0,0,0,-17.00,17.00,1306.00,0.00,-4.00,7.00,11,9.00,4.47,9.34,0.00,2.00,-4.00,0,,,100,100,19,2,0,0,1,1,0,,,,,0.0,0.0,0.0,0.0,0.0,0.0,0
-22.959715,-67.786913,0.90,0.00,0.32,0.92,0.90,0.90,0.61,1.04,605,2025-11-29 15:55:31.317,2025-11-29 12:55:31.317,17,0,0,51.646,-22.959721,-67.786908,0.00,0.10,-0.30,1.80,2.10,130.60,0,1,0,97,96,-31025,15864,51646,3001.50,16,TakeOff,1,0,0,0,0,0,0,1764431731316,4323,4329,4326,4333,4334,4330,18,,,,,,,0,0,0,-18.00,21.00,1306.00,0.00,-4.00,7.00,11,9.00,3.16,9.19,0.00,1.00,-3.00,0,,,100,100,19,2,0,0,1,1,0,,,,,0.0,0.0,0.0,0.0,0.0,0.0,0
-22.959715,-67.786913,1.00,0.00,0.32,0.26,1.00,1.00,0.61,1.04,707,2025-11-29 15:55:31.419,2025-11-29 12:55:31.419,17,0,0,51.646,-22.959715,-67.786916,0.00,0.10,-0.30,1.70,2.20,130.60,0,1,0,97,96,-31025,15864,51646,3001.50,16,TakeOff,1,0,0,0,0,0,0,1764431731418,4323,4329,4326,4333,4334,4330,18,,,,,,,0,0,0,-17.00,22.00,1306.00,0.00,-4.00,7.00,11,10.00,3.16,2.64,0.00,1.00,-3.00,0,,,100,100,19,2,0,0,1,1,0,,,,,0.0,0.0,0.0,0.0,0.0,0.0,0
-22.959715,-67.786913,1.00,0.00,0.32,0.28,1.00,1.00,0.61,1.04,804,2025-11-29 15:55:31.516,2025-11-29 12:55:31.516,17,0,0,51.646,-22.959715,-67.786916,0.00,0.10,-0.30,1.60,1.90,130.60,0,1,0,97,96,-31025,15864,51646,3001.50,16,TakeOff,1,0,0,0,0,0,0,1764431731515,4323,4329,4326,4333,4334,4330,18,,,,,,,0,0,0,-16.00,19.00,1306.00,0.00,-4.00,7.00,11,10.00,3.16,2.79,0.00,1.00,-3.00,0,,,100,100,19,2,0,0,1,1,0,,,,,0.0,0.0,0.0,0.0,0.0,0.0,0
-22.959715,-67.786913,1.00,0.00,0.32,0.29,1.00,1.00,0.61,1.04,907,2025-11-29 15:55:31.619,2025-11-29 12:55:31.619,17,0,0,51.646,-22.959715,-67.786916,0.00,0.10,-0.30,1.60,1.70,130.70,0,1,0,97,96,-31025,15864,51646,3001.50,16,WP,1,0,0,0,0,0,0,1764431731618,4323,4329,4326,4333,4334,4330,18,,,,,,,0,0,0,-16.00,17.00,1307.00,0.00,-4.00,6.00,14,10.00,3.16,2.88,0.00,1.00,-3.00,0,,,100,100,19,2,0,0,1,1,0,,,,,0.0,0.0,0.0,0.0,0.0,0.0,0
-22.959715,-67.786913,1.10,0.00,0.30,0.30,1.10,1.10,0.61,1.04,1008,2025-11-29 15:55:31.720,2025-11-29 12:55:31.720,17,0,0,51.646,-22.959715,-67.786916,0.00,0.00,-0.30,1.40,1.60,130.70,0,1,0,97,96,-31025,15864,51646,3001.50,16,WP,1,0,0,0,0,0,0,1764431731719,4323,4329,4326,4333,4334,4330,18,,,,,,,0,0,0,-14.00,16.00,1307.00,0.00,-4.00,6.00,14,11.00,3.00,2.98,0.00,0.00,-3.00,0,,,100,100,19,2,0,0,1,1,0,,,,,0.0,0.0,0.0,0.0,0.0,0.0,0
-22.959715,-67.786913,1.10,0.00,0.20,0.30,1.10,1.10,0.61,1.04,1105,2025-11-29 15:55:31.816,2025-11-29 12:55:31.816,17,0,0,51.646,-22.959715,-67.786916,0.00,0.00,-0.20,0.60,0.60,130.80,0,1,0,97,96,-31025,15864,51646,3001.50,16,WP,1,0,0,0,0,0,0,1764431731816,4323,4329,4326,4333,4334,4330,18,,,,,,,0,0,0,-6.00,6.00,1308.00,0.00,-4.00,6.00,14,11.00,2.00,3.03,0.00,0.00,-2.00,0,,,100,100,19,2,0,0,1,1,0,,,,,0.0,0.0,0.0,0.0,0.0,0.0,0
-22.959715,-67.786913,1.20,0.00,0.20,0.31,1.20,1.20,0.61,1.04,1214,2025-11-29 15:55:31.926,2025-11-29 12:55:31.926,17,0,0,51.646,-22.959715,-67.786916,0.00,0.00,-0.20,0.20,0.00,130.80,0,1,0,97,96,-31025,15864,51646,3001.50,16,WP,1,0,0,0,0,0,0,1764431731925,4323,4329,4326,4333,4334,4330,18,,,,,,,0,0,0,-2.00,0.00,1308.00,0.00,-4.00,5.00,14,12.00,2.00,3.11,0.00,0.00,-2.00,0,,,100,100,19,2,0,0,1,1,0,,,,,0.0,0.0,0.0,0.0,0.0,0.0,0
-22.959715,-67.786913,1.20,0.00,0.20,0.31,1.20,1.20,0.61,1.04,1318,2025-11-29 15:55:32.030,2025-11-29 12:55:32.030,17,0,0,51.646,-22.959715,-67.786916,0.00,0.00,-0.20,0.10,0.00,130.90,0,1,0,97,96,-31025,15864,51646,3001.50,16,WP,1,0,0,0,0,0,0,1764431732029,4323,4329,4326,4333,4334,4330,18,,,,,,,0,0,0,-1.00,0.00,1309.00,0.00,-4.00,4.00,14,12.00,2.00,3.13,0.00,0.00,-2.00,0,,,100,100,19,2,0,0,1,1,0,,,,,0.0,0.0,0.0,0.0,0.0,0.0,0
-22.959715,-67.786913,1.20,0.00,0.32,0.32,1.20,1.20,0.61,1.04,1406,2025-11-29 15:55:32.118,2025-11-29 12:55:32.118,17,0,0,51.646,-22.959715,-67.786916,0.00,0.10,-0.30,0.30,0.20,130.90,0,1,0,97,96,-31025,15864,51646,3001.50,16,WP,1,0,0,0,0,0,0,1764431732117,4323,4329,4326,4333,4334,4330,18,,,,,,,0,0,0,-3.00,2.00,1309.00,0.00,-4.00,4.00,14,12.00,3.16,3.21,0.00,1.00,-3.00,0,,,100,100,19,2,0,0,1,1,0,,,,,0.0,0.0,0.0,0.0,0.0,0.0,0
-22.959715,-67.786913,1.30,0.00,0.41,0.33,1.30,1.30,0.61,1.04,1516,2025-11-29 15:55:32.228,2025-11-29 12:55:32.228,17,0,0,51.646,-22.959715,-67.786916,0.00,0.10,-0.40,0.70,0.60,131.00,0,1,0,97,96,-31025,15864,51646,3001.50,16,WP,1,0,0,0,0,0,0,1764431732227,4323,4329,4326,4333,4334,4330,18,,,,,,,0,0,0,-7.00,6.00,1310.00,0.00,-4.00,3.00,14,13.00,4.12,3.31,0.00,1.00,-4.00,0,,,100,100,19,2,0,0,1,1,0,,,,,0.0,0.0,0.0,0.0,0.0,0.0,0
-22.959715,-67.786913,1.30,0.00,0.61,0.34,1.30,1.30,0.61,1.04,1612,2025-11-29 15:55:32.323,2025-11-29 12:55:32.323,17,0,0,51.646,-22.959715,-67.786916,0.00,0.10,-0.60,1.00,0.70,131.00,0,1,0,97,96,-31025,15864,51646,3001.50,16,WP,1,0,0,0,0,0,0,1764431732323,4323,4329,4326,4333,4334,4330,18,,,,,,,0,0,0,-10.00,7.00,1310.00,0.00,-4.00,3.00,14,13.00,6.08,3.43,0.00,1.00,-6.00,0,,,100,100,19,2,0,0,1,1,0,,,,,0.0,0.0,0.0,0.0,0.0,0.0,0
-22.959715,-67.786912,1.40,0.00,0.81,0.36,1.40,1.40,0.81,1.04,1716,2025-11-29 15:55:32.428,2025-11-29 12:55:32.428,17,0,0,51.646,-22.959715,-67.786916,0.00,0.10,-0.80,1.10,0.40,131.10,0,1,0,97,96,-31025,15864,51646,3001.50,16,WP,1,0,0,0,0,0,0,1764431732427,4323,4329,4326,4333,4334,4330,18,,,,,,,0,0,0,-11.00,4.00,1311.00,0.00,-4.00,2.00,14,14.00,8.06,3.57,0.00,1.00,-8.00,0,,,100,100,19,2,0,0,1,1,0,,,,,0.0,0.0,0.0,0.0,0.0,0.0,0
-22.959715,-67.786912,1.50,0.00,1.10,0.37,1.50,1.50,1.10,1.04,1816,2025-11-29 15:55:32.528,2025-11-29 12:55:32.528,17,0,0,51.646,-22.959715,-67.786916,0.00,0.10,-1.10,1.00,0.30,131.10,0,1,0,97,96,-31025,15864,51646,3001.50,16,WP,1,0,0,0,0,0,0,1764431732527,4323,4329,4326,4333,4334,4330,18,,,,,,,0,0,0,-10.00,3.00,1311.00,0.00,-4.00,1.00,14,15.00,11.05,3.70,0.00,1.00,-11.00,0,,,100,100,19,2,0,0,1,1,0,,,,,0.0,0.0,0.0,0.0,0.0,0.0,0
-22.959715,-67.786912,1.60,0.00,1.40,0.39,1.60,1.60,1.40,1.04,1911,2025-11-29 15:55:32.622,2025-11-29 12:55:32.622,17,0,0,51.646,-22.959715,-67.786916,0.00,0.10,-1.40,1.10,0.40,131.00,0,1,0,97,96,-31025,15864,51646,3001.50,16,WP,1,0,0,0,0,0,0,1764431732622,4323,4329,4326,4333,4334,4330,18,,,,,,,0,0,0,-11.00,4.00,1310.00,0.00,-4.00,1.00,14,16.00,14.04,3.86,0.00,1.00,-14.00,0,,,100,100,19,2,0,0,1,1,0,,,,,0.0,0.0,0.0,0.0,0.0,0.0,0
-22.959715,-67.786912,1.80,0.00,1.70,0.40,1.80,1.80,1.70,1.04,2016,2025-11-29 15:55:32.728,2025-11-29 12:55:32.728,17,0,0,51.646,-22.959715,-67.786916,0.00,0.10,-1.70,0.80,0.60,130.90,0,1,0,97,96,-31025,15864,51646,3001.50,16,WP,1,0,0,0,0,0,0,1764431732727,4323,4329,4326,4333,4334,4330,18,,,,,,,0,0,0,-8.00,6.00,1309.00,0.00,-4.00,3.00,14,18.00,17.03,4.01,0.00,1.00,-17.00,0,,,100,100,19,2,0,0,1,1,0,,,,,0.0,0.0,0.0,0.0,0.0,0.0,0
-22.959715,-67.786912,2.00,0.00,2.00,0.42,2.00,2.00,2.00,1.04,2111,2025-11-29 15:55:32.823,2025-11-29 12:55:32.823,17,0,0,51.646,-22.959715,-67.786916,0.00,0.10,-2.00,0.20,1.00,130.90,0,1,0,97,96,-31025,15864,51646,3001.50,16,WP,1,0,0,0,0,0,0,1764431732822,4323,4329,4326,4333,4334,4330,18,,,,,,,0,0,0,-2.00,10.00,1309.00,0.00,-4.00,4.00,14,20.00,20.02,4.24,0.00,1.00,-20.00,0,,,100,100,19,2,0,0,1,1,0,,,,,0.0,0.0,0.0,0.0,0.0,0.0,0
-22.959715,-67.786912,2.30,0.00,2.40,0.44,2.30,2.30,2.40,1.04,2215,2025-11-29 15:55:32.927,2025-11-29 12:55:32.927,17,0,0,51.646,-22.959715,-67.786916,0.00,0.10,-2.40,0.00,1.50,130.80,0,1,0,97,96,-31025,15864,51646,3001.50,16,WP,1,0,0,0,0,0,0,1764431732926,4323,4329,4326,4333,4334,4330,18,,,,,,,0,0,0,-0.00,15.00,1308.00,0.00,-4.00,4.00,14,23.00,24.02,4.44,0.00,1.00,-24.00,0,,,100,100,19,2,0,0,1,1,0,,,,,0.0,0.0,0.0,0.0,0.0,0.0,0
-22.959715,-67.786911,2.60,0.00,2.70,0.46,2.60,2.60,2.70,1.04,2317,2025-11-29 15:55:33.028,2025-11-29 12:55:33.029,16,0,0,51.646,-22.959715,-67.786916,0.00,0.10,-2.70,0.00,1.90,130.80,0,1,0,97,96,-31025,15864,51646,3001.50,16,WP,1,0,0,0,0,0,0,1764431733028,4323,4329,4326,4333,4334,4330,18,,,,,,,0,0,0,-0.00,19.00,1308.00,0.00,-4.00,4.00,14,26.00,27.02,4.63,0.00,1.00,-27.00,0,,,100,100,19,2,0,0,1,1,0,,,,,0.0,0.0,0.0,0.0,0.0,0.0,0
-22.959715,-67.786911,2.90,0.00,2.90,0.48,2.90,2.90,2.90,1.04,2414,2025-11-29 15:55:33.126,2025-11-29 12:55:33.126,16,0,0,51.646,-22.959715,-67.786916,0.00,0.10,-2.90,0.30,2.30,130.80,0,1,0,97,96,-31025,15864,51646,3001.50,16,WP,1,0,0,0,0,0,0,1764431733125,4323,4329,4326,4333,4334,4330,18,,,,,,,0,0,0,-3.00,23.00,1308.00,0.00,-4.00,4.00,14,29.00,29.02,4.79,0.00,1.00,-29.00,0,,,100,100,19,2,0,0,1,1,0,,,,,0.0,0.0,0.0,0.0,0.0,0.0,0
-22.959715,-67.786911,3.20,0.00,3.10,0.50,3.20,3.20,3.10,1.04,2520,2025-11-29 15:55:33.231,2025-11-29 12:55:33.232,17,0,0,51.646,-22.959715,-67.786916,0.00,0.10,-3.10,0.30,2.40,130.70,0,1,0,97,96,-31025,15864,51646,3001.50,16,WP,1,0,0,0,0,0,0,1764431733231,4323,4329,4326,4333,4334,4330,18,,,,,,,0,0,0,-3.00,24.00,1307.00,0.00,-4.00,4.00,14,32.00,31.02,4.98,0.00,1.00,-31.00,0,,,100,100,19,2,0,0,1,1,0,,,,,0.0,0.0,0.0,0.0,0.0,0.0,0
-22.959715,-67.786911,3.50,0.00,3.30,0.52,3.50,3.50,3.30,1.04,2616,2025-11-29 15:55:33.328,2025-11-29 12:55:33.328,17,0,0,48.857,-22.959715,-67.786916,0.00,0.10,-3.30,0.50,2.40,130.70,0,1,0,97,96,-46798,15864,48857,3001.50,16,WP,1,0,0,0,0,0,0,1764431733327,4323,4329,4326,4333,4334,4330,18,,,,,,,0,0,0,-5.00,24.00,1307.00,0.00,-4.00,4.00,14,35.00,33.02,5.15,0.00,1.00,-33.00,0,,,100,100,19,2,0,0,1,1,0,,,,,0.0,0.0,0.0,0.0,0.0,0.0,0
-22.959715,-67.786911,3.80,0.00,3.40,0.53,3.80,3.80,3.40,1.04,2720,2025-11-29 15:55:33.432,2025-11-29 12:55:33.432,17,0,0,48.857,-22.959715,-67.786916,0.00,0.10,-3.40,0.80,2.50,130.60,0,1,0,97,96,-46798,15864,48857,3001.50,16,WP,1,0,0,0,0,0,0,1764431733431,4323,4329,4326,4333,4334,4330,18,,,,,,,0,0,0,-8.00,25.00,1306.00,0.00,-4.00,6.00,14,38.00,34.01,5.32,0.00,1.00,-34.00,0,,,100,100,19,2,0,0,1,1,0,,,,,0.0,0.0,0.0,0.0,0.0,0.0,0
-22.959715,-67.786910,4.50,0.00,3.50,0.56,4.50,4.50,3.50,1.04,2920,2025-11-29 15:55:33.631,2025-11-29 12:55:33.632,17,0,0,48.857,-22.959715,-67.786916,-0.10,0.00,-3.50,1.90,2.20,130.60,0,1,0,97,96,-46798,15864,48857,3001.50,16,WP,1,0,0,0,0,0,0,1764431733631,4323,4329,4326,4333,4334,4330,18,,,,,,,0,0,0,-19.00,22.00,1306.00,0.00,-4.00,6.00,14,45.00,35.01,5.63,-1.00,0.00,-35.00,0,,,100,100,19,2,0,0,1,1,0,,,,,0.0,0.0,0.0,0.0,0.0,0.0,0
-22.959716,-67.786910,4.90,0.00,3.40,0.58,4.90,4.90,3.50,1.04,3022,2025-11-29 15:55:33.734,2025-11-29 12:55:33.734,17,0,0,48.857,-22.959715,-67.786916,-0.10,0.00,-3.40,2.50,1.90,130.60,0,1,0,97,96,-46798,15864,48857,3001.50,16,WP,1,0,0,0,0,0,0,1764431733733,4323,4329,4326,4333,4334,4330,18,,,,,,,0,0,0,-25.00,19.00,1306.00,0.00,-4.00,6.00,14,49.00,34.01,5.76,-1.00,0.00,-34.00,0,,,100,100,19,2,0,0,1,1,0,,,,,0.0,0.0,0.0,0.0,0.0,0.0,0
-22.959716,-67.786910,5.20,0.00,3.40,0.59,5.20,5.20,3.50,1.04,3133,2025-11-29 15:55:33.845,2025-11-29 12:55:33.845,17,0,0,48.857,-22.959715,-67.786916,-0.10,0.00,-3.40,3.10,1.50,130.60,0,1,0,97,96,-46798,15864,48857,3001.50,16,WP,1,0,0,0,0,0,0,1764431733844,4323,4329,4326,4333,4334,4330,18,,,,,,,0,0,0,-31.00,15.00,1306.00,0.00,-4.00,7.00,14,52.00,34.01,5.85,-1.00,0.00,-34.00,0,,,100,98,19,2,0,0,1,1,0,,,,,0.0,0.0,0.0,0.0,0.0,0.0,0
-22.959716,-67.786910,5.50,0.00,3.30,0.59,5.50,5.50,3.50,1.04,3229,2025-11-29 15:55:33.940,2025-11-29 12:55:33.941,17,0,0,48.857,-22.959715,-67.786916,-0.10,0.00,-3.30,3.30,1.20,130.50,0,1,0,97,96,-46798,15864,48857,3001.50,16,WP,1,0,0,0,0,0,0,1764431733940,4323,4329,4326,4333,4334,4330,18,,,,,,,0,0,0,-33.00,12.00,1305.00,0.00,-4.00,7.00,14,55.00,33.02,5.92,-1.00,0.00,-33.00,0,,,100,98,19,2,0,0,1,1,0,,,,,0.0,0.0,0.0,0.0,0.0,0.0,0
-22.959717,-67.786910,5.80,0.00,3.20,0.60,5.80,5.80,3.50,1.04,3332,2025-11-29 15:55:34.044,2025-11-29 12:55:34.044,17,0,0,48.857,-22.959715,-67.786916,-0.10,0.00,-3.20,3.30,0.80,130.50,0,1,0,97,96,-46798,15864,48857,3001.50,16,WP,1,0,0,0,0,0,0,1764431734043,4323,4329,4326,4333,4334,4330,18,,,,,,,0,0,0,-33.00,8.00,1305.00,0.00,-4.00,7.00,14,58.00,32.02,6.03,-1.00,0.00,-32.00,0,,,100,98,19,2,0,0,1,1,0,,,,,0.0,0.0,0.0,0.0,0.0,0.0,0
-22.959717,-67.786910,6.10,0.00,3.10,0.61,6.10,6.10,3.50,1.04,3425,2025-11-29 15:55:34.136,2025-11-29 12:55:34.136,17,0,0,48.857,-22.959715,-67.786916,-0.10,0.00,-3.10,3.30,0.50,130.60,0,1,0,97,96,-46798,15864,48857,3001.50,16,WP,1,0,0,0,0,0,0,1764431734136,4323,4329,4326,4333,4334,4330,18,,,,,,,0,0,0,-33.00,5.00,1306.00,0.00,-4.00,7.00,14,61.00,31.02,6.08,-1.00,0.00,-31.00,0,,,100,98,19,2,0,0,1,1,0,,,,,0.0,0.0,0.0,0.0,0.0,0.0,0
-22.959717,-67.786910,6.40,0.00,3.00,0.61,6.40,6.40,3.50,1.04,3530,2025-11-29 15:55:34.242,2025-11-29 12:55:34.242,17,0,0,48.857,-22.959715,-67.786916,-0.10,0.00,-3.00,3.10,0.20,130.50,0,1,0,97,96,-46798,15864,48857,3001.50,16,WP,1,0,0,0,0,0,0,1764431734241,4323,4329,4326,4333,4334,4330,18,,,,,,,0,0,0,-31.00,2.00,1305.00,0.00,-4.00,7.00,14,64.00,30.02,6.08,-1.00,0.00,-30.00,0,,,100,98,19,2,0,0,1,1,0,,,,,0.0,0.0,0.0,0.0,0.0,0.0,0
-22.959717,-67.786910,6.70,0.00,2.90,0.60,6.70,6.70,3.50,1.04,3633,2025-11-29 15:55:34.344,2025-11-29 12:55:34.344,17,0,0,48.857,-22.959715,-67.786916,0.00,0.00,-2.90,3.10,0.00,130.60,0,1,0,97,96,-46798,15864,48857,3001.50,16,WP,1,0,0,0,0,0,0,1764431734344,4323,4329,4326,4333,4334,4330,18,,,,,,,0,0,0,-31.00,0.00,1306.00,0.00,-4.00,7.00,14,67.00,29.00,6.04,0.00,0.00,-29.00,0,,,100,98,19,2,0,0,1,1,0,,,,,0.0,0.0,0.0,0.0,0.0,0.0,0
-22.959717,-67.786910,6.90,0.00,2.90,0.60,6.90,6.90,3.50,1.04,3730,2025-11-29 15:55:34.442,2025-11-29 12:55:34.442,17,0,0,48.857,-22.959715,-67.786916,0.00,0.00,-2.90,3.10,0.00,130.50,0,1,0,97,96,-46798,15864,48857,3001.50,16,WP,1,0,0,0,0,0,0,1764431734441,4323,4329,4326,4333,4334,4330,18,,,,,,,0,0,0,-31.00,0.00,1305.00,0.00,-4.00,7.00,14,69.00,29.00,5.99,0.00,0.00,-29.00,0,,,100,98,19,2,0,0,1,1,0,,,,,0.0,0.0,0.0,0.0,0.0,0.0,0
-22.959717,-67.786911,7.20,0.00,2.90,0.59,7.20,7.20,3.50,1.04,3832,2025-11-29 15:55:34.543,2025-11-29 12:55:34.543,17,0,0,48.857,-22.959715,-67.786916,0.00,0.00,-2.90,3.00,-0.10,130.50,0,1,0,97,96,-46798,15864,48857,3001.50,16,WP,1,0,0,0,0,0,0,1764431734543,4323,4329,4326,4333,4334,4330,18,,,,,,,0,0,0,-30.00,-1.00,1305.00,0.00,-4.00,7.00,14,72.00,29.00,5.91,0.00,0.00,-29.00,0,,,100,98,19,2,0,0,1,1,0,,,,,0.0,0.0,0.0,0.0,0.0,0.0,0
-22.959717,-67.786911,7.50,0.00,2.90,0.59,7.50,7.50,3.50,1.04,3928,2025-11-29 15:55:34.640,2025-11-29 12:55:34.640,17,0,0,48.857,-22.959715,-67.786916,0.00,-0.10,-2.90,2.50,0.00,130.50,0,1,0,97,96,-46798,15864,48857,3001.50,16,WP,1,0,0,0,0,0,0,1764431734639,4323,4329,4326,4333,4334,4330,18,,,,,,,0,0,0,-25.00,0.00,1305.00,0.00,-4.00,7.00,14,75.00,29.02,5.87,0.00,-1.00,-29.00,0,,,100,98,19,2,0,0,1,1,0,,,,,0.0,0.0,0.0,0.0,0.0,0.0,0
-22.959717,-67.786911,7.80,0.00,3.00,0.58,7.80,7.80,3.50,1.04,4032,2025-11-29 15:55:34.743,2025-11-29 12:55:34.744,17,0,0,48.857,-22.959715,-67.786916,0.00,-0.10,-3.00,2.00,0.30,130.50,0,1,0,97,96,-46798,15864,48857,3001.50,16,WP,1,0,0,0,0,0,0,1764431734743,4323,4329,4326,4333,4334,4330,18,,,,,,,0,0,0,-20.00,3.00,1305.00,0.00,-4.00,8.00,14,78.00,30.02,5.76,0.00,-1.00,-30.00,0,,,100,98,19,2,0,0,1,1,0,,,,,0.0,0.0,0.0,0.0,0.0,0.0,0
-22.959717,-67.786911,8.10,0.00,3.00,0.56,8.10,8.10,3.50,1.04,4133,2025-11-29 15:55:34.844,2025-11-29 12:55:34.844,17,0,0,48.857,-22.959715,-67.786916,0.00,-0.10,-3.00,1.40,0.80,130.60,0,1,0,97,96,-46798,15864,48857,3001.50,16,WP,1,0,0,0,0,0,0,1764431734844,4323,4329,4326,4333,4334,4330,18,,,,,,,0,0,0,-14.00,8.00,1306.00,0.00,-4.00,7.00,14,81.00,30.02,5.61,0.00,-1.00,-30.00,0,,,100,98,19,2,0,0,1,1,0,,,,,0.0,0.0,0.0,0.0,0.0,0.0,0
-22.959717,-67.786911,8.40,0.00,3.10,0.55,8.40,8.40,3.50,1.04,4229,2025-11-29 15:55:34.941,2025-11-29 12:55:34.941,17,0,0,48.857,-22.959715,-67.786916,0.00,-0.10,-3.10,1.00,1.30,130.60,0,1,0,97,96,-46798,15864,48857,3001.50,16,WP,1,0,0,0,0,0,0,1764431734940,4323,4329,4326,4333,4334,4330,18,,,,,,,0,0,0,-10.00,13.00,1306.00,0.00,-4.00,7.00,14,84.00,31.02,5.45,0.00,-1.00,-31.00,0,,,100,98,19,2,0,0,1,1,0,,,,,0.0,0.0,0.0,0.0,0.0,0.0,0
-22.959717,-67.786911,8.80,0.00,3.10,0.53,8.80,8.80,3.50,1.04,4332,2025-11-29 15:55:35.043,2025-11-29 12:55:35.043,17,0,0,48.857,-22.959715,-67.786916,0.00,-0.10,-3.10,0.80,1.40,130.60,0,1,0,97,96,-46798,15864,48857,3001.50,16,WP,1,0,0,0,0,0,0,1764431735043,4323,4329,4326,4333,4334,4330,18,,,,,,,0,0,0,-8.00,14.00,1306.00,0.00,-4.00,6.00,14,88.00,31.02,5.32,0.00,-1.00,-31.00,0,,,100,98,19,2,0,0,1,1,0,,,,,0.0,0.0,0.0,0.0,0.0,0.0,0
-22.959717,-67.786911,9.10,0.00,3.10,0.52,9.10,9.10,3.50,1.04,4434,2025-11-29 15:55:35.145,2025-11-29 12:55:35.146,17,0,0,48.857,-22.959715,-67.786916,0.00,-0.10,-3.10,1.00,0.90,130.70,0,1,0,97,96,-46798,15864,48857,3001.50,16,WP,1,0,0,0,0,0,0,1764431735145,4323,4329,4326,4333,4334,4330,18,,,,,,,0,0,0,-10.00,9.00,1307.00,0.00,-4.00,6.00,14,91.00,31.02,5.19,0.00,-1.00,-31.00,0,,,100,98,19,2,0,0,1,1,0,,,,,0.0,0.0,0.0,0.0,0.0,0.0,0
-22.959718,-67.786912,9.40,0.00,3.20,0.51,9.40,9.40,3.50,1.04,4535,2025-11-29 15:55:35.246,2025-11-29 12:55:35.246,17,0,0,47.559,-22.959715,-67.786916,0.00,-0.10,-3.20,1.20,0.20,130.70,0,1,0,97,96,-78380,15810,47559,3001.50,16,WP,1,0,0,0,0,0,0,1764431735246,4323,4329,4326,4333,4334,4330,18,,,,,,,0,0,0,-12.00,2.00,1307.00,0.00,-4.00,6.00,14,94.00,32.02,5.08,0.00,-1.00,-32.00,0,,,100,98,19,2,0,0,1,1,0,,,,,0.0,0.0,0.0,0.0,0.0,0.0,0
-22.959718,-67.786912,9.80,0.00,3.20,0.50,9.80,9.80,3.50,1.04,4735,2025-11-29 15:55:35.446,2025-11-29 12:55:35.446,17,0,0,47.559,-22.959715,-67.786916,0.00,-0.10,-3.20,1.30,-0.20,130.70,0,1,0,97,96,-78380,15810,47559,3001.50,16,WP,1,0,0,0,0,0,0,1764431735446,4323,4329,4326,4333,4334,4330,18,,,,,,,0,0,0,-13.00,-2.00,1307.00,0.00,-4.00,6.00,14,98.00,32.02,4.98,0.00,-1.00,-32.00,0,,,100,100,19,2,0,0,1,1,0,,,,,0.0,0.0,0.0,0.0,0.0,0.0,0
-22.959718,-67.786912,10.10,0.00,3.10,0.49,10.10,10.10,3.50,1.04,4742,2025-11-29 15:55:35.453,2025-11-29 12:55:35.453,17,0,0,47.559,-22.959715,-67.786916,0.00,-0.10,-3.10,1.20,-0.80,130.80,0,1,0,97,96,-78380,15810,47559,3001.50,16,WP,1,0,0,0,0,0,0,1764431735453,4323,4329,4326,4333,4334,4330,18,,,,,,,0,0,0,-12.00,-8.00,1308.00,0.00,-4.00,5.00,14,101.00,31.02,4.94,0.00,-1.00,-31.00,0,,,100,100,19,2,0,0,1,1,0,,,,,0.0,0.0,0.0,0.0,0.0,0.0,0
-22.959718,-67.786912,10.40,0.00,3.10,0.49,10.40,10.40,3.50,1.04,4837,2025-11-29 15:55:35.548,2025-11-29 12:55:35.548,17,0,0,47.559,-22.959715,-67.786916,0.00,-0.10,-3.10,0.90,-1.00,130.80,0,1,0,97,96,-78380,15810,47559,3001.50,16,WP,1,0,0,0,0,0,0,1764431735548,4323,4329,4326,4333,4334,4330,18,,,,,,,0,0,0,-9.00,-10.00,1308.00,0.00,-4.00,5.00,14,104.00,31.02,4.90,0.00,-1.00,-31.00,0,,,100,100,19,2,0,0,1,1,0,,,,,0.0,0.0,0.0,0.0,0.0,0.0,0
-22.959718,-67.786912,10.70,0.00,3.10,0.48,10.70,10.70,3.50,1.04,4938,2025-11-29 15:55:35.649,2025-11-29 12:55:35.649,17,0,0,47.559,-22.959715,-67.786916,0.00,-0.10,-3.10,0.90,-1.00,130.70,0,1,0,97,96,-78380,15810,47559,3001.50,16,WP,1,0,0,0,0,0,0,1764431735649,4323,4329,4326,4333,4334,4330,18,,,,,,,0,0,0,-9.00,-10.00,1307.00,0.00,-4.00,5.00,14,107.00,31.02,4.83,0.00,-1.00,-31.00,0,,,100,100,19,2,0,0,1,1,0,,,,,0.0,0.0,0.0,0.0,0.0,0.0,0
-22.959718,-67.786913,11.30,0.00,3.00,0.49,11.30,11.30,3.50,1.04,5137,2025-11-29 15:55:35.848,2025-11-29 12:55:35.848,17,0,0,47.559,-22.959715,-67.786916,0.00,0.00,-3.00,1.30,-0.80,130.80,0,1,0,97,96,-78380,15810,47559,3001.50,16,WP,1,0,0,0,0,0,0,1764431735848,4323,4329,4326,4333,4334,4330,18,,,,,,,0,0,0,-13.00,-8.00,1308.00,0.00,-4.00,5.00,14,113.00,30.00,4.86,0.00,0.00,-30.00,0,,,100,99,19,2,0,0,1,1,0,,,,,0.0,0.0,0.0,0.0,0.0,0.0,0
-22.959718,-67.786913,11.70,0.00,3.00,0.49,11.70,11.70,3.50,1.04,5239,2025-11-29 15:55:35.951,2025-11-29 12:55:35.951,17,0,0,47.559,-22.959715,-67.786916,0.00,0.00,-3.00,1.60,-1.00,130.80,0,1,0,97,96,-78380,15810,47559,3001.50,16,WP,1,0,0,0,0,0,0,1764431735950,4323,4329,4326,4333,4334,4330,18,,,,,,,0,0,0,-16.00,-10.00,1308.00,0.00,-4.00,5.00,14,117.00,30.00,4.94,0.00,0.00,-30.00,0,,,100,99,19,2,0,0,1,1,0,,,,,0.0,0.0,0.0,0.0,0.0,0.0,0
-22.959718,-67.786913,12.00,0.00,3.00,0.50,12.00,12.00,3.50,1.04,5340,2025-11-29 15:55:36.052,2025-11-29 12:55:36.052,17,0,0,47.559,-22.959715,-67.786916,0.00,0.00,-3.00,1.80,-1.10,130.70,0,1,0,97,96,-78380,15810,47559,3001.50,16,WP,1,0,0,0,0,0,0,1764431736051,4323,4329,4326,4333,4334,4330,18,,,,,,,0,0,0,-18.00,-11.00,1307.00,0.00,-4.00,5.00,14,120.00,30.00,4.99,0.00,0.00,-30.00,0,,,100,99,19,2,0,0,1,1,0,,,,,0.0,0.0,0.0,0.0,0.0,0.0,0
-22.959719,-67.786913,12.30,0.00,3.00,0.50,12.30,12.30,3.50,1.04,5438,2025-11-29 15:55:36.149,2025-11-29 12:55:36.149,17,0,0,47.559,-22.959715,-67.786916,0.00,0.00,-3.00,2.00,-1.20,130.70,0,1,0,97,96,-78380,15810,47559,3001.50,16,WP,1,0,0,0,0,0,0,1764431736149,4323,4329,4326,4333,4334,4330,18,,,,,,,0,0,0,-20.00,-12.00,1307.00,0.00,-4.00,5.00,14,123.00,30.00,5.03,0.00,0.00,-30.00,0,,,100,99,19,2,0,0,1,1,0,,,,,0.0,0.0,0.0,0.0,0.0,0.0,0
-22.959719,-67.786913,12.60,0.00,3.00,0.51,12.60,12.60,3.50,1.04,5537,2025-11-29 15:55:36.249,2025-11-29 12:55:36.249,17,0,0,47.559,-22.959715,-67.786916,0.00,0.00,-3.00,2.20,-1.10,130.60,0,1,0,97,96,-78380,15810,47559,3001.50,16,WP,1,0,0,0,0,0,0,1764431736248,4323,4329,4326,4333,4334,4330,18,,,,,,,0,0,0,-22.00,-11.00,1306.00,0.00,-4.00,6.00,14,126.00,30.00,5.07,0.00,0.00,-30.00,0,,,100,99,19,2,0,0,1,1,0,,,,,0.0,0.0,0.0,0.0,0.0,0.0,0
-22.959719,-67.786913,12.90,0.00,3.00,0.51,12.90,12.90,3.50,1.04,5649,2025-11-29 15:55:36.360,2025-11-29 12:55:36.361,17,0,0,47.559,-22.959715,-67.786916,0.00,0.00,-3.00,2.40,-1.10,130.60,0,1,0,97,96,-78380,15810,47559,3001.50,16,WP,1,0,0,0,0,0,0,1764431736360,4323,4329,4326,4333,4334,4330,18,,,,,,,0,0,0,-24.00,-11.00,1306.00,0.00,-4.00,6.00,14,129.00,30.00,5.10,0.00,0.00,-30.00,0,,,100,98,19,2,0,0,1,1,0,,,,,0.0,0.0,0.0,0.0,0.0,0.0,0
-22.959719,-67.786913,13.20,0.00,2.90,0.51,13.20,13.20,3.50,1.04,5744,2025-11-29 15:55:36.456,2025-11-29 12:55:36.456,17,0,0,47.559,-22.959715,-67.786916,0.00,0.00,-2.90,2.30,-1.00,130.60,0,1,0,97,96,-78380,15810,47559,3001.50,16,WP,1,0,0,0,0,0,0,1764431736455,3991,4019,4018,4038,4026,4023,18,,,,,,,0,0,0,-23.00,-10.00,1306.00,0.00,-4.00,6.00,14,132.00,29.00,5.07,0.00,0.00,-29.00,0,,,100,98,19,2,0,0,1,1,0,,,,,0.0,0.0,0.0,0.0,0.0,0.0,0
-22.959719,-67.786913,13.50,0.00,2.90,0.50,13.50,13.50,3.50,1.04,5750,2025-11-29 15:55:36.461,2025-11-29 12:55:36.461,17,0,0,47.559,-22.959715,-67.786916,0.00,0.00,-2.90,2.10,-0.60,130.60,0,1,0,97,96,-78380,15810,47559,3001.50,16,WP,1,0,0,0,0,0,0,1764431736461,3991,4019,4018,4038,4026,4023,18,,,,,,,0,0,0,-21.00,-6.00,1306.00,0.00,-4.00,6.00,14,135.00,29.00,5.05,0.00,0.00,-29.00,0,,,100,98,19,2,0,0,1,1,0,,,,,0.0,0.0,0.0,0.0,0.0,0.0,0
-22.959718,-67.786913,13.80,0.00,2.90,0.49,13.80,13.80,3.50,1.04,5948,2025-11-29 15:55:36.659,2025-11-29 12:55:36.660,17,0,0,47.559,-22.959715,-67.786916,0.00,0.00,-2.90,1.80,-0.20,130.60,0,1,0,97,96,-78380,15810,47559,3001.50,16,WP,1,0,0,0,0,0,0,1764431736659,3991,4019,4018,4038,4026,4023,18,,,,,,,0,0,0,-18.00,-2.00,1306.00,0.00,-4.00,6.00,14,138.00,29.00,4.92,0.00,0.00,-29.00,0,,,100,98,19,2,0,0,1,1,0,,,,,0.0,0.0,0.0,0.0,0.0,0.0,0
-22.959718,-67.786913,14.10,0.00,2.90,0.49,14.10,14.10,3.50,1.04,6048,2025-11-29 15:55:36.760,2025-11-29 12:55:36.760,17,0,0,47.559,-22.959715,-67.786916,0.00,0.00,-2.90,1.60,0.10,130.60,0,1,0,97,96,-78380,15810,47559,3001.50,16,WP,1,0,0,0,0,0,0,1764431736759,3991,4019,4018,4038,4026,4023,18,,,,,,,0,0,0,-16.00,1.00,1306.00,0.00,-4.00,6.00,14,141.00,29.00,4.85,0.00,0.00,-29.00,0,,,100,98,19,2,0,0,1,1,0,,,,,0.0,0.0,0.0,0.0,0.0,0.0,0
-22.959718,-67.786913,14.40,0.00,3.00,0.48,14.40,14.40,3.50,1.04,6146,2025-11-29 15:55:36.857,2025-11-29 12:55:36.857,17,0,0,47.559,-22.959715,-67.786916,0.00,0.00,-3.00,1.60,0.30,130.60,0,1,0,97,96,-78380,15810,47559,3001.50,16,WP,1,0,0,0,0,0,0,1764431736857,3991,4019,4018,4038,4026,4023,18,,,,,,,0,0,0,-16.00,3.00,1306.00,0.00,-4.00,6.00,14,144.00,30.00,4.75,0.00,0.00,-30.00,0,,,100,96,19,2,0,0,1,1,0,,,,,0.0,0.0,0.0,0.0,0.0,0.0,0
-22.959718,-67.786913,14.80,0.00,2.90,0.47,14.80,14.80,3.50,1.04,6249,2025-11-29 15:55:36.960,2025-11-29 12:55:36.960,17,0,0,47.559,-22.959715,-67.786916,0.00,0.00,-2.90,1.90,0.40,130.60,0,1,0,97,96,-78380,15810,47559,3001.50,16,WP,1,0,0,0,0,0,0,1764431736960,3991,4019,4018,4038,4026,4023,18,,,,,,,0,0,0,-19.00,4.00,1306.00,0.00,-4.00,6.00,14,148.00,29.00,4.71,0.00,0.00,-29.00,0,,,100,96,19,2,0,0,1,1,0,,,,,0.0,0.0,0.0,0.0,0.0,0.0,0
-22.959718,-67.786913,15.10,0.00,3.00,0.47,15.10,15.10,3.50,1.04,6256,2025-11-29 15:55:36.967,2025-11-29 12:55:36.968,17,0,0,47.559,-22.959715,-67.786916,0.00,0.00,-3.00,2.10,0.30,130.60,0,1,0,97,96,-78380,15810,47559,3001.50,16,WP,1,0,0,0,0,0,0,1764431736967,3991,4019,4018,4038,4026,4023,18,,,,,,,0,0,0,-21.00,3.00,1306.00,0.00,-4.00,6.00,14,151.00,30.00,4.65,0.00,0.00,-30.00,0,,,100,96,19,2,0,0,1,1,0,,,,,0.0,0.0,0.0,0.0,0.0,0.0,0
-22.959718,-67.786913,15.40,0.00,3.00,0.46,15.40,15.40,3.50,1.04,6446,2025-11-29 15:55:37.157,2025-11-29 12:55:37.157,17,0,0,47.559,-22.959715,-67.786916,0.00,0.00,-3.00,2.20,0.00,130.60,0,1,0,97,96,-78380,15810,47559,3001.50,16,WP,1,0,0,0,0,0,0,1764431737157,3991,4019,4018,4038,4026,4023,18,,,,,,,0,0,0,-22.00,0.00,1306.00,0.00,-4.00,6.00,14,154.00,30.00,4.63,0.00,0.00,-30.00,0,,,100,96,19,2,0,0,1,1,0,,,,,0.0,0.0,0.0,0.0,0.0,0.0,0
-22.959718,-67.786913,15.70,0.00,3.00,0.46,15.70,15.70,3.50,1.04,6549,2025-11-29 15:55:37.260,2025-11-29 12:55:37.260,17,0,0,47.952,-22.959715,-67.786916,0.10,0.00,-3.00,2.30,0.00,130.60,0,1,0,97,96,-54858,15810,47952,3001.50,16,WP,1,0,0,0,0,0,0,1764431737260,3991,4019,4018,4038,4026,4023,18,,,,,,,0,0,0,-23.00,0.00,1306.00,0.00,-4.00,6.00,14,157.00,30.02,4.58,1.00,0.00,-30.00,0,,,100,96,19,2,0,0,1,1,0,,,,,0.0,0.0,0.0,0.0,0.0,0.0,0
-22.959718,-67.786913,16.00,0.00,2.90,0.46,16.00,16.00,3.50,1.04,6662,2025-11-29 15:55:37.373,2025-11-29 12:55:37.373,17,0,0,47.952,-22.959715,-67.786916,0.10,0.00,-2.90,2.50,0.10,130.60,0,1,0,97,96,-54858,15810,47952,3001.50,16,WP,1,0,0,0,0,0,0,1764431737373,3991,4019,4018,4038,4026,4023,18,,,,,,,0,0,0,-25.00,1.00,1306.00,0.00,-4.00,6.00,14,160.00,29.02,4.57,1.00,0.00,-29.00,0,,,100,96,19,2,0,0,1,1,0,,,,,0.0,0.0,0.0,0.0,0.0,0.0,0
-22.959718,-67.786913,16.30,0.00,2.70,0.45,16.30,16.30,3.50,1.04,6668,2025-11-29 15:55:37.379,2025-11-29 12:55:37.379,17,0,0,47.952,-22.959715,-67.786916,0.10,0.00,-2.70,2.90,0.40,130.60,0,1,0,97,96,-54858,15810,47952,3001.50,16,WP,1,0,0,0,0,0,0,1764431737379,3991,4019,4018,4038,4026,4023,18,,,,,,,0,0,0,-29.00,4.00,1306.00,0.00,-4.00,6.00,14,163.00,27.02,4.53,1.00,0.00,-27.00,0,,,100,96,19,2,0,0,1,1,0,,,,,0.0,0.0,0.0,0.0,0.0,0.0,0
-22.959718,-67.786913,16.60,0.00,2.60,0.45,16.60,16.60,3.50,1.04,6748,2025-11-29 15:55:37.459,2025-11-29 12:55:37.459,17,0,0,47.952,-22.959715,-67.786916,0.10,0.00,-2.60,3.10,0.60,130.60,0,1,0,97,96,-54858,15810,47952,3001.50,16,WP,1,0,0,0,0,0,0,1764431737459,3991,4019,4018,4038,4026,4023,18,,,,,,,0,0,0,-31.00,6.00,1306.00,0.00,-4.00,6.00,14,166.00,26.02,4.51,1.00,0.00,-26.00,0,,,100,96,19,2,0,0,1,1,0,,,,,0.0,0.0,0.0,0.0,0.0,0.0,0
-22.959718,-67.786913,16.80,0.00,2.40,0.44,16.80,16.80,3.50,1.04,6851,2025-11-29 15:55:37.563,2025-11-29 12:55:37.563,17,0,0,47.952,-22.959715,-67.786916,0.10,0.00,-2.40,3.00,0.70,130.60,0,1,0,97,96,-54858,15810,47952,3001.50,16,WP,1,0,0,0,0,0,0,1764431737562,3991,4019,4018,4038,4026,4023,18,,,,,,,0,0,0,-30.00,7.00,1306.00,0.00,-4.00,6.00,14,168.00,24.02,4.45,1.00,0.00,-24.00,0,,,100,96,19,2,0,0,1,1,0,,,,,0.0,0.0,0.0,0.0,0.0,0.0,0
-22.959718,-67.786912,17.10,0.00,2.20,0.44,17.10,17.10,3.50,1.04,6954,2025-11-29 15:55:37.666,2025-11-29 12:55:37.666,17,0,0,47.952,-22.959715,-67.786916,0.10,0.00,-2.20,2.90,0.80,130.60,0,1,0,97,96,-54858,15810,47952,3001.50,16,WP,1,0,0,0,0,0,0,1764431737665,3991,4019,4018,4038,4026,4023,18,,,,,,,0,0,0,-29.00,8.00,1306.00,0.00,-4.00,6.00,14,171.00,22.02,4.42,1.00,0.00,-22.00,0,,,100,96,19,2,0,0,1,1,0,,,,,0.0,0.0,0.0,0.0,0.0,0.0,0
-22.959717,-67.786912,17.30,0.00,2.00,0.43,17.30,17.30,3.50,1.04,7054,2025-11-29 15:55:37.766,2025-11-29 12:55:37.766,17,0,0,47.952,-22.959715,-67.786916,0.10,0.00,-2.00,2.90,0.90,130.50,0,1,0,97,96,-54858,15810,47952,3001.50,16,WP,1,0,0,0,0,0,0,1764431737765,3991,4019,4018,4038,4026,4023,18,,,,,,,0,0,0,-29.00,9.00,1305.00,0.00,-4.00,7.00,14,173.00,20.02,4.33,1.00,0.00,-20.00,0,,,100,96,19,2,0,0,1,1,0,,,,,0.0,0.0,0.0,0.0,0.0,0.0,0
-22.959717,-67.786912,17.50,0.00,1.80,0.43,17.50,17.50,3.50,1.04,7151,2025-11-29 15:55:37.863,2025-11-29 12:55:37.863,17,0,0,47.952,-22.959715,-67.786916,0.10,0.00,-1.80,2.80,0.90,130.60,0,1,0,97,96,-54858,15810,47952,3001.50,16,WP,1,0,0,0,0,0,0,1764431737862,3991,4019,4018,4038,4026,4023,18,,,,,,,0,0,0,-28.00,9.00,1306.00,0.00,-4.00,7.00,14,175.00,18.03,4.29,1.00,0.00,-18.00,0,,,100,96,19,2,0,0,1,1,0,,,,,0.0,0.0,0.0,0.0,0.0,0.0,0
-22.959717,-67.786912,17.70,0.00,1.70,0.42,17.70,17.70,3.50,1.04,7255,2025-11-29 15:55:37.967,2025-11-29 12:55:37.967,17,0,0,47.952,-22.959715,-67.786916,0.10,0.00,-1.70,2.80,0.80,130.60,0,1,0,97,96,-54858,15810,47952,3001.50,16,WP,1,0,0,0,0,0,0,1764431737966,3991,4019,4018,4038,4026,4023,18,,,,,,,0,0,0,-28.00,8.00,1306.00,0.00,-4.00,7.00,14,177.00,17.03,4.23,1.00,0.00,-17.00,0,,,100,96,19,2,0,0,1,1,0,,,,,0.0,0.0,0.0,0.0,0.0,0.0,0
-22.959717,-67.786912,17.80,0.00,1.50,0.42,17.80,17.80,3.50,1.04,7357,2025-11-29 15:55:38.068,2025-11-29 12:55:38.068,17,0,0,47.952,-22.959715,-67.786916,0.00,0.00,-1.50,2.70,0.60,130.70,0,1,0,97,96,-54858,15810,47952,3001.50,16,WP,1,0,0,0,0,0,0,1764431738068,3991,4019,4018,4038,4026,4023,18,,,,,,,0,0,0,-27.00,6.00,1307.00,0.00,-4.00,6.00,14,178.00,15.00,4.22,0.00,0.00,-15.00,0,,,100,96,19,2,0,0,1,1,0,,,,,0.0,0.0,0.0,0.0,0.0,0.0,0
-22.959717,-67.786912,18.00,0.00,1.40,0.42,18.00,18.00,3.50,1.04,7454,2025-11-29 15:55:38.165,2025-11-29 12:55:38.165,17,0,0,47.952,-22.959715,-67.786916,0.10,0.00,-1.40,2.50,0.40,130.70,0,1,0,97,96,-54858,15810,47952,3001.50,16,WP,1,0,0,0,0,0,0,1764431738165,3991,4019,4018,4038,4026,4023,18,,,,,,,0,0,0,-25.00,4.00,1307.00,0.00,-4.00,6.00,14,180.00,14.04,4.17,1.00,0.00,-14.00,0,,,100,96,19,2,0,0,1,1,0,,,,,0.0,0.0,0.0,0.0,0.0,0.0,0
-22.959717,-67.786912,18.10,0.00,1.20,0.42,18.10,18.10,3.50,1.04,7561,2025-11-29 15:55:38.272,2025-11-29 12:55:38.272,17,0,0,47.952,-22.959715,-67.786916,0.10,0.00,-1.20,2.50,0.20,130.70,0,1,0,97,96,-54858,15810,47952,3001.50,16,WP,1,0,0,0,0,0,0,1764431738272,3991,4019,4018,4038,4026,4023,18,,,,,,,0,0,0,-25.00,2.00,1307.00,0.00,-4.00,6.00,14,181.00,12.04,4.17,1.00,0.00,-12.00,0,,,100,95,19,2,0,0,1,1,0,,,,,0.0,0.0,0.0,0.0,0.0,0.0,0
-22.959717,-67.786912,18.20,0.00,1.20,0.42,18.20,18.20,3.50,1.04,7661,2025-11-29 15:55:38.373,2025-11-29 12:55:38.373,17,0,0,47.952,-22.959715,-67.786916,0.10,0.00,-1.20,2.40,0.00,130.70,0,1,0,97,96,-54858,15810,47952,3001.50,16,WP,1,0,0,0,0,0,0,1764431738372,3991,4019,4018,4038,4026,4023,18,,,,,,,0,0,0,-24.00,0.00,1307.00,0.00,-4.00,5.00,14,182.00,12.04,4.16,1.00,0.00,-12.00,0,,,100,95,19,2,0,0,1,1,0,,,,,0.0,0.0,0.0,0.0,0.0,0.0,0
-22.959717,-67.786912,18.40,0.00,1.20,0.42,18.40,18.40,3.50,1.04,7764,2025-11-29 15:55:38.476,2025-11-29 12:55:38.476,17,0,0,47.952,-22.959715,-67.786916,0.10,0.00,-1.20,2.40,0.00,130.70,0,1,0,97,96,-54858,15810,47952,3001.50,16,WP,1,0,0,0,0,0,0,1764431738475,3991,4019,4018,4038,4026,4023,18,,,,,,,0,0,0,-24.00,0.00,1307.00,0.00,-4.00,5.00,14,184.00,12.04,4.19,1.00,0.00,-12.00,0,,,100,95,19,2,0,0,1,1,0,,,,,0.0,0.0,0.0,0.0,0.0,0.0,0
-22.959716,-67.786912,18.50,0.00,1.10,0.42,18.50,18.50,3.50,1.04,7862,2025-11-29 15:55:38.573,2025-11-29 12:55:38.573,17,0,0,47.952,-22.959715,-67.786916,0.10,0.00,-1.10,2.40,0.00,130.70,0,1,0,97,96,-54858,15810,47952,3001.50,16,WP,1,0,0,0,0,0,0,1764431738573,3991,4019,4018,4038,4026,4023,18,,,,,,,0,0,0,-24.00,0.00,1307.00,0.00,-4.00,6.00,14,185.00,11.05,4.19,1.00,0.00,-11.00,0,,,100,95,19,2,0,0,1,1,0,,,,,0.0,0.0,0.0,0.0,0.0,0.0,0
-22.959716,-67.786912,18.70,0.00,1.10,0.42,18.70,18.70,3.50,1.04,8063,2025-11-29 15:55:38.775,2025-11-29 12:55:38.775,17,0,0,47.952,-22.959715,-67.786916,0.10,0.00,-1.10,2.40,0.30,130.70,0,1,0,97,96,-54858,15810,47952,3001.50,16,WP,1,0,0,0,0,0,0,1764431738774,3991,4019,4018,4038,4026,4023,18,,,,,,,0,0,0,-24.00,3.00,1307.00,0.00,-4.00,6.00,14,187.00,11.05,4.24,1.00,0.00,-11.00,0,,,100,95,19,2,0,0,1,1,0,,,,,0.0,0.0,0.0,0.0,0.0,0.0,0
-22.959716,-67.786912,18.80,0.00,1.10,0.43,18.80,18.80,3.50,1.04,8165,2025-11-29 15:55:38.877,2025-11-29 12:55:38.877,17,0,0,47.952,-22.959715,-67.786916,0.10,0.00,-1.10,2.40,0.60,130.70,0,1,0,97,96,-54858,15810,47952,3001.50,16,WP,1,0,0,0,0,0,0,1764431738876,3991,4019,4018,4038,4026,4023,18,,,,,,,0,0,0,-24.00,6.00,1307.00,0.00,-4.00,6.00,14,188.00,11.05,4.32,1.00,0.00,-11.00,0,,,100,97,19,2,0,0,1,1,0,,,,,0.0,0.0,0.0,0.0,0.0,0.0,0
-22.959716,-67.786912,19.00,0.00,1.20,0.44,19.00,19.00,3.50,1.04,8173,2025-11-29 15:55:38.884,2025-11-29 12:55:38.884,17,0,0,47.952,-22.959715,-67.786916,0.10,0.00,-1.20,2.10,1.20,130.70,0,1,0,97,96,-54858,15810,47952,3001.50,16,WP,1,0,0,0,0,0,0,1764431738884,3991,4019,4018,4038,4026,4023,18,,,,,,,0,0,0,-21.00,12.00,1307.00,0.00,-4.00,5.00,14,190.00,12.04,4.45,1.00,0.00,-12.00,0,,,100,97,19,2,0,0,1,1,0,,,,,0.0,0.0,0.0,0.0,0.0,0.0,0
-22.959716,-67.786912,19.10,0.00,1.10,0.45,19.10,19.10,3.50,1.04,8265,2025-11-29 15:55:38.977,2025-11-29 12:55:38.977,17,0,0,47.952,-22.959715,-67.786916,0.00,0.10,-1.10,2.00,1.70,130.80,0,1,0,97,96,-54858,15810,47952,3001.50,16,WP,1,0,0,0,0,0,0,1764431738976,3991,4019,4018,4038,4026,4023,18,,,,,,,0,0,0,-20.00,17.00,1308.00,0.00,-4.00,5.00,14,191.00,11.05,4.52,0.00,1.00,-11.00,0,,,100,97,19,2,0,0,1,1,0,,,,,0.0,0.0,0.0,0.0,0.0,0.0,0
-22.959716,-67.786911,19.30,0.00,1.10,0.46,19.30,19.30,3.50,1.04,8365,2025-11-29 15:55:39.077,2025-11-29 12:55:39.077,17,0,0,47.952,-22.959715,-67.786916,0.00,0.10,-1.10,2.00,2.00,130.70,0,1,0,97,96,-54858,15810,47952,3001.50,16,WP,1,0,0,0,0,0,0,1764431739076,3991,4019,4018,4038,4026,4023,18,,,,,,,0,0,0,-20.00,20.00,1307.00,0.00,-4.00,5.00,14,193.00,11.05,4.64,0.00,1.00,-11.00,0,,,100,97,19,2,0,0,1,1,0,,,,,0.0,0.0,0.0,0.0,0.0,0.0,0
-22.959716,-67.786911,19.40,0.00,1.10,0.47,19.40,19.40,3.50,1.04,8465,2025-11-29 15:55:39.177,2025-11-29 12:55:39.177,17,0,0,47.952,-22.959715,-67.786916,0.00,0.10,-1.10,1.90,2.10,130.80,0,1,0,97,96,-54858,15810,47952,3001.50,16,WP,1,0,0,0,0,0,0,1764431739176,3991,4019,4018,4038,4026,4023,18,,,,,,,0,0,0,-19.00,21.00,1308.00,0.00,-4.00,5.00,14,194.00,11.05,4.73,0.00,1.00,-11.00,0,,,100,97,19,2,0,0,1,1,0,,,,,0.0,0.0,0.0,0.0,0.0,0.0,0
-22.959716,-67.786911,19.50,0.00,1.00,0.49,19.50,19.50,3.50,1.04,8562,2025-11-29 15:55:39.274,2025-11-29 12:55:39.274,17,0,0,48.095,-22.959715,-67.786916,0.00,0.10,-1.00,2.10,2.10,130.70,0,1,0,97,96,-49954,15756,48095,3001.50,16,WP,1,0,0,0,0,0,0,1764431739273,3991,4019,4018,4038,4026,4023,18,,,,,,,0,0,0,-21.00,21.00,1307.00,0.00,-4.00,5.00,14,195.00,10.05,4.86,0.00,1.00,-10.00,0,,,100,96,19,2,0,0,1,1,0,,,,,0.0,0.0,0.0,0.0,0.0,0.0,0
-22.959716,-67.786911,19.70,0.00,1.00,0.50,19.70,19.70,3.50,1.04,8666,2025-11-29 15:55:39.378,2025-11-29 12:55:39.378,17,0,0,48.095,-22.959715,-67.786916,0.00,0.10,-1.00,2.40,2.00,130.60,0,1,0,97,96,-49954,15756,48095,3001.50,16,WP,1,0,0,0,0,0,0,1764431739377,3991,4019,4018,4038,4026,4023,18,,,,,,,0,0,0,-24.00,20.00,1306.00,0.00,-4.00,5.00,14,197.00,10.05,4.98,0.00,1.00,-10.00,0,,,100,96,19,2,0,0,1,1,0,,,,,0.0,0.0,0.0,0.0,0.0,0.0,0
-22.959716,-67.786911,19.80,0.00,0.81,0.51,19.80,19.80,3.50,1.04,8767,2025-11-29 15:55:39.479,2025-11-29 12:55:39.479,17,0,0,48.095,-22.959715,-67.786916,0.00,0.10,-0.80,2.20,1.90,131.60,0,1,0,97,96,-49954,15756,48095,3001.50,16,WP,1,0,0,0,0,0,0,1764431739478,3991,4019,4018,4038,4026,4023,18,,,,,,,0,0,0,-22.00,19.00,1316.00,0.00,-4.00,6.00,14,198.00,8.06,5.13,0.00,1.00,-8.00,0,,,100,96,19,2,0,0,1,1,0,,,,,0.0,0.0,0.0,0.0,0.0,0.0,0
-22.959716,-67.786911,19.90,0.00,0.71,0.53,19.90,19.90,3.50,1.04,8865,2025-11-29 15:55:39.576,2025-11-29 12:55:39.576,17,0,0,48.095,-22.959715,-67.786916,0.00,0.10,-0.70,1.20,3.20,136.00,0,1,0,97,96,-49954,15756,48095,3001.50,16,WP,1,0,0,0,0,0,0,1764431739576,3991,4019,4018,4038,4026,4023,18,,,,,,,0,0,0,-12.00,32.00,1360.00,0.00,-4.00,-1.00,14,199.00,7.07,5.28,0.00,1.00,-7.00,0,,,100,96,19,2,0,0,1,1,0,,,,,0.0,0.0,0.0,0.0,0.0,0.0,0
-22.959716,-67.786911,19.90,0.00,0.51,0.54,19.90,19.90,3.50,1.04,8967,2025-11-29 15:55:39.679,2025-11-29 12:55:39.679,17,0,0,48.095,-22.959715,-67.786916,-0.10,0.00,-0.50,0.00,4.90,142.40,0,1,0,97,96,-49954,15756,48095,3001.50,16,WP,1,0,0,0,0,0,0,1764431739678,3991,4019,4018,4038,4026,4023,18,,,,,,,0,0,0,-0.00,49.00,1424.00,0.00,-4.00,-1.00,14,199.00,5.10,5.42,-1.00,0.00,-5.00,0,,,100,96,19,2,0,0,1,1,0,,,,,0.0,0.0,0.0,0.0,0.0,0.0,0
-22.959716,-67.786911,20.00,0.00,0.32,0.55,20.00,20.00,3.50,1.04,9066,2025-11-29 15:55:39.778,2025-11-29 12:55:39.778,17,0,0,48.095,-22.959715,-67.786916,-0.10,0.00,-0.30,-2.20,6.20,151.10,0,1,0,97,96,-49954,15756,48095,3001.50,16,WP,1,0,0,0,0,0,0,1764431739777,3991,4019,4018,4038,4026,4023,18,,,,,,,0,0,0,22.00,62.00,1511.00,0.00,-4.00,-103.00,14,200.00,3.16,5.55,-1.00,0.00,-3.00,0,,,100,98,19,2,0,0,1,1,0,,,,,0.0,0.0,0.0,0.0,0.0,0.0,0
-22.959716,-67.786910,20.00,0.00,0.22,0.57,20.00,20.00,3.50,1.04,9168,2025-11-29 15:55:39.880,2025-11-29 12:55:39.880,17,0,0,48.095,-22.959715,-67.786916,-0.20,0.00,-0.10,-3.30,5.70,160.00,0,1,0,97,96,-49954,15756,48095,3001.50,16,WP,1,0,0,0,0,0,0,1764431739879,3991,4019,4018,4038,4026,4023,18,,,,,,,0,0,0,33.00,57.00,1600.00,0.00,-4.00,-182.00,14,200.00,2.24,5.68,-2.00,0.00,-1.00,0,,,100,98,19,2,0,0,1,1,0,,,,,0.0,0.0,0.0,0.0,0.0,0.0,0
-22.959716,-67.786910,20.00,0.00,0.20,0.59,20.00,20.00,3.50,1.04,9272,2025-11-29 15:55:39.983,2025-11-29 12:55:39.983,17,0,0,48.095,-22.959715,-67.786916,-0.20,0.00,0.00,-1.30,3.30,167.00,0,1,0,97,96,-49954,15756,48095,3001.50,16,WP,1,0,0,0,0,0,0,1764431739983,3991,4019,4018,4038,4026,4023,18,,,,,,,0,0,0,13.00,33.00,1670.00,0.00,-4.00,-218.00,14,200.00,2.00,5.86,-2.00,0.00,0.00,0,,,100,98,19,2,0,0,1,1,0,,,,,0.0,0.0,0.0,0.0,0.0,0.0,0
-22.959717,-67.786910,20.00,0.00,0.20,0.61,20.00,20.00,3.50,1.04,9369,2025-11-29 15:55:40.080,2025-11-29 12:55:40.080,17,0,0,48.095,-22.959715,-67.786916,-0.20,0.00,0.00,2.30,-0.30,171.90,0,1,0,97,96,-49954,15756,48095,3001.50,16,WP,1,0,0,0,0,0,0,1764431740080,3991,4019,4018,4038,4026,4023,18,,,,,,,0,0,0,-23.00,-3.00,1719.00,0.00,-5.00,-218.00,14,200.00,2.00,6.05,-2.00,0.00,0.00,0,,,100,98,19,2,0,0,1,1,0,,,,,0.0,0.0,0.0,0.0,0.0,0.0,0
-22.959717,-67.786910,20.00,0.00,0.24,0.63,20.00,20.00,3.50,1.04,9471,2025-11-29 15:55:40.183,2025-11-29 12:55:40.183,17,0,0,48.095,-22.959715,-67.786916,-0.20,0.10,0.10,5.70,-3.40,175.20,0,1,0,97,96,-49954,15756,48095,3001.50,16,WP,1,0,0,0,0,0,0,1764431740182,3991,4019,4018,4038,4026,4023,18,,,,,,,0,0,0,-57.00,-34.00,1752.00,0.00,-5.00,-218.00,14,200.00,2.45,6.30,-2.00,1.00,1.00,0,,,100,98,19,2,0,0,1,1,0,,,,,0.0,0.0,0.0,0.0,0.0,0.0,0
-22.959717,-67.786910,20.00,0.00,0.17,0.66,20.00,20.00,3.50,1.04,9598,2025-11-29 15:55:40.310,2025-11-29 12:55:40.310,17,0,0,48.095,-22.959715,-67.786916,-0.10,0.10,0.10,7.70,-4.80,177.30,0,1,0,97,96,-49954,15756,48095,3001.50,16,WP,1,0,0,0,0,0,0,1764431740309,3991,4019,4018,4038,4026,4023,18,,,,,,,0,0,0,-77.00,-48.00,1773.00,0.00,-6.00,-178.00,14,200.00,1.73,6.61,-1.00,1.00,1.00,0,,,100,98,19,2,0,0,1,1,0,,,,,0.0,0.0,0.0,0.0,0.0,0.0,0
-22.959717,-67.786910,20.00,0.00,0.22,0.69,20.00,20.00,3.50,1.04,9672,2025-11-29 15:55:40.383,2025-11-29 12:55:40.384,17,0,0,48.095,-22.959715,-67.786916,0.00,0.20,0.10,7.30,-4.40,178.30,0,1,0,97,96,-49954,15756,48095,3001.50,16,WP,1,0,0,0,0,0,0,1764431740383,3991,4019,4018,4038,4026,4023,18,,,,,,,0,0,0,-73.00,-44.00,1783.00,0.00,-5.00,-154.00,14,200.00,2.24,6.87,0.00,2.00,1.00,0,,,100,98,19,2,0,0,1,1,0,,,,,0.0,0.0,0.0,0.0,0.0,0.0,0
-22.959717,-67.786909,20.00,0.00,0.32,0.72,20.00,20.00,3.50,1.04,9781,2025-11-29 15:55:40.493,2025-11-29 12:55:40.493,17,0,0,48.095,-22.959715,-67.786916,0.00,0.30,0.10,4.20,-2.80,179.00,0,1,0,97,96,-49954,15756,48095,3001.50,16,WP,1,0,0,0,0,0,0,1764431740492,3991,4019,4018,4038,4026,4023,18,,,,,,,0,0,0,-42.00,-28.00,1790.00,0.00,-5.00,-128.00,14,200.00,3.16,7.22,0.00,3.00,1.00,0,,,100,98,19,2,0,0,1,1,0,,,,,0.0,0.0,0.0,0.0,0.0,0.0,0
-22.959717,-67.786909,20.00,0.00,0.41,0.77,20.00,20.00,3.50,1.04,9879,2025-11-29 15:55:40.590,2025-11-29 12:55:40.590,17,0,0,48.095,-22.959715,-67.786916,0.00,0.40,0.10,-1.00,-0.20,179.50,0,1,0,97,96,-49954,15756,48095,3001.50,16,WP,1,0,0,0,0,0,0,1764431740590,3991,4019,4018,4038,4026,4023,18,,,,,,,0,0,0,10.00,-2.00,1795.00,0.00,-4.00,-105.00,14,200.00,4.12,7.70,0.00,4.00,1.00,0,,,100,98,19,2,0,0,1,1,0,,,,,0.0,0.0,0.0,0.0,0.0,0.0,0
-22.959717,-67.786908,20.00,0.00,0.50,0.83,20.00,20.00,3.50,1.04,9982,2025-11-29 15:55:40.694,2025-11-29 12:55:40.694,17,0,0,48.095,-22.959715,-67.786916,0.00,0.50,0.00,-5.40,2.00,179.70,0,1,0,97,96,-49954,15756,48095,3001.50,16,WP,1,0,0,0,0,0,0,1764431740693,3991,4019,4018,4038,4026,4023,18,,,,,,,0,0,0,54.00,20.00,1797.00,0.00,-4.00,-86.00,14,200.00,5.00,8.27,0.00,5.00,0.00,0,,,100,98,19,2,0,0,1,1,0,,,,,0.0,0.0,0.0,0.0,0.0,0.0,0
-22.959717,-67.786908,20.00,0.00,0.51,0.89,20.00,20.00,3.50,1.04,10079,2025-11-29 15:55:40.790,2025-11-29 12:55:40.790,17,0,0,48.095,-22.959715,-67.786916,-0.10,0.50,0.00,-9.00,4.50,179.70,0,1,0,97,96,-49954,15756,48095,3001.50,16,WP,1,0,0,0,0,0,0,1764431740790,3991,4019,4018,4038,4026,4023,18,,,,,,,0,0,0,90.00,45.00,1797.00,0.00,-4.00,-67.00,14,200.00,5.10,8.95,-1.00,5.00,0.00,0,,,100,97,19,2,0,0,1,1,0,,,,,0.0,0.0,0.0,0.0,0.0,0.0,0
-22.959718,-67.786907,20.00,0.00,0.58,0.97,20.00,20.00,3.50,1.04,10179,2025-11-29 15:55:40.890,2025-11-29 12:55:40.890,17,0,0,48.095,-22.959715,-67.786916,-0.30,0.50,0.00,-10.80,6.00,179.40,0,1,0,97,96,-49954,15756,48095,3001.50,16,WP,1,0,0,0,0,0,0,1764431740890,3991,4019,4018,4038,4026,4023,18,,,,,,,0,0,0,108.00,60.00,1794.00,0.00,-4.00,-50.00,14,200.00,5.83,9.65,-3.00,5.00,0.00,0,,,100,97,19,2,0,0,1,1,0,,,,,0.0,0.0,0.0,0.0,0.0,0.0,0
-22.959718,-67.786906,20.10,0.00,0.71,1.05,20.10,20.10,3.50,1.05,10281,2025-11-29 15:55:40.993,2025-11-29 12:55:40.993,17,0,0,48.095,-22.959715,-67.786916,-0.50,0.50,-0.10,-11.90,6.80,179.10,0,1,0,97,96,-49954,15756,48095,3001.50,16,WP,1,0,0,0,0,0,0,1764431740992,3991,4019,4018,4038,4026,4023,18,,,,,,,0,0,0,119.00,68.00,1791.00,0.00,-4.00,-33.00,14,201.00,7.14,10.46,-5.00,5.00,-1.00,0,,,100,97,19,2,0,0,1,1,0,,,,,0.0,0.0,0.0,0.0,0.0,0.0,0
-22.959719,-67.786906,20.10,0.00,0.90,1.13,20.10,20.10,3.50,1.13,10379,2025-11-29 15:55:41.091,2025-11-29 12:55:41.091,17,0,0,48.095,-22.959715,-67.786916,-0.80,0.40,-0.10,-12.10,6.90,179.00,0,1,0,97,96,-49954,15756,48095,3001.50,16,WP,1,0,0,0,0,0,0,1764431741090,3991,4019,4018,4038,4026,4023,18,,,,,,,0,0,0,121.00,69.00,1790.00,0.00,-4.00,-20.00,14,201.00,9.00,11.25,-8.00,4.00,-1.00,0,,,100,97,19,2,0,0,1,1,0,,,,,0.0,0.0,0.0,0.0,0.0,0.0,0
-22.959720,-67.786905,20.10,0.00,1.08,1.22,20.10,20.10,3.50,1.22,10480,2025-11-29 15:55:41.192,2025-11-29 12:55:41.192,17,0,0,48.095,-22.959715,-67.786916,-1.00,0.40,-0.10,-11.80,6.60,179.10,0,1,0,97,96,-49954,15756,48095,3001.50,16,WP,1,0,0,0,0,0,0,1764431741191,3991,4019,4018,4038,4026,4023,18,,,,,,,0,0,0,118.00,66.00,1791.00,0.00,-4.00,-9.00,14,201.00,10.82,12.24,-10.00,4.00,-1.00,0,,,100,97,19,2,0,0,1,1,0,,,,,0.0,0.0,0.0,0.0,0.0,0.0,0
-22.959721,-67.786905,20.10,0.00,1.24,1.33,20.10,20.10,3.50,1.33,10582,2025-11-29 15:55:41.294,2025-11-29 12:55:41.294,17,0,0,48.212,-22.959715,-67.786916,-1.20,0.30,-0.10,-11.10,6.60,179.20,0,1,0,96,96,-47499,15702,48212,3001.50,16,WP,1,0,0,0,0,0,0,1764431741293,3991,4019,4018,4038,4026,4023,18,,,,,,,0,0,0,111.00,66.00,1792.00,0.00,-4.00,-2.00,14,201.00,12.41,13.32,-12.00,3.00,-1.00,0,,,100,98,19,2,0,0,1,1,0,,,,,0.0,0.0,0.0,0.0,0.0,0.0,0
-22.959722,-67.786904,20.10,0.00,1.44,1.45,20.10,20.10,3.50,1.45,10682,2025-11-29 15:55:41.394,2025-11-29 12:55:41.394,17,0,0,48.212,-22.959715,-67.786916,-1.40,0.30,-0.10,-10.60,6.90,179.40,0,1,0,96,96,-47499,15702,48212,3001.50,16,WP,1,0,0,0,0,0,0,1764431741393,3991,4019,4018,4038,4026,4023,18,,,,,,,0,0,0,106.00,69.00,1794.00,0.00,-4.00,2.00,14,201.00,14.35,14.52,-14.00,3.00,-1.00,0,,,100,98,19,2,0,0,1,1,0,,,,,0.0,0.0,0.0,0.0,0.0,0.0,0
-22.959724,-67.786904,20.20,0.00,1.62,1.59,20.20,20.20,3.50,1.59,10777,2025-11-29 15:55:41.489,2025-11-29 12:55:41.489,17,0,0,48.212,-22.959715,-67.786916,-1.60,0.20,-0.10,-11.00,7.20,179.50,0,1,0,96,96,-47499,15702,48212,3001.50,16,WP,1,0,0,0,0,0,0,1764431741488,3991,4019,4018,4038,4026,4023,18,,,,,,,0,0,0,110.00,72.00,1795.00,0.00,-4.00,-3591.00,14,202.00,16.16,15.91,-16.00,2.00,-1.00,0,,,100,98,19,2,0,0,1,1,0,,,,,0.0,0.0,0.0,0.0,0.0,0.0,0
-22.959726,-67.786904,20.20,0.00,1.81,1.74,20.20,20.20,3.50,1.74,10882,2025-11-29 15:55:41.594,2025-11-29 12:55:41.594,17,0,0,48.212,-22.959715,-67.786916,-1.80,0.20,0.00,-11.90,7.40,179.50,0,1,0,96,96,-47499,15702,48212,3001.50,16,WP,1,0,0,0,0,0,0,1764431741593,3991,4019,4018,4038,4026,4023,18,,,,,,,0,0,0,119.00,74.00,1795.00,0.00,-4.00,-3586.00,14,202.00,18.11,17.40,-18.00,2.00,0.00,0,,,100,98,19,2,0,0,1,1,0,,,,,0.0,0.0,0.0,0.0,0.0,0.0,0
-22.959728,-67.786904,20.20,0.00,2.00,1.91,20.20,20.20,3.50,1.91,10982,2025-11-29 15:55:41.694,2025-11-29 12:55:41.694,17,0,0,48.212,-22.959715,-67.786916,-2.00,0.10,0.00,-13.00,7.40,179.30,0,1,0,96,96,-47499,15702,48212,3001.50,16,WP,1,0,0,0,0,0,0,1764431741693,3991,4019,4018,4038,4026,4023,18,,,,,,,0,0,0,130.00,74.00,1793.00,0.00,-4.00,-3581.00,14,202.00,20.02,19.11,-20.00,1.00,0.00,0,,,100,98,19,2,0,0,1,1,0,,,,,0.0,0.0,0.0,0.0,0.0,0.0,0
-22.959730,-67.786903,20.20,0.00,2.20,2.12,20.20,20.20,3.50,2.12,11084,2025-11-29 15:55:41.796,2025-11-29 12:55:41.796,17,0,0,48.212,-22.959715,-67.786916,-2.20,0.10,0.00,-13.50,7.60,179.30,0,1,0,96,96,-47499,15702,48212,3001.50,16,WP,1,0,0,0,0,0,0,1764431741795,3991,4019,4018,4038,4026,4023,18,,,,,,,0,0,0,135.00,76.00,1793.00,0.00,-4.00,-3575.00,14,202.00,22.02,21.18,-22.00,1.00,0.00,0,,,100,99,19,2,0,0,1,1,0,,,,,0.0,0.0,0.0,0.0,0.0,0.0,0
-22.959733,-67.786903,20.20,0.00,2.40,2.35,20.20,20.20,3.50,2.35,11180,2025-11-29 15:55:41.891,2025-11-29 12:55:41.891,17,0,0,48.212,-22.959715,-67.786916,-2.40,0.00,0.00,-13.80,7.70,179.30,0,1,0,96,96,-47499,15702,48212,3001.50,16,WP,1,0,0,0,0,0,0,1764431741891,3991,4019,4018,4038,4026,4023,18,,,,,,,0,0,0,138.00,77.00,1793.00,0.00,-4.00,-3570.00,14,202.00,24.00,23.52,-24.00,0.00,0.00,0,,,100,99,19,2,0,0,1,1,0,,,,,0.0,0.0,0.0,0.0,0.0,0.0,0
-22.959736,-67.786903,20.20,0.00,2.60,2.61,20.20,20.20,3.50,2.61,11285,2025-11-29 15:55:41.997,2025-11-29 12:55:41.997,17,0,0,48.212,-22.959715,-67.786916,-2.60,0.00,0.00,-14.70,7.70,179.10,0,1,0,96,96,-47499,15702,48212,3001.50,16,WP,1,0,0,0,0,0,0,1764431741996,3991,4019,4018,4038,4026,4023,18,,,,,,,0,0,0,147.00,77.00,1791.00,0.00,-4.00,-3566.00,14,202.00,26.00,26.06,-26.00,0.00,0.00,0,,,100,99,19,2,0,0,1,1,0,,,,,0.0,0.0,0.0,0.0,0.0,0.0,0
-22.959739,-67.786903,20.20,0.00,2.90,2.90,20.20,20.20,3.50,2.90,11384,2025-11-29 15:55:42.095,2025-11-29 12:55:42.095,17,0,0,48.212,-22.959715,-67.786916,-2.90,0.00,0.00,-15.60,7.30,179.10,0,1,0,96,96,-47499,15702,48212,3001.50,16,WP,1,0,0,0,0,0,0,1764431742095,3991,4019,4018,4038,4026,4023,18,,,,,,,0,0,0,156.00,73.00,1791.00,0.00,-4.00,-3562.00,14,202.00,29.00,29.00,-29.00,0.00,0.00,0,,,100,99,19,2,0,0,1,1,0,,,,,0.0,0.0,0.0,0.0,0.0,0.0,0
-22.959742,-67.786903,20.20,0.00,3.10,3.21,20.20,20.20,3.50,3.21,11488,2025-11-29 15:55:42.199,2025-11-29 12:55:42.199,17,0,0,48.212,-22.959715,-67.786916,-3.10,0.00,0.00,-16.40,6.80,179.00,0,1,0,96,96,-47499,15702,48212,3001.50,16,WP,1,0,0,0,0,0,0,1764431742199,3991,4019,4018,4038,4026,4023,18,,,,,,,0,0,0,164.00,68.00,1790.00,0.00,-4.00,-3558.00,14,202.00,31.00,32.11,-31.00,0.00,0.00,0,,,100,99,19,2,0,0,1,1,0,,,,,0.0,0.0,0.0,0.0,0.0,0.0,0
-22.959745,-67.786904,20.20,0.00,3.40,3.55,20.20,20.20,3.50,3.55,11588,2025-11-29 15:55:42.299,2025-11-29 12:55:42.299,17,0,0,48.212,-22.959715,-67.786916,-3.40,0.00,0.00,-16.80,6.30,179.00,0,1,0,96,96,-47499,15702,48212,3001.50,16,WP,1,0,0,0,0,0,0,1764431742299,3991,4019,4018,4038,4026,4023,18,,,,,,,0,0,0,168.00,63.00,1790.00,0.00,-4.00,-3554.00,14,202.00,34.00,35.53,-34.00,0.00,0.00,0,,,100,100,19,2,0,0,1,1,0,,,,,0.0,0.0,0.0,0.0,0.0,0.0,0
-22.959749,-67.786904,20.20,0.00,3.70,3.93,20.20,20.20,3.70,3.93,11690,2025-11-29 15:55:42.402,2025-11-29 12:55:42.402,17,0,0,48.212,-22.959715,-67.786916,-3.70,-0.10,0.00,-16.50,6.20,179.00,0,1,0,96,96,-47499,15702,48212,3001.50,16,WP,1,0,0,0,0,0,0,1764431742401,3991,4019,4018,4038,4026,4023,18,,,,,,,0,0,0,165.00,62.00,1790.00,0.00,-4.00,-3551.00,14,202.00,37.01,39.26,-37.00,-1.00,0.00,0,,,100,100,19,2,0,0,1,1,0,,,,,0.0,0.0,0.0,0.0,0.0,0.0,0
-22.959752,-67.786904,20.30,0.00,3.90,4.32,20.30,20.30,3.90,4.32,11798,2025-11-29 15:55:42.509,2025-11-29 12:55:42.509,17,0,0,48.212,-22.959715,-67.786916,-3.90,-0.10,0.00,-16.00,6.00,179.00,0,1,0,96,96,-47499,15702,48212,3001.50,16,WP,1,0,0,0,0,0,0,1764431742509,3991,4019,4018,4038,4026,4023,18,,,,,,,0,0,0,160.00,60.00,1790.00,0.00,-4.00,-3549.00,14,203.00,39.01,43.19,-39.00,-1.00,0.00,0,,,100,100,19,2,0,0,1,1,0,,,,,0.0,0.0,0.0,0.0,0.0,0.0,0
-22.959757,-67.786904,20.30,0.00,4.10,4.78,20.30,20.30,4.10,4.78,11887,2025-11-29 15:55:42.598,2025-11-29 12:55:42.598,17,0,0,48.212,-22.959715,-67.786916,-4.10,-0.20,0.00,-15.20,6.00,179.20,0,1,0,96,96,-47499,15702,48212,3001.50,16,WP,1,0,0,0,0,0,0,1764431742598,3991,4019,4018,4038,4026,4023,18,,,,,,,0,0,0,152.00,60.00,1792.00,0.00,-4.00,-3548.00,14,203.00,41.05,47.84,-41.00,-2.00,0.00,0,,,100,100,19,2,0,0,1,1,0,,,,,0.0,0.0,0.0,0.0,0.0,0.0,0
-22.959766,-67.786905,20.30,0.00,4.61,5.78,20.30,20.30,4.61,5.78,12096,2025-11-29 15:55:42.807,2025-11-29 12:55:42.807,17,0,0,48.212,-22.959715,-67.786916,-4.60,-0.30,0.00,-14.60,5.80,179.40,0,1,0,96,96,-47499,15702,48212,3001.50,16,WP,1,0,0,0,0,0,0,1764431742807,3991,4019,4018,4038,4026,4023,18,,,,,,,0,0,0,146.00,58.00,1794.00,0.00,-4.00,-3546.00,14,203.00,46.10,57.80,-46.00,-3.00,0.00,0,,,100,98,19,2,0,0,1,1,0,,,,,0.0,0.0,0.0,0.0,0.0,0.0,0
-22.959776,-67.786906,20.30,0.00,5.12,6.87,20.30,20.30,5.12,6.87,12295,2025-11-29 15:55:43.006,2025-11-29 12:55:43.006,17,0,0,48.212,-22.959715,-67.786916,-5.10,-0.50,0.00,-15.00,5.40,179.50,0,1,0,96,96,-47499,15702,48212,3001.50,16,WP,1,0,0,0,0,0,0,1764431743006,3991,4019,4018,4038,4026,4023,18,,,,,,,0,0,0,150.00,54.00,1795.00,0.00,-4.00,-3543.00,14,203.00,51.24,68.68,-51.00,-5.00,0.00,0,,,100,98,19,2,0,0,1,1,0,,,,,0.0,0.0,0.0,0.0,0.0,0.0,0
-22.959782,-67.786907,20.30,0.00,5.42,7.44,20.30,20.30,5.42,7.44,12399,2025-11-29 15:55:43.111,2025-11-29 12:55:43.111,17,0,0,48.212,-22.959715,-67.786916,-5.40,-0.50,0.00,-15.20,4.90,179.60,0,1,0,96,96,-47499,15702,48212,3001.50,16,WP,1,0,0,0,0,0,0,1764431743110,3991,4019,4018,4038,4026,4023,18,,,,,,,0,0,0,152.00,49.00,1796.00,0.00,-4.00,-3542.00,14,203.00,54.23,74.36,-54.00,-5.00,0.00,0,,,100,98,19,2,0,0,1,1,0,,,,,0.0,0.0,0.0,0.0,0.0,0.0,0
-22.959787,-67.786907,20.30,0.00,5.73,8.05,20.30,20.30,5.73,8.05,12494,2025-11-29 15:55:43.206,2025-11-29 12:55:43.206,17,0,0,48.212,-22.959715,-67.786916,-5.70,-0.60,0.00,-15.00,3.90,179.80,0,1,0,96,96,-47499,15702,48212,3001.50,16,WP,1,0,0,0,0,0,0,1764431743205,3991,4019,4018,4038,4026,4023,18,,,,,,,0,0,0,150.00,39.00,1798.00,0.00,-4.00,-3542.00,14,203.00,57.31,80.47,-57.00,-6.00,0.00,0,,,100,98,19,2,0,0,1,1,0,,,,,0.0,0.0,0.0,0.0,0.0,0.0,0
-22.959793,-67.786908,20.30,0.00,5.93,8.69,20.30,20.30,5.93,8.69,12595,2025-11-29 15:55:43.306,2025-11-29 12:55:43.306,17,0,0,48.162,-22.959715,-67.786916,-5.90,-0.60,0.00,-14.40,2.80,179.90,0,1,0,96,96,-54879,15702,48162,3001.50,16,WP,1,0,0,0,0,0,0,1764431743306,3991,4019,4018,4038,4026,4023,18,,,,,,,0,0,0,144.00,28.00,1799.00,0.00,-4.00,-3541.00,14,203.00,59.30,86.94,-59.00,-6.00,0.00,0,,,100,95,19,2,0,0,1,1,0,,,,,0.0,0.0,0.0,0.0,0.0,0.0,0
-22.959799,-67.786909,20.30,0.00,6.13,9.32,20.30,20.30,6.13,9.32,12699,2025-11-29 15:55:43.410,2025-11-29 12:55:43.411,17,0,0,48.162,-22.959715,-67.786916,-6.10,-0.60,0.00,-13.90,1.80,179.90,0,1,0,96,96,-54879,15702,48162,3001.50,16,WP,1,0,0,0,0,0,0,1764431743410,3991,4019,4018,4038,4026,4023,18,,,,,,,0,0,0,139.00,18.00,1799.00,0.00,-4.00,-3540.00,14,203.00,61.29,93.23,-61.00,-6.00,0.00,0,,,100,95,19,2,0,0,1,1,0,,,,,0.0,0.0,0.0,0.0,0.0,0.0,0
-22.959805,-67.786910,20.30,0.00,6.33,10.02,20.30,20.30,6.33,10.02,12796,2025-11-29 15:55:43.507,2025-11-29 12:55:43.507,17,0,0,48.162,-22.959715,-67.786916,-6.30,-0.60,0.00,-14.20,1.20,179.90,0,1,0,96,96,-54879,15702,48162,3001.50,16,WP,1,0,0,0,0,0,0,1764431743507,3991,4019,4018,4038,4026,4023,18,,,,,,,0,0,0,142.00,12.00,1799.00,0.00,-4.00,-3539.00,14,203.00,63.29,100.18,-63.00,-6.00,0.00,0,,,100,95,19,2,0,0,1,1,0,,,,,0.0,0.0,0.0,0.0,0.0,0.0,0
-22.959811,-67.786910,20.30,0.00,6.43,10.66,20.30,20.30,6.43,10.66,12899,2025-11-29 15:55:43.610,2025-11-29 12:55:43.610,17,0,0,48.162,-22.959715,-67.786916,-6.40,-0.60,0.10,-15.40,1.20,179.90,0,1,0,96,96,-54879,15702,48162,3001.50,16,WP,1,0,0,0,0,0,0,1764431743610,3991,4019,4018,4038,4026,4023,18,,,,,,,0,0,0,154.00,12.00,1799.00,0.00,-4.00,-3537.00,14,203.00,64.29,106.61,-64.00,-6.00,1.00,0,,,100,95,19,2,0,0,1,1,0,,,,,0.0,0.0,0.0,0.0,0.0,0.0,0
-22.959817,-67.786911,20.30,0.00,6.73,11.35,20.30,20.30,6.73,11.35,12997,2025-11-29 15:55:43.709,2025-11-29 12:55:43.709,17,0,0,48.162,-22.959715,-67.786916,-6.70,-0.60,0.10,-16.60,1.30,-179.90,0,1,0,96,96,-54879,15702,48162,3001.50,16,WP,1,0,0,0,0,0,0,1764431743708,3991,4019,4018,4038,4026,4023,18,,,,,,,0,0,0,166.00,13.00,-1799.00,0.00,-4.00,-3535.00,14,203.00,67.28,113.47,-67.00,-6.00,1.00,0,,,100,95,19,2,0,0,1,1,0,,,,,0.0,0.0,0.0,0.0,0.0,0.0,0
-22.959824,-67.786911,20.30,0.00,6.93,12.07,20.30,20.30,6.93,12.07,13096,2025-11-29 15:55:43.807,2025-11-29 12:55:43.808,17,0,0,48.162,-22.959715,-67.786916,-6.90,-0.60,0.30,-17.50,1.40,-179.80,0,1,0,96,96,-54879,15702,48162,3001.50,16,WP,1,0,0,0,0,0,0,1764431743807,3991,4019,4018,4038,4026,4023,18,,,,,,,0,0,0,175.00,14.00,-1798.00,0.00,-4.00,64.00,14,203.00,69.33,120.71,-69.00,-6.00,3.00,0,,,100,95,19,2,0,0,1,1,0,,,,,0.0,0.0,0.0,0.0,0.0,0.0,0
-22.959831,-67.786912,20.20,0.00,7.23,12.84,20.30,20.30,7.23,12.84,13199,2025-11-29 15:55:43.911,2025-11-29 12:55:43.911,17,0,0,48.162,-22.959715,-67.786916,-7.20,-0.60,0.30,-17.70,1.40,-179.70,0,1,0,96,96,-54879,15702,48162,3001.50,16,WP,1,0,0,0,0,0,0,1764431743910,3991,4019,4018,4038,4026,4023,18,,,,,,,0,0,0,177.00,14.00,-1797.00,0.00,-4.00,65.00,14,202.00,72.31,128.43,-72.00,-6.00,3.00,0,,,100,95,19,2,0,0,1,1,0,,,,,0.0,0.0,0.0,0.0,0.0,0.0,0
-22.959838,-67.786913,20.20,0.00,7.43,13.61,20.30,20.30,7.43,13.61,13302,2025-11-29 15:55:44.013,2025-11-29 12:55:44.014,17,0,0,48.162,-22.959715,-67.786916,-7.40,-0.60,0.30,-17.30,1.00,-179.50,0,1,0,96,96,-54879,15702,48162,3001.50,16,WP,1,0,0,0,0,0,0,1764431744013,3991,4019,4018,4038,4026,4023,18,,,,,,,0,0,0,173.00,10.00,-1795.00,0.00,-4.00,66.00,14,202.00,74.30,136.13,-74.00,-6.00,3.00,0,,,100,95,19,2,0,0,1,1,0,,,,,0.0,0.0,0.0,0.0,0.0,0.0,0
-22.959846,-67.786913,20.10,0.00,7.62,14.45,20.30,20.30,7.62,14.45,13398,2025-11-29 15:55:44.109,2025-11-29 12:55:44.109,17,0,0,48.162,-22.959715,-67.786916,-7.60,-0.50,0.20,-16.70,0.70,-179.50,0,1,0,96,96,-54879,15702,48162,3001.50,16,WP,1,0,0,0,0,0,0,1764431744109,3991,4019,4018,4038,4026,4023,18,,,,,,,0,0,0,167.00,7.00,-1795.00,0.00,-4.00,66.00,14,201.00,76.19,144.53,-76.00,-5.00,2.00,0,,,100,95,19,2,0,0,1,1,0,,,,,0.0,0.0,0.0,0.0,0.0,0.0,0
-22.959860,-67.786914,20.10,0.00,8.01,16.07,20.30,20.30,8.01,16.07,13602,2025-11-29 15:55:44.313,2025-11-29 12:55:44.313,17,0,0,48.162,-22.959715,-67.786916,-8.00,-0.40,0.10,-15.70,-0.20,-179.80,0,1,0,96,96,-54879,15702,48162,3001.50,16,WP,1,0,0,0,0,0,0,1764431744313,3991,4019,4018,4038,4026,4023,18,,,,,,,0,0,0,157.00,-2.00,-1798.00,0.00,-4.00,71.00,14,201.00,80.11,160.68,-80.00,-4.00,1.00,0,,,100,95,19,2,0,0,1,1,0,,,,,0.0,0.0,0.0,0.0,0.0,0.0,0
-22.959868,-67.786914,20.10,0.00,8.21,16.89,20.30,20.30,8.21,16.89,13702,2025-11-29 15:55:44.413,2025-11-29 12:55:44.413,17,0,0,48.162,-22.959715,-67.786916,-8.20,-0.40,0.00,-15.60,-0.70,-179.90,0,1,0,96,96,-54879,15702,48162,3001.50,16,WP,1,0,0,0,0,0,0,1764431744413,3991,4019,4018,4038,4026,4023,18,,,,,,,0,0,0,156.00,-7.00,-1799.00,0.00,-4.00,74.00,14,201.00,82.10,168.93,-82.00,-4.00,0.00,0,,,100,95,19,2,0,0,1,1,0,,,,,0.0,0.0,0.0,0.0,0.0,0.0,0
