latitude,longitude,altitude(m),ultrasonicHeight(m),speed(mps),distance(m),max_altitude(m),max_ascent(m),max_speed(mps),max_distance(m),time(millisecond),datetime(utc),datetime(local),satellites,pressure(Pa),temperature(F),voltage(v),home_latitude,home_longitude,velocityX(mps),velocityY(mps),velocityZ(mps),pitch(deg),roll(deg),yaw(deg),powerlevel,isflying,istakingphoto,remainPowerPercent,remainLifePercent,currentCurrent,currentElectricity,currentVoltage,batteryTemperature,dischargeCount,flightmode,isMotorsOn,isTakingVideo,Rc_elevator,Rc_aileron,Rc_throttle,Rc_rudder,Rc_gyro,timestamp,Battery_Cell1,Battery_Cell2,Battery_Cell3,Battery_Cell4,Battery_Cell5,Battery_Cell6,Dronetype,AppVersion,Planename,FlyControllerSerialNumber,RemoteSerialNumber,BatterySerialNumber,CENTER_BATTERY.productDate,CENTER_BATTERY.serialNo,CENTER_BATTERY.fullCapacity,CENTER_BATTERY.productDateRaw,pitchRaw,rollRaw,yawRaw,gimbalPitchRaw,gimbalRollRaw,gimbalYawRaw,flyState,altitudeRaw,speedRaw,distanceRaw,velocityXRaw,velocityYRaw,velocityZRaw,data_reuse,App_Tip,App_Warning,downlinkSignalQuality,uplinkSignalQuality,transmissionChannel,rcModeSwitch,rcHome,rcPause,rcTransform,rcJoystickMode,appMode,FlyControllerSerialNumber_legacy,RemoteSerialNumber_legacy,BatterySerialNumber_legacy,Battery2SerialNumber,frontAvoidDist,backAvoidDist,rightAvoidDist,leftAvoidDist,upAvoidDist,downAvoidDist,isBrakingToAvoid
-22.959747,-67.786919,0.50,0.00,0.73,0.29,0.50,0.50,0.73,0.29,3,2025-12-01 16:25:54.938,2025-12-01 13:25:54.938,17,0,0,51.740,-22.959750,-67.786919,0.20,0.10,-0.70,0.30,1.80,95.00,0,1,0,98,88,-1699,13908,51740,2931.50,50,TakeOff,1,0,0,0,0,0,0,1764606354937,4327,4327,4318,4326,4332,4318,18,Litchi_iOS_2.15.7,EIK Matrice 1,0670131556,03LLCA05XT,,,0,14102,0,-3.00,18.00,950.00,0.00,3.00,-11.00,11,5.00,7.35,2.92,2.00,1.00,-7.00,0,,,100,100,19,2,0,0,1,1,0,(null),(null),(null),(null),0.0,0.0,0.0,0.0,0.0,0.0,0
-22.959747,-67.786919,0.60,0.00,0.64,0.32,0.60,0.60,0.73,0.32,114,2025-12-01 16:25:55.048,2025-12-01 13:25:55.048,17,0,0,51.740,-22.959750,-67.786919,0.20,0.10,-0.60,1.40,2.40,95.10,0,1,0,98,88,-1699,13908,51740,2931.50,50,TakeOff,1,0,0,0,0,0,0,1764606355048,4327,4327,4318,4326,4332,4318,18,,,,,,,0,0,0,-14.00,24.00,951.00,1.00,4.00,-12.00,11,6.00,6.40,3.17,2.00,1.00,-6.00,0,,,100,100,19,2,0,0,1,1,0,,,,,0.0,0.0,0.0,0.0,0.0,0.0,0
-22.959747,-67.786919,0.60,0.00,0.61,0.34,0.60,0.60,0.73,0.34,199,2025-12-01 16:25:55.134,2025-12-01 13:25:55.134,17,0,0,51.740,-22.959750,-67.786919,0.10,0.00,-0.60,1.70,2.80,95.10,0,1,0,98,88,-1699,13908,51740,2931.50,50,TakeOff,1,0,0,0,0,0,0,1764606355133,4327,4327,4318,4326,4332,4318,18,,,,,,,0,0,0,-17.00,28.00,951.00,1.00,3.00,-13.00,11,6.00,6.08,3.38,1.00,0.00,-6.00,0,,,100,100,19,2,0,0,1,1,0,,,,,0.0,0.0,0.0,0.0,0.0,0.0,0
-22.959747,-67.786919,0.70,0.00,0.61,0.35,0.70,0.70,0.73,0.35,312,2025-12-01 16:25:55.246,2025-12-01 13:25:55.247,17,0,0,51.740,-22.959750,-67.786919,0.10,0.00,-0.60,1.40,2.90,95.00,0,1,0,98,88,-1699,13908,51740,2931.50,50,TakeOff,1,0,0,0,0,0,0,1764606355246,4327,4327,4318,4326,4332,4318,18,,,,,,,0,0,0,-14.00,29.00,950.00,0.00,3.00,-13.00,11,7.00,6.08,3.48,1.00,0.00,-6.00,0,,,100,100,19,2,0,0,1,1,0,,,,,0.0,0.0,0.0,0.0,0.0,0.0,0
-22.959747,-67.786919,0.70,0.00,0.50,0.35,0.70,0.70,0.73,0.35,413,2025-12-01 16:25:55.347,2025-12-01 13:25:55.347,17,0,0,51.740,-22.959750,-67.786919,0.00,0.00,-0.50,0.40,2.80,94.90,0,1,0,98,88,-1699,13908,51740,2931.50,50,TakeOff,1,0,0,0,0,0,0,1764606355347,4327,4327,4318,4326,4332,4318,18,,,,,,,0,0,0,-4.00,28.00,949.00,0.00,4.00,-12.00,11,7.00,5.00,3.54,0.00,0.00,-5.00,0,,,100,100,19,2,0,0,1,1,0,,,,,0.0,0.0,0.0,0.0,0.0,0.0,0
-22.959747,-67.786919,0.80,0.00,0.40,0.35,0.80,0.80,0.73,0.35,512,2025-12-01 16:25:55.447,2025-12-01 13:25:55.447,17,0,0,51.740,-22.959750,-67.786919,0.00,0.00,-0.40,-0.40,2.70,94.90,0,1,0,98,88,-1699,13908,51740,2931.50,50,TakeOff,1,0,0,0,0,0,0,1764606355446,4327,4327,4318,4326,4332,4318,18,,,,,,,0,0,0,4.00,27.00,949.00,0.00,3.00,-11.00,11,8.00,4.00,3.54,0.00,0.00,-4.00,0,,,100,100,19,2,0,0,1,1,0,,,,,0.0,0.0,0.0,0.0,0.0,0.0,0
-22.959747,-67.786919,0.80,0.00,0.30,0.35,0.80,0.80,0.73,0.35,613,2025-12-01 16:25:55.547,2025-12-01 13:25:55.547,17,0,0,51.740,-22.959750,-67.786919,0.00,0.00,-0.30,-1.00,2.40,94.80,0,1,0,98,88,-1699,13908,51740,2931.50,50,TakeOff,1,0,0,0,0,0,0,1764606355547,4327,4327,4318,4326,4332,4318,18,,,,,,,0,0,0,10.00,24.00,948.00,0.00,3.00,-10.00,11,8.00,3.00,3.55,0.00,0.00,-3.00,0,,,100,100,19,2,0,0,1,1,0,,,,,0.0,0.0,0.0,0.0,0.0,0.0,0
-22.959747,-67.786919,0.80,0.00,0.30,0.35,0.80,0.80,0.73,0.35,712,2025-12-01 16:25:55.646,2025-12-01 13:25:55.646,17,0,0,51.740,-22.959750,-67.786919,0.00,0.00,-0.30,-1.10,2.20,94.80,0,1,0,98,88,-1699,13908,51740,2931.50,50,TakeOff,1,0,0,0,0,0,0,1764606355646,4327,4327,4318,4326,4332,4318,18,,,,,,,0,0,0,11.00,22.00,948.00,0.00,3.00,-10.00,11,8.00,3.00,3.49,0.00,0.00,-3.00,0,,,100,100,19,2,0,0,1,1,0,,,,,0.0,0.0,0.0,0.0,0.0,0.0,0
-22.959747,-67.786919,0.90,0.00,0.20,0.34,0.90,0.90,0.73,0.35,809,2025-12-01 16:25:55.744,2025-12-01 13:25:55.744,17,0,0,51.740,-22.959750,-67.786919,0.00,0.00,-0.20,-0.90,2.00,94.90,0,1,0,98,88,-1699,13908,51740,2931.50,50,TakeOff,1,0,0,0,0,0,0,1764606355743,4327,4327,4318,4326,4332,4318,18,,,,,,,0,0,0,9.00,20.00,949.00,0.00,3.00,-10.00,11,9.00,2.00,3.41,0.00,0.00,-2.00,0,,,100,100,19,2,0,0,1,1,0,,,,,0.0,0.0,0.0,0.0,0.0,0.0,0
-22.959747,-67.786919,0.90,0.00,0.20,0.32,0.90,0.90,0.73,0.35,914,2025-12-01 16:25:55.849,2025-12-01 13:25:55.849,17,0,0,51.740,-22.959750,-67.786919,0.00,0.00,-0.20,-0.50,1.80,94.90,0,1,0,98,88,-1699,13908,51740,2931.50,50,TakeOff,1,0,0,0,0,0,0,1764606355848,4327,4327,4318,4326,4332,4318,18,,,,,,,0,0,0,5.00,18.00,949.00,0.00,3.00,-10.00,11,9.00,2.00,3.22,0.00,0.00,-2.00,0,,,100,100,19,2,0,0,1,1,0,,,,,0.0,0.0,0.0,0.0,0.0,0.0,0
-22.959747,-67.786919,0.90,0.00,0.32,0.30,0.90,0.90,0.73,0.35,1012,2025-12-01 16:25:55.946,2025-12-01 13:25:55.946,17,0,0,51.740,-22.959750,-67.786919,-0.10,0.00,-0.30,0.00,1.50,94.90,0,1,0,98,88,-1699,13908,51740,2931.50,50,TakeOff,1,0,0,0,0,0,0,1764606355946,4327,4327,4318,4326,4332,4318,18,,,,,,,0,0,0,-0.00,15.00,949.00,1.00,3.00,-11.00,11,9.00,3.16,3.04,-1.00,0.00,-3.00,0,,,100,100,19,2,0,0,1,1,0,,,,,0.0,0.0,0.0,0.0,0.0,0.0,0
-22.959748,-67.786919,1.00,0.00,0.32,0.28,1.00,1.00,0.73,0.35,1110,2025-12-01 16:25:56.044,2025-12-01 13:25:56.044,17,0,0,51.740,-22.959750,-67.786919,-0.10,0.00,-0.30,0.60,1.10,95.00,0,1,0,98,88,-1699,13908,51740,2931.50,50,TakeOff,1,0,0,0,0,0,0,1764606356044,4327,4327,4318,4326,4332,4318,18,,,,,,,0,0,0,-6.00,11.00,950.00,1.00,3.00,-11.00,11,10.00,3.16,2.85,-1.00,0.00,-3.00,0,,,100,100,19,2,0,0,1,1,0,,,,,0.0,0.0,0.0,0.0,0.0,0.0,0
-22.959748,-67.786918,1.00,0.00,0.32,0.27,1.00,1.00,0.73,0.35,1211,2025-12-01 16:25:56.146,2025-12-01 13:25:56.146,17,0,0,51.740,-22.959750,-67.786919,-0.10,0.00,-0.30,1.40,0.60,95.10,0,1,0,98,88,-1699,13908,51740,2931.50,50,TakeOff,1,0,0,0,0,0,0,1764606356145,4327,4327,4318,4326,4332,4318,18,,,,,,,0,0,0,-14.00,6.00,951.00,1.00,3.00,-12.00,11,10.00,3.16,2.69,-1.00,0.00,-3.00,0,,,100,100,19,2,0,0,1,1,0,,,,,0.0,0.0,0.0,0.0,0.0,0.0,0
-22.959748,-67.786918,1.00,0.00,0.32,0.25,1.00,1.00,0.73,0.35,1313,2025-12-01 16:25:56.247,2025-12-01 13:25:56.247,17,0,0,51.740,-22.959750,-67.786919,-0.10,0.00,-0.30,1.90,0.20,95.10,0,1,0,98,88,-1699,13908,51740,2931.50,50,GPS,1,0,0,0,0,0,0,1764606356247,4327,4327,4318,4326,4332,4318,18,,,,,,,0,0,0,-19.00,2.00,951.00,1.00,3.00,-13.00,6,10.00,3.16,2.49,-1.00,0.00,-3.00,0,,,100,100,19,2,0,0,1,1,0,,,,,0.0,0.0,0.0,0.0,0.0,0.0,0
-22.959748,-67.786918,1.10,0.00,0.32,0.23,1.10,1.10,0.73,0.35,1412,2025-12-01 16:25:56.347,2025-12-01 13:25:56.347,17,0,0,51.740,-22.959750,-67.786919,-0.10,0.00,-0.30,1.80,0.00,94.90,0,1,0,98,88,-1699,13908,51740,2931.50,50,WP,1,0,0,0,0,0,0,1764606356346,4327,4327,4318,4326,4332,4318,18,,,,,,,0,0,0,-18.00,0.00,949.00,1.00,3.00,-12.00,14,11.00,3.16,2.30,-1.00,0.00,-3.00,0,,,100,100,19,2,0,0,1,1,0,,,,,0.0,0.0,0.0,0.0,0.0,0.0,0
-22.959748,-67.786918,1.10,0.00,0.32,0.22,1.10,1.10,0.73,0.35,1527,2025-12-01 16:25:56.461,2025-12-01 13:25:56.462,17,0,0,51.740,-22.959750,-67.786919,-0.10,0.00,-0.30,1.10,-0.60,94.80,0,1,0,98,88,-1699,13908,51740,2931.50,50,WP,1,0,0,0,0,0,0,1764606356461,4327,4327,4318,4326,4332,4318,18,,,,,,,0,0,0,-11.00,-6.00,948.00,0.00,4.00,-11.00,14,11.00,3.16,2.23,-1.00,0.00,-3.00,0,,,100,100,19,2,0,0,1,1,0,,,,,0.0,0.0,0.0,0.0,0.0,0.0,0
-22.959748,-67.786918,1.10,0.00,0.30,0.22,1.10,1.10,0.73,0.35,1625,2025-12-01 16:25:56.559,2025-12-01 13:25:56.559,17,0,0,51.740,-22.959750,-67.786919,0.00,0.00,-0.30,0.10,-1.30,94.60,0,1,0,98,88,-1699,13908,51740,2931.50,50,WP,1,0,0,0,0,0,0,1764606356559,4327,4327,4318,4326,4332,4318,18,,,,,,,0,0,0,-1.00,-13.00,946.00,0.00,3.00,-9.00,14,11.00,3.00,2.21,0.00,0.00,-3.00,0,,,100,100,19,2,0,0,1,1,0,,,,,0.0,0.0,0.0,0.0,0.0,0.0,0
-22.959748,-67.786918,1.20,0.00,0.30,0.22,1.20,1.20,0.73,0.35,1728,2025-12-01 16:25:56.663,2025-12-01 13:25:56.663,17,0,0,51.740,-22.959750,-67.786919,0.00,0.00,-0.30,-0.10,-1.60,94.50,0,1,0,98,88,-25362,13908,51740,2931.50,50,WP,1,0,0,0,0,0,0,1764606356662,4327,4327,4318,4326,4332,4318,18,,,,,,,0,0,0,1.00,-16.00,945.00,0.00,3.00,-8.00,14,12.00,3.00,2.24,0.00,0.00,-3.00,0,,,100,100,19,2,0,0,1,1,0,,,,,0.0,0.0,0.0,0.0,0.0,0.0,0
-22.959748,-67.786918,1.20,0.00,0.41,0.23,1.20,1.20,0.73,0.35,1813,2025-12-01 16:25:56.747,2025-12-01 13:25:56.747,17,0,0,51.740,-22.959750,-67.786919,0.00,0.10,-0.40,-0.10,-1.30,94.50,0,1,0,98,88,-25362,13908,51740,2931.50,50,WP,1,0,0,0,0,0,0,1764606356747,4327,4327,4318,4326,4332,4318,18,,,,,,,0,0,0,1.00,-13.00,945.00,0.00,3.00,-7.00,14,12.00,4.12,2.28,0.00,1.00,-4.00,0,,,100,100,19,2,0,0,1,1,0,,,,,0.0,0.0,0.0,0.0,0.0,0.0,0
-22.959748,-67.786918,1.30,0.00,0.51,0.24,1.30,1.30,0.73,0.35,1927,2025-12-01 16:25:56.862,2025-12-01 13:25:56.862,17,0,0,51.740,-22.959750,-67.786919,0.00,0.10,-0.50,-0.10,-0.50,94.60,0,1,0,98,88,-25362,13908,51740,2931.50,50,WP,1,0,0,0,0,0,0,1764606356861,4327,4327,4318,4326,4332,4318,18,,,,,,,0,0,0,1.00,-5.00,946.00,1.00,3.00,-7.00,14,13.00,5.10,2.36,0.00,1.00,-5.00,0,,,100,100,19,2,0,0,1,1,0,,,,,0.0,0.0,0.0,0.0,0.0,0.0,0
-22.959748,-67.786918,1.30,0.00,0.61,0.25,1.30,1.30,0.73,0.35,2018,2025-12-01 16:25:56.952,2025-12-01 13:25:56.952,17,0,0,51.740,-22.959750,-67.786919,0.00,0.10,-0.60,0.00,0.10,94.80,0,1,0,98,88,-25362,13908,51740,2931.50,50,WP,1,0,0,0,0,0,0,1764606356952,4327,4327,4318,4326,4332,4318,18,,,,,,,0,0,0,-0.00,1.00,948.00,1.00,3.00,-8.00,14,13.00,6.08,2.46,0.00,1.00,-6.00,0,,,100,100,19,2,0,0,1,1,0,,,,,0.0,0.0,0.0,0.0,0.0,0.0,0
-22.959748,-67.786917,1.40,0.00,0.71,0.26,1.40,1.40,0.73,0.35,2115,2025-12-01 16:25:57.049,2025-12-01 13:25:57.049,17,0,0,51.740,-22.959750,-67.786919,0.00,0.10,-0.70,0.00,0.70,95.00,0,1,0,98,88,-25362,13908,51740,2931.50,50,WP,1,0,0,0,0,0,0,1764606357049,4327,4327,4318,4326,4332,4318,18,,,,,,,0,0,0,-0.00,7.00,950.00,1.00,3.00,-11.00,14,14.00,7.07,2.65,0.00,1.00,-7.00,0,,,100,100,19,2,0,0,1,1,0,,,,,0.0,0.0,0.0,0.0,0.0,0.0,0
-22.959748,-67.786917,1.50,0.00,1.02,0.28,1.50,1.50,1.02,0.35,2222,2025-12-01 16:25:57.157,2025-12-01 13:25:57.157,17,0,0,51.740,-22.959750,-67.786919,0.00,0.20,-1.00,0.50,0.90,95.30,0,1,0,98,88,-25362,13908,51740,2931.50,50,WP,1,0,0,0,0,0,0,1764606357156,4327,4327,4318,4326,4332,4318,18,,,,,,,0,0,0,-5.00,9.00,953.00,1.00,3.00,-13.00,14,15.00,10.20,2.85,0.00,2.00,-10.00,0,,,100,100,19,2,0,0,1,1,0,,,,,0.0,0.0,0.0,0.0,0.0,0.0,0
-22.959748,-67.786917,1.60,0.00,1.32,0.31,1.60,1.60,1.32,0.35,2319,2025-12-01 16:25:57.254,2025-12-01 13:25:57.254,17,0,0,51.740,-22.959750,-67.786919,0.00,0.20,-1.30,1.20,0.80,95.40,0,1,0,98,88,-25362,13908,51740,2931.50,50,WP,1,0,0,0,0,0,0,1764606357253,4327,4327,4318,4326,4332,4318,18,,,,,,,0,0,0,-12.00,8.00,954.00,2.00,3.00,-16.00,14,16.00,13.15,3.06,0.00,2.00,-13.00,0,,,100,100,19,2,0,0,1,1,0,,,,,0.0,0.0,0.0,0.0,0.0,0.0,0
-22.959748,-67.786917,1.80,0.00,1.61,0.32,1.80,1.80,1.61,0.35,2417,2025-12-01 16:25:57.352,2025-12-01 13:25:57.352,17,0,0,51.740,-22.959750,-67.786919,0.00,0.20,-1.60,2.00,0.30,95.40,0,1,0,98,88,-25362,13908,51740,2931.50,50,WP,1,0,0,0,0,0,0,1764606357351,4327,4327,4318,4326,4332,4318,18,,,,,,,0,0,0,-20.00,3.00,954.00,1.00,3.00,-16.00,14,18.00,16.12,3.23,0.00,2.00,-16.00,0,,,100,100,19,2,0,0,1,1,0,,,,,0.0,0.0,0.0,0.0,0.0,0.0,0
-22.959748,-67.786916,1.90,0.00,1.90,0.34,1.90,1.90,1.90,0.35,2520,2025-12-01 16:25:57.455,2025-12-01 13:25:57.455,17,0,0,51.740,-22.959750,-67.786919,0.00,0.10,-1.90,2.80,-0.40,95.10,0,1,0,98,88,-25362,13908,51740,2931.50,50,WP,1,0,0,0,0,0,0,1764606357454,4327,4327,4318,4326,4332,4318,18,,,,,,,0,0,0,-28.00,-4.00,951.00,1.00,3.00,-15.00,14,19.00,19.03,3.40,0.00,1.00,-19.00,0,,,100,100,19,2,0,0,1,1,0,,,,,0.0,0.0,0.0,0.0,0.0,0.0,0
-22.959749,-67.786916,2.10,0.00,2.20,0.35,2.10,2.10,2.20,0.35,2646,2025-12-01 16:25:57.580,2025-12-01 13:25:57.580,17,0,0,51.740,-22.959750,-67.786919,0.00,0.10,-2.20,3.20,-1.30,94.80,0,1,0,98,88,-25362,13908,51740,2931.50,50,WP,1,0,0,0,0,0,0,1764606357580,4327,4327,4318,4326,4332,4318,18,,,,,,,0,0,0,-32.00,-13.00,948.00,2.00,3.00,-12.00,14,21.00,22.02,3.55,0.00,1.00,-22.00,0,,,100,100,19,2,0,0,1,1,0,,,,,0.0,0.0,0.0,0.0,0.0,0.0,0
-22.959749,-67.786916,2.40,0.00,2.40,0.37,2.40,2.40,2.40,0.37,2719,2025-12-01 16:25:57.653,2025-12-01 13:25:57.653,17,0,0,51.740,-22.959750,-67.786919,0.00,0.10,-2.40,3.30,-1.60,94.70,0,1,0,98,88,-25362,13908,51740,2931.50,50,WP,1,0,0,0,0,0,0,1764606357653,4327,4327,4318,4326,4332,4318,18,,,,,,,0,0,0,-33.00,-16.00,947.00,2.00,3.00,-9.00,14,24.00,24.02,3.70,0.00,1.00,-24.00,0,,,100,100,19,2,0,0,1,1,0,,,,,0.0,0.0,0.0,0.0,0.0,0.0,0
-22.959749,-67.786916,2.60,0.00,2.70,0.38,2.60,2.60,2.70,0.38,2722,2025-12-01 16:25:57.657,2025-12-01 13:25:57.657,17,0,0,51.740,-22.959750,-67.786919,0.00,0.00,-2.70,3.40,-1.70,94.70,0,1,0,98,88,-25362,13908,51740,2931.50,50,WP,1,0,0,0,0,0,0,1764606357656,4327,4327,4318,4326,4332,4318,18,,,,,,,0,0,0,-34.00,-17.00,947.00,1.00,3.00,-9.00,14,26.00,27.00,3.82,0.00,0.00,-27.00,0,,,100,100,19,2,0,0,1,1,0,,,,,0.0,0.0,0.0,0.0,0.0,0.0,0
-22.959749,-67.786916,2.90,0.00,2.90,0.39,2.90,2.90,2.90,0.39,2829,2025-12-01 16:25:57.763,2025-12-01 13:25:57.763,17,0,0,51.740,-22.959750,-67.786919,0.00,0.00,-2.90,2.70,-1.10,94.80,0,1,0,98,88,-25362,13908,51740,2931.50,50,WP,1,0,0,0,0,0,0,1764606357763,4327,4327,4318,4326,4332,4318,18,,,,,,,0,0,0,-27.00,-11.00,948.00,1.00,3.00,-9.00,14,29.00,29.00,3.91,0.00,0.00,-29.00,0,,,100,100,19,2,0,0,1,1,0,,,,,0.0,0.0,0.0,0.0,0.0,0.0,0
-22.959749,-67.786916,3.20,0.00,3.20,0.40,3.20,3.20,3.20,0.40,3023,2025-12-01 16:25:57.958,2025-12-01 13:25:57.958,17,0,0,51.740,-22.959750,-67.786919,0.00,0.00,-3.20,1.40,-0.10,94.90,0,1,0,98,88,-25362,13908,51740,2931.50,50,WP,1,0,0,0,0,0,0,1764606357957,4327,4327,4318,4326,4332,4318,18,,,,,,,0,0,0,-14.00,-1.00,949.00,0.00,3.00,-10.00,14,32.00,32.00,3.98,0.00,0.00,-32.00,0,,,100,100,19,2,0,0,1,1,0,,,,,0.0,0.0,0.0,0.0,0.0,0.0,0
-22.959749,-67.786916,3.50,0.00,3.30,0.40,3.50,3.50,3.30,0.40,3129,2025-12-01 16:25:58.063,2025-12-01 13:25:58.063,17,0,0,51.740,-22.959750,-67.786919,0.00,0.00,-3.30,0.40,0.60,95.00,0,1,0,98,88,-25362,13908,51740,2931.50,50,WP,1,0,0,0,0,0,0,1764606358063,4327,4327,4318,4326,4332,4318,18,,,,,,,0,0,0,-4.00,6.00,950.00,0.00,3.00,-11.00,14,35.00,33.00,4.01,0.00,0.00,-33.00,0,,,100,100,19,2,0,0,1,1,0,,,,,0.0,0.0,0.0,0.0,0.0,0.0,0
-22.959749,-67.786916,3.80,0.00,3.50,0.41,3.80,3.80,3.50,0.41,3223,2025-12-01 16:25:58.157,2025-12-01 13:25:58.157,17,0,0,51.740,-22.959750,-67.786919,0.00,0.10,-3.50,-0.20,0.60,95.00,0,1,0,98,88,-25362,13908,51740,2931.50,50,WP,1,0,0,0,0,0,0,1764606358157,4327,4327,4318,4326,4332,4318,18,,,,,,,0,0,0,2.00,6.00,950.00,0.00,3.00,-13.00,14,38.00,35.01,4.07,0.00,1.00,-35.00,0,,,100,100,19,2,0,0,1,1,0,,,,,0.0,0.0,0.0,0.0,0.0,0.0,0
-22.959749,-67.786915,4.20,0.00,3.50,0.42,4.20,4.20,3.50,0.42,3327,2025-12-01 16:25:58.262,2025-12-01 13:25:58.262,17,0,0,51.740,-22.959750,-67.786919,0.00,0.10,-3.50,-0.50,0.50,95.00,0,1,0,98,88,-25362,13908,51740,2931.50,50,WP,1,0,0,0,0,0,0,1764606358261,4327,4327,4318,4326,4332,4318,18,,,,,,,0,0,0,5.00,5.00,950.00,0.00,3.00,-12.00,14,42.00,35.01,4.16,0.00,1.00,-35.00,0,,,100,100,19,2,0,0,1,1,0,,,,,0.0,0.0,0.0,0.0,0.0,0.0,0
-22.959748,-67.786915,4.50,0.00,3.50,0.43,4.50,4.50,3.50,0.43,3334,2025-12-01 16:25:58.268,2025-12-01 13:25:58.268,17,0,0,51.740,-22.959750,-67.786919,0.00,0.10,-3.50,0.10,0.50,95.00,0,1,0,98,88,-25362,13908,51740,2931.50,50,WP,1,0,0,0,0,0,0,1764606358268,4327,4327,4318,4326,4332,4318,18,,,,,,,0,0,0,-1.00,5.00,950.00,1.00,3.00,-12.00,14,45.00,35.01,4.30,0.00,1.00,-35.00,0,,,100,100,19,2,0,0,1,1,0,,,,,0.0,0.0,0.0,0.0,0.0,0.0,0
-22.959748,-67.786915,4.80,0.00,3.51,0.44,4.80,4.80,3.51,0.44,3527,2025-12-01 16:25:58.461,2025-12-01 13:25:58.461,17,0,0,47.186,-22.959750,-67.786919,0.00,0.20,-3.50,1.60,0.70,95.10,0,1,0,98,88,-50495,13908,47186,2931.50,50,WP,1,0,0,0,0,0,0,1764606358461,3952,3957,3946,3965,3965,3921,18,,,,,,,0,0,0,-16.00,7.00,951.00,1.00,3.00,-12.00,14,48.00,35.06,4.44,0.00,2.00,-35.00,0,,,100,100,19,2,0,0,1,1,0,,,,,0.0,0.0,0.0,0.0,0.0,0.0,0
-22.959748,-67.786915,5.20,0.00,3.41,0.46,5.20,5.20,3.51,0.46,3629,2025-12-01 16:25:58.564,2025-12-01 13:25:58.564,17,0,0,47.186,-22.959750,-67.786919,0.00,0.20,-3.40,3.00,0.90,95.20,0,1,0,98,88,-50495,13908,47186,2931.50,50,WP,1,0,0,0,0,0,0,1764606358563,3952,3957,3946,3965,3965,3921,18,,,,,,,0,0,0,-30.00,9.00,952.00,1.00,3.00,-12.00,14,52.00,34.06,4.60,0.00,2.00,-34.00,0,,,100,100,19,2,0,0,1,1,0,,,,,0.0,0.0,0.0,0.0,0.0,0.0,0
-22.959749,-67.786915,5.50,0.00,3.30,0.47,5.50,5.50,3.51,0.47,3636,2025-12-01 16:25:58.571,2025-12-01 13:25:58.571,17,0,0,47.186,-22.959750,-67.786919,0.00,0.10,-3.30,3.70,0.90,95.20,0,1,0,98,88,-50495,13908,47186,2931.50,50,WP,1,0,0,0,0,0,0,1764606358570,3952,3957,3946,3965,3965,3921,18,,,,,,,0,0,0,-37.00,9.00,952.00,1.00,3.00,-14.00,14,55.00,33.02,4.73,0.00,1.00,-33.00,0,,,100,100,19,2,0,0,1,1,0,,,,,0.0,0.0,0.0,0.0,0.0,0.0,0
-22.959749,-67.786915,5.80,0.00,3.30,0.48,5.80,5.80,3.51,0.48,3732,2025-12-01 16:25:58.666,2025-12-01 13:25:58.667,17,0,0,47.186,-22.959750,-67.786919,0.00,0.10,-3.30,4.10,0.80,95.10,0,1,0,98,88,-50495,13908,47186,2931.50,50,WP,1,0,0,0,0,0,0,1764606358666,3952,3957,3946,3965,3965,3921,18,,,,,,,0,0,0,-41.00,8.00,951.00,1.00,3.00,-14.00,14,58.00,33.02,4.84,0.00,1.00,-33.00,0,,,100,100,19,2,0,0,1,1,0,,,,,0.0,0.0,0.0,0.0,0.0,0.0,0
-22.959749,-67.786915,6.10,0.00,3.20,0.49,6.10,6.10,3.51,0.49,3832,2025-12-01 16:25:58.766,2025-12-01 13:25:58.766,17,0,0,47.186,-22.959750,-67.786919,0.00,0.00,-3.20,4.10,0.60,95.00,0,1,0,98,88,-50495,13908,47186,2931.50,50,WP,1,0,0,0,0,0,0,1764606358766,3952,3957,3946,3965,3965,3921,18,,,,,,,0,0,0,-41.00,6.00,950.00,1.00,3.00,-13.00,14,61.00,32.00,4.94,0.00,0.00,-32.00,0,,,100,100,19,2,0,0,1,1,0,,,,,0.0,0.0,0.0,0.0,0.0,0.0,0
-22.959749,-67.786914,6.40,0.00,3.10,0.50,6.40,6.40,3.51,0.50,4029,2025-12-01 16:25:58.963,2025-12-01 13:25:58.963,17,0,0,47.186,-22.959750,-67.786919,0.00,0.00,-3.10,3.70,0.40,94.90,0,1,0,98,88,-50495,13908,47186,2931.50,50,WP,1,0,0,0,0,0,0,1764606358963,3952,3957,3946,3965,3965,3921,18,,,,,,,0,0,0,-37.00,4.00,949.00,0.00,3.00,-12.00,14,64.00,31.00,5.01,0.00,0.00,-31.00,0,,,100,100,19,2,0,0,1,1,0,,,,,0.0,0.0,0.0,0.0,0.0,0.0,0
-22.959749,-67.786914,6.70,0.00,3.10,0.51,6.70,6.70,3.51,0.51,4132,2025-12-01 16:25:59.067,2025-12-01 13:25:59.067,17,0,0,47.186,-22.959750,-67.786919,0.00,0.00,-3.10,3.40,0.40,94.90,0,1,0,98,88,-50495,13908,47186,2931.50,50,WP,1,0,0,0,0,0,0,1764606359066,3952,3957,3946,3965,3965,3921,18,,,,,,,0,0,0,-34.00,4.00,949.00,0.00,3.00,-11.00,14,67.00,31.00,5.07,0.00,0.00,-31.00,0,,,100,100,19,2,0,0,1,1,0,,,,,0.0,0.0,0.0,0.0,0.0,0.0,0
-22.959749,-67.786914,7.30,0.00,3.00,0.51,7.30,7.30,3.51,0.51,4333,2025-12-01 16:25:59.268,2025-12-01 13:25:59.268,17,0,0,47.186,-22.959750,-67.786919,0.00,0.00,-3.00,2.90,-0.30,94.80,0,1,0,98,88,-50495,13908,47186,2931.50,50,WP,1,0,0,0,0,0,0,1764606359267,3952,3957,3946,3965,3965,3921,18,,,,,,,0,0,0,-29.00,-3.00,948.00,0.00,3.00,-11.00,14,73.00,30.00,5.07,0.00,0.00,-30.00,0,,,100,99,19,2,0,0,1,1,0,,,,,0.0,0.0,0.0,0.0,0.0,0.0,0
-22.959749,-67.786914,7.60,0.00,3.00,0.50,7.60,7.60,3.51,0.51,4434,2025-12-01 16:25:59.368,2025-12-01 13:25:59.368,17,0,0,47.186,-22.959750,-67.786919,0.00,0.00,-3.00,2.80,-0.80,94.70,0,1,0,98,88,-50495,13908,47186,2931.50,50,WP,1,0,0,0,0,0,0,1764606359368,3952,3957,3946,3965,3965,3921,18,,,,,,,0,0,0,-28.00,-8.00,947.00,0.00,3.00,-10.00,14,76.00,30.00,5.03,0.00,0.00,-30.00,0,,,100,99,19,2,0,0,1,1,0,,,,,0.0,0.0,0.0,0.0,0.0,0.0,0
-22.959750,-67.786914,7.90,0.00,3.00,0.49,7.90,7.90,3.51,0.51,4536,2025-12-01 16:25:59.471,2025-12-01 13:25:59.471,17,0,0,47.186,-22.959750,-67.786919,0.00,0.00,-3.00,2.70,-1.20,94.70,0,1,0,98,88,-50495,13908,47186,2931.50,50,WP,1,0,0,0,0,0,0,1764606359470,3952,3957,3946,3965,3965,3921,18,,,,,,,0,0,0,-27.00,-12.00,947.00,0.00,3.00,-9.00,14,79.00,30.00,4.94,0.00,0.00,-30.00,0,,,100,99,19,2,0,0,1,1,0,,,,,0.0,0.0,0.0,0.0,0.0,0.0,0
-22.959750,-67.786914,8.20,0.00,3.00,0.49,8.20,8.20,3.51,0.51,4555,2025-12-01 16:25:59.490,2025-12-01 13:25:59.490,17,0,0,47.186,-22.959750,-67.786919,0.00,0.00,-3.00,2.30,-1.30,94.70,0,1,0,98,88,-50495,13908,47186,2931.50,50,WP,1,0,0,0,0,0,0,1764606359489,3952,3957,3946,3965,3965,3921,18,,,,,,,0,0,0,-23.00,-13.00,947.00,0.00,3.00,-9.00,14,82.00,30.00,4.85,0.00,0.00,-30.00,0,,,100,99,19,2,0,0,1,1,0,,,,,0.0,0.0,0.0,0.0,0.0,0.0,0
-22.959750,-67.786914,8.50,0.00,3.00,0.48,8.50,8.50,3.51,0.51,4634,2025-12-01 16:25:59.569,2025-12-01 13:25:59.569,17,0,0,47.186,-22.959750,-67.786919,0.00,0.00,-3.00,1.90,-1.20,94.80,0,1,0,98,88,-50495,13908,47186,2931.50,50,WP,1,0,0,0,0,0,0,1764606359568,3952,3957,3946,3965,3965,3921,18,,,,,,,0,0,0,-19.00,-12.00,948.00,0.00,4.00,-9.00,14,85.00,30.00,4.80,0.00,0.00,-30.00,0,,,100,99,19,2,0,0,1,1,0,,,,,0.0,0.0,0.0,0.0,0.0,0.0,0
-22.959750,-67.786914,8.80,0.00,3.10,0.48,8.80,8.80,3.51,0.51,4842,2025-12-01 16:25:59.776,2025-12-01 13:25:59.776,17,0,0,47.186,-22.959750,-67.786919,0.00,0.00,-3.10,1.60,-0.90,95.00,0,1,0,98,88,-50495,13908,47186,2931.50,50,WP,1,0,0,0,0,0,0,1764606359776,3952,3957,3946,3965,3965,3921,18,,,,,,,0,0,0,-16.00,-9.00,950.00,0.00,3.00,-10.00,14,88.00,31.00,4.78,0.00,0.00,-31.00,0,,,100,97,19,2,0,0,1,1,0,,,,,0.0,0.0,0.0,0.0,0.0,0.0,0
-22.959750,-67.786914,9.10,0.00,3.10,0.48,9.10,9.10,3.51,0.51,4848,2025-12-01 16:25:59.782,2025-12-01 13:25:59.782,17,0,0,47.186,-22.959750,-67.786919,0.00,0.00,-3.10,1.90,-0.50,95.10,0,1,0,98,88,-50495,13908,47186,2931.50,50,WP,1,0,0,0,0,0,0,1764606359782,3952,3957,3946,3965,3965,3921,18,,,,,,,0,0,0,-19.00,-5.00,951.00,0.00,3.00,-12.00,14,91.00,31.00,4.80,0.00,0.00,-31.00,0,,,100,97,19,2,0,0,1,1,0,,,,,0.0,0.0,0.0,0.0,0.0,0.0,0
-22.959750,-67.786914,9.50,0.00,3.10,0.48,9.50,9.50,3.51,0.51,5042,2025-12-01 16:25:59.977,2025-12-01 13:25:59.977,17,0,0,47.186,-22.959750,-67.786919,0.00,0.00,-3.10,2.20,-0.20,95.10,0,1,0,98,88,-50495,13908,47186,2931.50,50,WP,1,0,0,0,0,0,0,1764606359976,3952,3957,3946,3965,3965,3921,18,,,,,,,0,0,0,-22.00,-2.00,951.00,1.00,3.00,-13.00,14,95.00,31.00,4.84,0.00,0.00,-31.00,0,,,100,97,19,2,0,0,1,1,0,,,,,0.0,0.0,0.0,0.0,0.0,0.0,0
-22.959750,-67.786914,9.80,0.00,3.10,0.49,9.80,9.80,3.51,0.51,5047,2025-12-01 16:25:59.982,2025-12-01 13:25:59.982,17,0,0,47.186,-22.959750,-67.786919,0.00,0.00,-3.10,2.60,-0.20,95.00,0,1,0,98,88,-50495,13908,47186,2931.50,50,WP,1,0,0,0,0,0,0,1764606359981,3952,3957,3946,3965,3965,3921,18,,,,,,,0,0,0,-26.00,-2.00,950.00,1.00,3.00,-13.00,14,98.00,31.00,4.88,0.00,0.00,-31.00,0,,,100,97,19,2,0,0,1,1,0,,,,,0.0,0.0,0.0,0.0,0.0,0.0,0
-22.959750,-67.786914,10.10,0.00,3.10,0.49,10.10,10.10,3.51,0.51,5146,2025-12-01 16:26:00.080,2025-12-01 13:26:00.080,17,0,0,47.186,-22.959750,-67.786919,0.00,0.00,-3.10,3.00,0.00,95.00,0,1,0,98,88,-50495,13908,47186,2931.50,50,WP,1,0,0,0,0,0,0,1764606360080,3952,3957,3946,3965,3965,3921,18,,,,,,,0,0,0,-30.00,0.00,950.00,1.00,3.00,-12.00,14,101.00,31.00,4.92,0.00,0.00,-31.00,0,,,100,97,19,2,0,0,1,1,0,,,,,0.0,0.0,0.0,0.0,0.0,0.0,0
-22.959750,-67.786914,10.40,0.00,3.10,0.50,10.40,10.40,3.51,0.51,5347,2025-12-01 16:26:00.282,2025-12-01 13:26:00.282,17,0,0,45.489,-22.959750,-67.786919,0.00,0.00,-3.10,3.30,0.00,95.00,0,1,0,98,88,-71574,13863,45489,2931.50,50,WP,1,0,0,0,0,0,0,1764606360281,3952,3957,3946,3965,3965,3921,18,,,,,,,0,0,0,-33.00,0.00,950.00,1.00,3.00,-12.00,14,104.00,31.00,5.03,0.00,0.00,-31.00,0,,,100,98,19,2,0,0,1,1,0,,,,,0.0,0.0,0.0,0.0,0.0,0.0,0
-22.959750,-67.786914,10.70,0.00,3.10,0.51,10.70,10.70,3.51,0.51,5444,2025-12-01 16:26:00.379,2025-12-01 13:26:00.379,17,0,0,45.489,-22.959750,-67.786919,0.00,0.00,-3.10,3.50,0.30,95.00,0,1,0,98,88,-71574,13863,45489,2931.50,50,WP,1,0,0,0,0,0,0,1764606360378,3952,3957,3946,3965,3965,3921,18,,,,,,,0,0,0,-35.00,3.00,950.00,1.00,3.00,-12.00,14,107.00,31.00,5.14,0.00,0.00,-31.00,0,,,100,98,19,2,0,0,1,1,0,,,,,0.0,0.0,0.0,0.0,0.0,0.0,0
-22.959749,-67.786914,11.00,0.00,3.00,0.52,11.00,11.00,3.51,0.52,5451,2025-12-01 16:26:00.386,2025-12-01 13:26:00.386,17,0,0,45.489,-22.959750,-67.786919,0.00,0.00,-3.00,3.40,0.30,95.00,0,1,0,98,88,-71574,13863,45489,2931.50,50,WP,1,0,0,0,0,0,0,1764606360385,3952,3957,3946,3965,3965,3921,18,,,,,,,0,0,0,-34.00,3.00,950.00,1.00,3.00,-12.00,14,110.00,30.00,5.23,0.00,0.00,-30.00,0,,,100,98,19,2,0,0,1,1,0,,,,,0.0,0.0,0.0,0.0,0.0,0.0,0
-22.959749,-67.786914,11.30,0.00,3.00,0.53,11.30,11.30,3.51,0.53,5641,2025-12-01 16:26:00.576,2025-12-01 13:26:00.576,17,0,0,45.489,-22.959750,-67.786919,0.00,0.00,-3.00,3.30,0.00,95.00,0,1,0,98,88,-71574,13863,45489,2931.50,50,WP,1,0,0,0,0,0,0,1764606360575,3952,3957,3946,3965,3965,3921,18,,,,,,,0,0,0,-33.00,0.00,950.00,0.00,3.00,-11.00,14,113.00,30.00,5.27,0.00,0.00,-30.00,0,,,100,98,19,2,0,0,1,1,0,,,,,0.0,0.0,0.0,0.0,0.0,0.0,0
-22.959749,-67.786914,11.60,0.00,3.00,0.53,11.60,11.60,3.51,0.53,5647,2025-12-01 16:26:00.582,2025-12-01 13:26:00.582,17,0,0,45.489,-22.959750,-67.786919,0.00,0.00,-3.00,3.30,0.00,94.90,0,1,0,98,88,-71574,13863,45489,2931.50,50,WP,1,0,0,0,0,0,0,1764606360581,3952,3957,3946,3965,3965,3921,18,,,,,,,0,0,0,-33.00,0.00,949.00,1.00,3.00,-11.00,14,116.00,30.00,5.28,0.00,0.00,-30.00,0,,,100,98,19,2,0,0,1,1,0,,,,,0.0,0.0,0.0,0.0,0.0,0.0,0
-22.959749,-67.786914,11.90,0.00,3.00,0.53,11.90,11.90,3.51,0.53,5744,2025-12-01 16:26:00.678,2025-12-01 13:26:00.678,17,0,0,45.489,-22.959750,-67.786919,0.00,0.00,-3.00,3.10,-0.10,95.00,0,1,0,98,88,-71574,13863,45489,2931.50,50,WP,1,0,0,0,0,0,0,1764606360678,3952,3957,3946,3965,3965,3921,18,,,,,,,0,0,0,-31.00,-1.00,950.00,0.00,3.00,-11.00,14,119.00,30.00,5.29,0.00,0.00,-30.00,0,,,100,98,19,2,0,0,1,1,0,,,,,0.0,0.0,0.0,0.0,0.0,0.0,0
-22.959749,-67.786914,12.20,0.00,3.00,0.53,12.20,12.20,3.51,0.53,5843,2025-12-01 16:26:00.777,2025-12-01 13:26:00.778,17,0,0,45.489,-22.959750,-67.786919,0.10,0.00,-3.00,2.90,-0.20,95.00,0,1,0,98,88,-71574,13863,45489,2931.50,50,WP,1,0,0,0,0,0,0,1764606360777,3952,3957,3946,3965,3965,3921,18,,,,,,,0,0,0,-29.00,-2.00,950.00,0.00,3.00,-12.00,14,122.00,30.02,5.26,1.00,0.00,-30.00,0,,,100,99,19,2,0,0,1,1,0,,,,,0.0,0.0,0.0,0.0,0.0,0.0,0
-22.959749,-67.786914,12.50,0.00,3.00,0.53,12.50,12.50,3.51,0.53,5946,2025-12-01 16:26:00.880,2025-12-01 13:26:00.881,17,0,0,45.489,-22.959750,-67.786919,0.10,0.00,-3.00,3.00,-0.10,95.10,0,1,0,98,88,-71574,13863,45489,2931.50,50,WP,1,0,0,0,0,0,0,1764606360880,3952,3957,3946,3965,3965,3921,18,,,,,,,0,0,0,-30.00,-1.00,951.00,0.00,3.00,-12.00,14,125.00,30.02,5.26,1.00,0.00,-30.00,0,,,100,99,19,2,0,0,1,1,0,,,,,0.0,0.0,0.0,0.0,0.0,0.0,0
-22.959749,-67.786914,12.80,0.00,3.10,0.53,12.80,12.80,3.51,0.53,6048,2025-12-01 16:26:00.983,2025-12-01 13:26:00.983,17,0,0,45.489,-22.959750,-67.786919,0.10,0.00,-3.10,3.10,0.10,95.10,0,1,0,98,88,-71574,13863,45489,2931.50,50,WP,1,0,0,0,0,0,0,1764606360982,3952,3957,3946,3965,3965,3921,18,,,,,,,0,0,0,-31.00,1.00,951.00,0.00,3.00,-13.00,14,128.00,31.02,5.25,1.00,0.00,-31.00,0,,,100,99,19,2,0,0,1,1,0,,,,,0.0,0.0,0.0,0.0,0.0,0.0,0
-22.959749,-67.786914,13.10,0.00,3.10,0.53,13.10,13.10,3.51,0.53,6145,2025-12-01 16:26:01.079,2025-12-01 13:26:01.079,17,0,0,45.489,-22.959750,-67.786919,0.10,0.00,-3.10,3.20,0.50,95.00,0,1,0,98,88,-71574,13863,45489,2931.50,50,WP,1,0,0,0,0,0,0,1764606361079,3952,3957,3946,3965,3965,3921,18,,,,,,,0,0,0,-32.00,5.00,950.00,1.00,3.00,-13.00,14,131.00,31.02,5.27,1.00,0.00,-31.00,0,,,100,99,19,2,0,0,1,1,0,,,,,0.0,0.0,0.0,0.0,0.0,0.0,0
-22.959749,-67.786914,13.40,0.00,3.10,0.53,13.40,13.40,3.51,0.53,6263,2025-12-01 16:26:01.197,2025-12-01 13:26:01.198,17,0,0,45.489,-22.959750,-67.786919,0.10,0.00,-3.10,3.40,0.80,95.00,0,1,0,98,88,-71574,13863,45489,2931.50,50,WP,1,0,0,0,0,0,0,1764606361197,3952,3957,3946,3965,3965,3921,18,,,,,,,0,0,0,-34.00,8.00,950.00,1.00,3.00,-12.00,14,134.00,31.02,5.25,1.00,0.00,-31.00,0,,,100,99,19,2,0,0,1,1,0,,,,,0.0,0.0,0.0,0.0,0.0,0.0,0
-22.959749,-67.786914,13.80,0.00,3.00,0.52,13.80,13.80,3.51,0.53,6459,2025-12-01 16:26:01.393,2025-12-01 13:26:01.393,17,0,0,45.489,-22.959750,-67.786919,0.00,0.00,-3.00,3.40,1.00,95.00,0,1,0,98,88,-71574,13863,45489,2931.50,50,WP,1,0,0,0,0,0,0,1764606361393,3952,3957,3946,3965,3965,3921,18,,,,,,,0,0,0,-34.00,10.00,950.00,1.00,3.00,-12.00,14,138.00,30.00,5.24,0.00,0.00,-30.00,0,,,100,100,19,2,0,0,1,1,0,,,,,0.0,0.0,0.0,0.0,0.0,0.0,0
-22.959749,-67.786914,14.10,0.00,3.00,0.52,14.10,14.10,3.51,0.53,6464,2025-12-01 16:26:01.399,2025-12-01 13:26:01.399,17,0,0,45.489,-22.959750,-67.786919,0.00,0.00,-3.00,3.50,1.00,94.90,0,1,0,98,88,-71574,13863,45489,2931.50,50,WP,1,0,0,0,0,0,0,1764606361398,3952,3957,3946,3965,3965,3921,18,,,,,,,0,0,0,-35.00,10.00,949.00,0.00,3.00,-11.00,14,141.00,30.00,5.18,0.00,0.00,-30.00,0,,,100,100,19,2,0,0,1,1,0,,,,,0.0,0.0,0.0,0.0,0.0,0.0,0
-22.959749,-67.786914,14.40,0.00,3.00,0.51,14.40,14.40,3.51,0.53,6552,2025-12-01 16:26:01.486,2025-12-01 13:26:01.486,17,0,0,45.489,-22.959750,-67.786919,0.00,0.00,-3.00,3.50,0.80,94.90,0,1,0,98,88,-71574,13863,45489,2931.50,50,WP,1,0,0,0,0,0,0,1764606361486,3952,3957,3946,3965,3965,3921,18,,,,,,,0,0,0,-35.00,8.00,949.00,0.00,3.00,-11.00,14,144.00,30.00,5.15,0.00,0.00,-30.00,0,,,100,100,19,2,0,0,1,1,0,,,,,0.0,0.0,0.0,0.0,0.0,0.0,0
-22.959749,-67.786914,14.70,0.00,3.10,0.51,14.70,14.70,3.51,0.53,6662,2025-12-01 16:26:01.596,2025-12-01 13:26:01.597,17,0,0,45.489,-22.959750,-67.786919,0.00,0.00,-3.10,3.50,0.50,94.90,0,1,0,98,88,-71574,13863,45489,2931.50,50,WP,1,0,0,0,0,0,0,1764606361596,3952,3957,3946,3965,3965,3921,18,,,,,,,0,0,0,-35.00,5.00,949.00,0.00,3.00,-11.00,14,147.00,31.00,5.07,0.00,0.00,-31.00,0,,,100,100,19,2,0,0,1,1,0,,,,,0.0,0.0,0.0,0.0,0.0,0.0,0
-22.959749,-67.786915,15.00,0.00,3.00,0.50,15.00,15.00,3.51,0.53,6750,2025-12-01 16:26:01.684,2025-12-01 13:26:01.684,17,0,0,45.489,-22.959750,-67.786919,0.00,0.00,-3.00,3.40,0.30,95.00,0,1,0,98,88,-71574,13863,45489,2931.50,50,WP,1,0,0,0,0,0,0,1764606361684,3952,3957,3946,3965,3965,3921,18,,,,,,,0,0,0,-34.00,3.00,950.00,0.00,3.00,-11.00,14,150.00,30.00,5.01,0.00,0.00,-30.00,0,,,100,100,19,2,0,0,1,1,0,,,,,0.0,0.0,0.0,0.0,0.0,0.0,0
-22.959749,-67.786915,15.30,0.00,3.00,0.49,15.30,15.30,3.51,0.53,6847,2025-12-01 16:26:01.782,2025-12-01 13:26:01.782,17,0,0,45.489,-22.959750,-67.786919,0.00,0.00,-3.00,3.50,0.10,95.00,0,1,0,98,88,-71574,13863,45489,2931.50,50,WP,1,0,0,0,0,0,0,1764606361781,3952,3957,3946,3965,3965,3921,18,,,,,,,0,0,0,-35.00,1.00,950.00,0.00,3.00,-12.00,14,153.00,30.00,4.91,0.00,0.00,-30.00,0,,,100,96,19,2,0,0,1,1,0,,,,,0.0,0.0,0.0,0.0,0.0,0.0,0
-22.959749,-67.786915,15.90,0.00,2.80,0.47,15.90,15.90,3.51,0.53,7058,2025-12-01 16:26:01.992,2025-12-01 13:26:01.992,17,0,0,45.489,-22.959750,-67.786919,0.00,-0.10,-2.80,4.10,0.00,95.00,0,1,0,98,88,-71574,13863,45489,2931.50,50,WP,1,0,0,0,0,0,0,1764606361992,3952,3957,3946,3965,3965,3921,18,,,,,,,0,0,0,-41.00,0.00,950.00,0.00,3.00,-12.00,14,159.00,28.02,4.73,0.00,-1.00,-28.00,0,,,100,96,19,2,0,0,1,1,0,,,,,0.0,0.0,0.0,0.0,0.0,0.0,0
-22.959749,-67.786915,16.20,0.00,2.60,0.47,16.20,16.20,3.51,0.53,7161,2025-12-01 16:26:02.095,2025-12-01 13:26:02.095,17,0,0,45.489,-22.959750,-67.786919,0.00,-0.10,-2.60,4.50,0.10,95.00,0,1,0,98,88,-71574,13863,45489,2931.50,50,WP,1,0,0,0,0,0,0,1764606362095,3952,3957,3946,3965,3965,3921,18,,,,,,,0,0,0,-45.00,1.00,950.00,0.00,3.00,-12.00,14,162.00,26.02,4.65,0.00,-1.00,-26.00,0,,,100,96,19,2,0,0,1,1,0,,,,,0.0,0.0,0.0,0.0,0.0,0.0,0
-22.959749,-67.786915,16.40,0.00,2.50,0.45,16.40,16.40,3.51,0.53,7262,2025-12-01 16:26:02.196,2025-12-01 13:26:02.196,17,0,0,45.489,-22.959750,-67.786919,0.00,-0.10,-2.50,4.80,0.20,95.00,0,1,0,98,88,-71574,13863,45489,2931.50,50,WP,1,0,0,0,0,0,0,1764606362196,3952,3957,3946,3965,3965,3921,18,,,,,,,0,0,0,-48.00,2.00,950.00,0.00,3.00,-12.00,14,164.00,25.02,4.50,0.00,-1.00,-25.00,0,,,100,96,19,2,0,0,1,1,0,,,,,0.0,0.0,0.0,0.0,0.0,0.0,0
-22.959748,-67.786915,16.70,0.00,2.30,0.43,16.70,16.70,3.51,0.53,7354,2025-12-01 16:26:02.288,2025-12-01 13:26:02.288,17,0,0,46.013,-22.959750,-67.786919,0.00,-0.10,-2.30,4.90,0.20,95.00,0,1,0,98,88,-59987,13863,46013,2931.50,50,WP,1,0,0,0,0,0,0,1764606362288,3952,3957,3946,3965,3965,3921,18,,,,,,,0,0,0,-49.00,2.00,950.00,1.00,3.00,-12.00,14,167.00,23.02,4.34,0.00,-1.00,-23.00,0,,,100,95,19,2,0,0,1,1,0,,,,,0.0,0.0,0.0,0.0,0.0,0.0,0
-22.959748,-67.786916,16.90,0.00,2.11,0.41,16.90,16.90,3.51,0.53,7460,2025-12-01 16:26:02.395,2025-12-01 13:26:02.395,17,0,0,46.013,-22.959750,-67.786919,0.00,-0.20,-2.10,4.90,0.40,95.00,0,1,0,98,88,-59987,13863,46013,2931.50,50,WP,1,0,0,0,0,0,0,1764606362394,3952,3957,3946,3965,3965,3921,18,,,,,,,0,0,0,-49.00,4.00,950.00,0.00,3.00,-12.00,14,169.00,21.10,4.13,0.00,-2.00,-21.00,0,,,100,95,19,2,0,0,1,1,0,,,,,0.0,0.0,0.0,0.0,0.0,0.0,0
-22.959748,-67.786916,17.10,0.00,1.91,0.40,17.10,17.10,3.51,0.53,7557,2025-12-01 16:26:02.492,2025-12-01 13:26:02.492,17,0,0,46.013,-22.959750,-67.786919,0.00,-0.20,-1.90,4.50,0.50,95.00,0,1,0,98,88,-59987,13863,46013,2931.50,50,WP,1,0,0,0,0,0,0,1764606362491,3952,3957,3946,3965,3965,3921,18,,,,,,,0,0,0,-45.00,5.00,950.00,0.00,3.00,-12.00,14,171.00,19.10,3.95,0.00,-2.00,-19.00,0,,,100,95,19,2,0,0,1,1,0,,,,,0.0,0.0,0.0,0.0,0.0,0.0,0
-22.959748,-67.786916,17.30,0.00,1.81,0.37,17.30,17.30,3.51,0.53,7657,2025-12-01 16:26:02.591,2025-12-01 13:26:02.591,17,0,0,46.013,-22.959750,-67.786919,0.00,-0.20,-1.80,4.00,0.30,95.00,0,1,0,98,88,-59987,13863,46013,2931.50,50,WP,1,0,0,0,0,0,0,1764606362591,3952,3957,3946,3965,3965,3921,18,,,,,,,0,0,0,-40.00,3.00,950.00,0.00,3.00,-12.00,14,173.00,18.11,3.72,0.00,-2.00,-18.00,0,,,100,95,19,2,0,0,1,1,0,,,,,0.0,0.0,0.0,0.0,0.0,0.0,0
-22.959748,-67.786916,17.40,0.00,1.71,0.35,17.40,17.40,3.51,0.53,7761,2025-12-01 16:26:02.696,2025-12-01 13:26:02.696,17,0,0,46.013,-22.959750,-67.786919,0.00,-0.20,-1.70,3.50,0.20,95.00,0,1,0,98,88,-59987,13863,46013,2931.50,50,WP,1,0,0,0,0,0,0,1764606362695,3952,3957,3946,3965,3965,3921,18,,,,,,,0,0,0,-35.00,2.00,950.00,0.00,3.00,-12.00,14,174.00,17.12,3.53,0.00,-2.00,-17.00,0,,,100,95,19,2,0,0,1,1,0,,,,,0.0,0.0,0.0,0.0,0.0,0.0,0
-22.959748,-67.786917,17.60,0.00,1.61,0.33,17.60,17.60,3.51,0.53,7863,2025-12-01 16:26:02.797,2025-12-01 13:26:02.798,17,0,0,46.013,-22.959750,-67.786919,0.00,-0.20,-1.60,3.00,0.00,94.90,0,1,0,98,88,-59987,13863,46013,2931.50,50,WP,1,0,0,0,0,0,0,1764606362797,3952,3957,3946,3965,3965,3921,18,,,,,,,0,0,0,-30.00,0.00,949.00,0.00,3.00,-12.00,14,176.00,16.12,3.33,0.00,-2.00,-16.00,0,,,100,96,19,2,0,0,1,1,0,,,,,0.0,0.0,0.0,0.0,0.0,0.0,0
-22.959748,-67.786917,17.80,0.00,1.52,0.32,17.80,17.80,3.51,0.53,7959,2025-12-01 16:26:02.894,2025-12-01 13:26:02.894,17,0,0,46.013,-22.959750,-67.786919,0.10,-0.20,-1.50,2.60,0.00,94.90,0,1,0,98,88,-59987,13863,46013,2931.50,50,WP,1,0,0,0,0,0,0,1764606362893,3952,3957,3946,3965,3965,3921,18,,,,,,,0,0,0,-26.00,0.00,949.00,0.00,3.00,-12.00,14,178.00,15.17,3.20,1.00,-2.00,-15.00,0,,,100,96,19,2,0,0,1,1,0,,,,,0.0,0.0,0.0,0.0,0.0,0.0,0
-22.959748,-67.786917,17.90,0.00,1.42,0.31,17.90,17.90,3.51,0.53,8056,2025-12-01 16:26:02.991,2025-12-01 13:26:02.991,17,0,0,46.013,-22.959750,-67.786919,0.10,-0.20,-1.40,2.30,0.10,94.90,0,1,0,98,88,-59987,13863,46013,2931.50,50,WP,1,0,0,0,0,0,0,1764606362990,3952,3957,3946,3965,3965,3921,18,,,,,,,0,0,0,-23.00,1.00,949.00,0.00,3.00,-11.00,14,179.00,14.18,3.09,1.00,-2.00,-14.00,0,,,100,96,19,2,0,0,1,1,0,,,,,0.0,0.0,0.0,0.0,0.0,0.0,0
-22.959748,-67.786917,18.10,0.00,1.32,0.30,18.10,18.10,3.51,0.53,8161,2025-12-01 16:26:03.095,2025-12-01 13:26:03.096,17,0,0,46.013,-22.959750,-67.786919,0.10,-0.20,-1.30,2.00,0.30,94.90,0,1,0,98,88,-59987,13863,46013,2931.50,50,WP,1,0,0,0,0,0,0,1764606363095,3952,3957,3946,3965,3965,3921,18,,,,,,,0,0,0,-20.00,3.00,949.00,0.00,3.00,-11.00,14,181.00,13.19,3.03,1.00,-2.00,-13.00,0,,,100,96,19,2,0,0,1,1,0,,,,,0.0,0.0,0.0,0.0,0.0,0.0,0
-22.959748,-67.786918,18.40,0.00,1.22,0.31,18.40,18.40,3.51,0.53,8363,2025-12-01 16:26:03.298,2025-12-01 13:26:03.298,17,0,0,46.013,-22.959750,-67.786919,0.10,-0.20,-1.20,1.40,1.00,95.00,0,1,0,98,88,-59987,13863,46013,2931.50,50,WP,1,0,0,0,0,0,0,1764606363297,3952,3957,3946,3965,3965,3921,18,,,,,,,0,0,0,-14.00,10.00,950.00,0.00,3.00,-11.00,14,184.00,12.21,3.09,1.00,-2.00,-12.00,0,,,100,93,19,2,0,0,1,1,0,,,,,0.0,0.0,0.0,0.0,0.0,0.0,0
-22.959747,-67.786918,18.50,0.00,1.11,0.32,18.50,18.50,3.51,0.53,8463,2025-12-01 16:26:03.397,2025-12-01 13:26:03.397,17,0,0,46.013,-22.959750,-67.786919,0.10,-0.10,-1.10,1.10,1.30,95.00,0,1,0,98,88,-59987,13863,46013,2931.50,50,WP,1,0,0,0,0,0,0,1764606363397,3952,3957,3946,3965,3965,3921,18,,,,,,,0,0,0,-11.00,13.00,950.00,0.00,3.00,-12.00,14,185.00,11.09,3.19,1.00,-1.00,-11.00,0,,,100,93,19,2,0,0,1,1,0,,,,,0.0,0.0,0.0,0.0,0.0,0.0,0
-22.959747,-67.786918,18.60,0.00,1.11,0.33,18.60,18.60,3.51,0.53,8565,2025-12-01 16:26:03.500,2025-12-01 13:26:03.500,17,0,0,46.013,-22.959750,-67.786919,0.10,-0.10,-1.10,1.00,1.40,95.00,0,1,0,98,88,-59987,13863,46013,2931.50,50,WP,1,0,0,0,0,0,0,1764606363499,3952,3957,3946,3965,3965,3921,18,,,,,,,0,0,0,-10.00,14.00,950.00,0.00,3.00,-12.00,14,186.00,11.09,3.29,1.00,-1.00,-11.00,0,,,100,93,19,2,0,0,1,1,0,,,,,0.0,0.0,0.0,0.0,0.0,0.0,0
-22.959747,-67.786918,18.70,0.00,1.11,0.34,18.70,18.70,3.51,0.53,8664,2025-12-01 16:26:03.598,2025-12-01 13:26:03.598,17,0,0,46.013,-22.959750,-67.786919,0.10,-0.10,-1.10,0.90,1.50,95.00,0,1,0,98,88,-59987,13863,46013,2931.50,50,WP,1,0,0,0,0,0,0,1764606363598,3952,3957,3946,3965,3965,3921,18,,,,,,,0,0,0,-9.00,15.00,950.00,0.00,3.00,-12.00,14,187.00,11.09,3.45,1.00,-1.00,-11.00,0,,,100,93,19,2,0,0,1,1,0,,,,,0.0,0.0,0.0,0.0,0.0,0.0,0
-22.959747,-67.786918,18.90,0.00,1.11,0.36,18.90,18.90,3.51,0.53,8766,2025-12-01 16:26:03.701,2025-12-01 13:26:03.701,17,0,0,46.013,-22.959750,-67.786919,0.10,-0.10,-1.10,0.90,1.70,95.00,0,1,0,98,88,-59987,13863,46013,2931.50,50,WP,1,0,0,0,0,0,0,1764606363700,3952,3957,3946,3965,3965,3921,18,,,,,,,0,0,0,-9.00,17.00,950.00,0.00,3.00,-12.00,14,189.00,11.09,3.59,1.00,-1.00,-11.00,0,,,100,93,19,2,0,0,1,1,0,,,,,0.0,0.0,0.0,0.0,0.0,0.0,0
-22.959747,-67.786918,19.00,0.00,1.00,0.37,19.00,19.00,3.51,0.53,8868,2025-12-01 16:26:03.802,2025-12-01 13:26:03.803,17,0,0,46.013,-22.959750,-67.786919,0.10,0.00,-1.00,0.90,1.90,95.00,0,1,0,98,88,-59987,13863,46013,2931.50,50,WP,1,0,0,0,0,0,0,1764606363802,3952,3957,3946,3965,3965,3921,18,,,,,,,0,0,0,-9.00,19.00,950.00,0.00,3.00,-12.00,14,190.00,10.05,3.69,1.00,0.00,-10.00,0,,,100,93,19,2,0,0,1,1,0,,,,,0.0,0.0,0.0,0.0,0.0,0.0,0
-22.959747,-67.786919,19.10,0.00,1.00,0.38,19.10,19.10,3.51,0.53,8965,2025-12-01 16:26:03.900,2025-12-01 13:26:03.900,17,0,0,46.013,-22.959750,-67.786919,0.10,0.00,-1.00,1.00,2.00,95.00,0,1,0,98,88,-59987,13863,46013,2931.50,50,WP,1,0,0,0,0,0,0,1764606363899,3952,3957,3946,3965,3965,3921,18,,,,,,,0,0,0,-10.00,20.00,950.00,0.00,3.00,-12.00,14,191.00,10.05,3.76,1.00,0.00,-10.00,0,,,100,93,19,2,0,0,1,1,0,,,,,0.0,0.0,0.0,0.0,0.0,0.0,0
-22.959747,-67.786919,19.20,0.00,1.00,0.38,19.20,19.20,3.51,0.53,9075,2025-12-01 16:26:04.010,2025-12-01 13:26:04.010,17,0,0,46.013,-22.959750,-67.786919,0.10,0.00,-1.00,1.20,2.00,95.00,0,1,0,98,88,-59987,13863,46013,2931.50,50,WP,1,0,0,0,0,0,0,1764606364009,3952,3957,3946,3965,3965,3921,18,,,,,,,0,0,0,-12.00,20.00,950.00,0.00,3.00,-12.00,14,192.00,10.05,3.80,1.00,0.00,-10.00,0,,,100,93,19,2,0,0,1,1,0,,,,,0.0,0.0,0.0,0.0,0.0,0.0,0
-22.959747,-67.786919,19.30,0.00,0.90,0.39,19.30,19.30,3.51,0.53,9178,2025-12-01 16:26:04.113,2025-12-01 13:26:04.113,17,0,0,46.013,-22.959750,-67.786919,0.00,0.00,-0.90,1.40,1.90,96.80,0,1,0,98,88,-59987,13863,46013,2931.50,50,WP,1,0,0,0,0,0,0,1764606364112,3952,3957,3946,3965,3965,3921,18,,,,,,,0,0,0,-14.00,19.00,968.00,0.00,3.00,-12.00,14,193.00,9.00,3.86,0.00,0.00,-9.00,0,,,100,93,19,2,0,0,1,1,0,,,,,0.0,0.0,0.0,0.0,0.0,0.0,0
-22.959747,-67.786918,19.40,0.00,0.40,0.39,19.40,19.40,3.51,0.53,9376,2025-12-01 16:26:04.311,2025-12-01 13:26:04.311,17,0,0,46.165,-22.959750,-67.786919,0.00,0.00,-0.40,2.30,2.00,110.10,0,1,0,97,88,-55640,13766,46165,2931.50,50,WP,1,0,0,0,0,0,0,1764606364310,3952,3957,3946,3965,3965,3921,18,,,,,,,0,0,0,-23.00,20.00,1101.00,0.00,3.00,-17.00,14,194.00,4.00,3.89,0.00,0.00,-4.00,0,,,100,92,19,2,0,0,1,1,0,,,,,0.0,0.0,0.0,0.0,0.0,0.0,0
-22.959747,-67.786918,19.50,0.00,0.20,0.38,19.50,19.50,3.51,0.53,9478,2025-12-01 16:26:04.413,2025-12-01 13:26:04.413,17,0,0,46.165,-22.959750,-67.786919,0.00,0.00,-0.20,2.80,2.20,119.50,0,1,0,97,88,-55640,13766,46165,2931.50,50,WP,1,0,0,0,0,0,0,1764606364412,3952,3957,3946,3965,3965,3921,18,,,,,,,0,0,0,-28.00,22.00,1195.00,1.00,3.00,-124.00,14,195.00,2.00,3.78,0.00,0.00,-2.00,0,,,100,92,19,2,0,0,1,1,0,,,,,0.0,0.0,0.0,0.0,0.0,0.0,0
-22.959747,-67.786918,19.50,0.00,0.00,0.37,19.50,19.50,3.51,0.53,9569,2025-12-01 16:26:04.503,2025-12-01 13:26:04.503,17,0,0,46.165,-22.959750,-67.786919,0.00,0.00,0.00,3.30,1.70,128.80,0,1,0,97,88,-55640,13766,46165,2931.50,50,WP,1,0,0,0,0,0,0,1764606364503,3952,3957,3946,3965,3965,3921,18,,,,,,,0,0,0,-33.00,17.00,1288.00,0.00,3.00,-211.00,14,195.00,0.00,3.68,0.00,0.00,0.00,0,,,100,92,19,2,0,0,1,1,0,,,,,0.0,0.0,0.0,0.0,0.0,0.0,0
-22.959747,-67.786918,19.50,0.00,0.00,0.35,19.50,19.50,3.51,0.53,9678,2025-12-01 16:26:04.613,2025-12-01 13:26:04.613,17,0,0,46.165,-22.959750,-67.786919,0.00,0.00,0.00,3.50,1.20,138.20,0,1,0,97,88,-55640,13766,46165,2931.50,50,WP,1,0,0,0,0,0,0,1764606364612,3952,3957,3946,3965,3965,3921,18,,,,,,,0,0,0,-35.00,12.00,1382.00,0.00,4.00,-289.00,14,195.00,0.00,3.47,0.00,0.00,0.00,0,,,100,92,19,2,0,0,1,1,0,,,,,0.0,0.0,0.0,0.0,0.0,0.0,0
-22.959747,-67.786919,19.40,0.00,0.10,0.34,19.50,19.50,3.51,0.53,9772,2025-12-01 16:26:04.706,2025-12-01 13:26:04.706,17,0,0,46.165,-22.959750,-67.786919,0.00,0.00,0.10,3.40,0.80,147.30,0,1,0,97,88,-55640,13766,46165,2931.50,50,WP,1,0,0,0,0,0,0,1764606364706,3952,3957,3946,3965,3965,3921,18,,,,,,,0,0,0,-34.00,8.00,1473.00,0.00,4.00,-360.00,14,194.00,1.00,3.38,0.00,0.00,1.00,0,,,100,92,19,2,0,0,1,1,0,,,,,0.0,0.0,0.0,0.0,0.0,0.0,0
-22.959747,-67.786919,19.40,0.00,0.14,0.33,19.50,19.50,3.51,0.53,9878,2025-12-01 16:26:04.813,2025-12-01 13:26:04.813,17,0,0,46.165,-22.959750,-67.786919,0.10,0.00,0.10,2.80,0.50,156.40,0,1,0,97,88,-55640,13766,46165,2931.50,50,WP,1,0,0,0,0,0,0,1764606364812,3952,3957,3946,3965,3965,3921,18,,,,,,,0,0,0,-28.00,5.00,1564.00,1.00,4.00,-409.00,14,194.00,1.41,3.31,1.00,0.00,1.00,0,,,100,98,19,2,0,0,1,1,0,,,,,0.0,0.0,0.0,0.0,0.0,0.0,0
-22.959747,-67.786919,19.40,0.00,0.14,0.34,19.50,19.50,3.51,0.53,9978,2025-12-01 16:26:04.913,2025-12-01 13:26:04.913,17,0,0,46.165,-22.959750,-67.786919,0.10,0.00,0.10,1.80,0.40,164.50,0,1,0,97,88,-55640,13766,46165,2931.50,50,WP,1,0,0,0,0,0,0,1764606364912,3952,3957,3946,3965,3965,3921,18,,,,,,,0,0,0,-18.00,4.00,1645.00,0.00,3.00,-432.00,14,194.00,1.41,3.37,1.00,0.00,1.00,0,,,100,98,19,2,0,0,1,1,0,,,,,0.0,0.0,0.0,0.0,0.0,0.0,0
-22.959747,-67.786919,19.40,0.00,0.14,0.35,19.50,19.50,3.51,0.53,10075,2025-12-01 16:26:05.010,2025-12-01 13:26:05.010,17,0,0,46.165,-22.959750,-67.786919,0.10,0.00,0.10,0.80,0.60,170.50,0,1,0,97,88,-55640,13766,46165,2931.50,50,WP,1,0,0,0,0,0,0,1764606365009,3952,3957,3946,3965,3965,3921,18,,,,,,,0,0,0,-8.00,6.00,1705.00,0.00,3.00,-478.00,14,194.00,1.41,3.49,1.00,0.00,1.00,0,,,100,98,19,2,0,0,1,1,0,,,,,0.0,0.0,0.0,0.0,0.0,0.0,0
-22.959747,-67.786919,19.40,0.00,0.10,0.39,19.50,19.50,3.51,0.53,10276,2025-12-01 16:26:05.211,2025-12-01 13:26:05.211,17,0,0,46.165,-22.959750,-67.786919,0.10,0.00,0.00,-0.20,1.80,177.00,0,1,0,97,88,-55640,13766,46165,2931.50,50,WP,1,0,0,0,0,0,0,1764606365210,3952,3957,3946,3965,3965,3921,18,,,,,,,0,0,0,2.00,18.00,1770.00,0.00,2.00,-484.00,14,194.00,1.00,3.92,1.00,0.00,0.00,0,,,100,98,19,2,0,0,1,1,0,,,,,0.0,0.0,0.0,0.0,0.0,0.0,0
-22.959746,-67.786918,19.40,0.00,0.22,0.42,19.50,19.50,3.51,0.53,10394,2025-12-01 16:26:05.329,2025-12-01 13:26:05.329,17,0,0,46.165,-22.959750,-67.786919,0.20,0.10,0.00,0.00,2.40,177.90,0,1,0,97,88,-55640,13766,46165,2931.50,50,WP,1,0,0,0,0,0,0,1764606365328,3952,3957,3946,3965,3965,3921,18,,,,,,,0,0,0,-0.00,24.00,1779.00,0.00,3.00,-428.00,14,194.00,2.24,4.18,2.00,1.00,0.00,0,,,100,97,19,2,0,0,1,1,0,,,,,0.0,0.0,0.0,0.0,0.0,0.0,0
-22.959746,-67.786918,19.40,0.00,0.14,0.45,19.50,19.50,3.51,0.53,10480,2025-12-01 16:26:05.415,2025-12-01 13:26:05.415,17,0,0,46.165,-22.959750,-67.786919,0.10,0.10,0.00,-0.80,2.70,178.20,0,1,0,97,88,-55640,13766,46165,2931.50,50,WP,1,0,0,0,0,0,0,1764606365414,3952,3957,3946,3965,3965,3921,18,,,,,,,0,0,0,8.00,27.00,1782.00,0.00,2.00,-381.00,14,194.00,1.41,4.52,1.00,1.00,0.00,0,,,100,97,19,2,0,0,1,1,0,,,,,0.0,0.0,0.0,0.0,0.0,0.0,0
-22.959746,-67.786918,19.40,0.00,0.14,0.48,19.50,19.50,3.51,0.53,10591,2025-12-01 16:26:05.526,2025-12-01 13:26:05.526,17,0,0,46.165,-22.959750,-67.786919,0.10,0.10,0.00,-2.90,2.90,178.30,0,1,0,97,88,-55640,13766,46165,2931.50,50,WP,1,0,0,0,0,0,0,1764606365525,3952,3957,3946,3965,3965,3921,18,,,,,,,0,0,0,29.00,29.00,1783.00,0.00,3.00,-333.00,14,194.00,1.41,4.83,1.00,1.00,0.00,0,,,100,97,19,2,0,0,1,1,0,,,,,0.0,0.0,0.0,0.0,0.0,0.0,0
-22.959746,-67.786918,19.40,0.00,0.10,0.51,19.50,19.50,3.51,0.53,10694,2025-12-01 16:26:05.628,2025-12-01 13:26:05.628,17,0,0,46.165,-22.959750,-67.786919,0.00,0.10,0.00,-6.00,3.10,178.20,0,1,0,97,88,-55640,13766,46165,2931.50,50,WP,1,0,0,0,0,0,0,1764606365628,3952,3957,3946,3965,3965,3921,18,,,,,,,0,0,0,60.00,31.00,1782.00,0.00,3.00,-292.00,14,194.00,1.00,5.12,0.00,1.00,0.00,0,,,100,97,19,2,0,0,1,1,0,,,,,0.0,0.0,0.0,0.0,0.0,0.0,0
-22.959746,-67.786917,19.40,0.00,0.10,0.53,19.50,19.50,3.51,0.53,10779,2025-12-01 16:26:05.714,2025-12-01 13:26:05.714,17,0,0,46.165,-22.959750,-67.786919,0.00,0.10,0.00,-9.20,3.20,178.00,0,1,0,97,88,-55640,13766,46165,2931.50,50,WP,1,0,0,0,0,0,0,1764606365713,3952,3957,3946,3965,3965,3921,18,,,,,,,0,0,0,92.00,32.00,1780.00,-1.00,3.00,-260.00,14,194.00,1.00,5.30,0.00,1.00,0.00,0,,,100,97,19,2,0,0,1,1,0,,,,,0.0,0.0,0.0,0.0,0.0,0.0,0
-22.959746,-67.786917,19.50,0.00,0.28,0.53,19.50,19.50,3.51,0.53,10885,2025-12-01 16:26:05.819,2025-12-01 13:26:05.819,17,0,0,46.165,-22.959750,-67.786919,-0.20,0.20,0.00,-11.80,3.30,177.80,0,1,0,97,88,-55640,13766,46165,2931.50,50,WP,1,0,0,0,0,0,0,1764606365819,3952,3957,3946,3965,3965,3921,18,,,,,,,0,0,0,118.00,33.00,1778.00,0.00,3.00,-236.00,14,195.00,2.83,5.27,-2.00,2.00,0.00,0,,,100,98,19,2,0,0,1,1,0,,,,,0.0,0.0,0.0,0.0,0.0,0.0,0
-22.959746,-67.786917,19.50,0.00,0.41,0.51,19.50,19.50,3.51,0.53,10985,2025-12-01 16:26:05.919,2025-12-01 13:26:05.919,17,0,0,46.165,-22.959750,-67.786919,-0.40,0.10,0.00,-13.70,3.60,177.60,0,1,0,97,88,-55640,13766,46165,2931.50,50,WP,1,0,0,0,0,0,0,1764606365919,3952,3957,3946,3965,3965,3921,18,,,,,,,0,0,0,137.00,36.00,1776.00,-1.00,3.00,-217.00,14,195.00,4.12,5.07,-4.00,1.00,0.00,0,,,100,98,19,2,0,0,1,1,0,,,,,0.0,0.0,0.0,0.0,0.0,0.0,0
-22.959747,-67.786917,19.50,0.00,0.61,0.46,19.50,19.50,3.51,0.53,11082,2025-12-01 16:26:06.016,2025-12-01 13:26:06.016,16,0,0,46.165,-22.959750,-67.786919,-0.60,0.10,0.00,-14.90,3.90,177.40,0,1,0,97,88,-55640,13766,46165,2931.50,50,WP,1,0,0,0,0,0,0,1764606366016,3952,3957,3946,3965,3965,3921,18,,,,,,,0,0,0,149.00,39.00,1774.00,-1.00,3.00,-201.00,14,195.00,6.08,4.58,-6.00,1.00,0.00,0,,,100,98,19,2,0,0,1,1,0,,,,,0.0,0.0,0.0,0.0,0.0,0.0,0
-22.959748,-67.786916,19.50,0.00,0.91,0.40,19.50,19.50,3.51,0.53,11184,2025-12-01 16:26:06.119,2025-12-01 13:26:06.119,16,0,0,46.165,-22.959750,-67.786919,-0.90,0.10,0.00,-15.30,4.20,177.40,0,1,0,97,88,-55640,13766,46165,2931.50,50,WP,1,0,0,0,0,0,0,1764606366118,3952,3957,3946,3965,3965,3921,18,,,,,,,0,0,0,153.00,42.00,1774.00,0.00,3.00,-189.00,14,195.00,9.06,4.03,-9.00,1.00,0.00,0,,,100,98,19,2,0,0,1,1,0,,,,,0.0,0.0,0.0,0.0,0.0,0.0,0
-22.959749,-67.786916,19.50,0.00,1.20,0.34,19.50,19.50,3.51,0.53,11294,2025-12-01 16:26:06.229,2025-12-01 13:26:06.229,16,0,0,46.250,-22.959750,-67.786919,-1.20,0.10,0.00,-15.20,4.60,177.40,0,1,0,97,88,-51238,13766,46250,2931.50,50,WP,1,0,0,0,0,0,0,1764606366228,3952,3957,3946,3965,3965,3921,18,,,,,,,0,0,0,152.00,46.00,1774.00,-1.00,3.00,-178.00,14,195.00,12.04,3.37,-12.00,1.00,0.00,0,,,100,98,19,2,0,0,1,1,0,,,,,0.0,0.0,0.0,0.0,0.0,0.0,0
-22.959750,-67.786916,19.50,0.00,1.40,0.33,19.50,19.50,3.51,0.53,11396,2025-12-01 16:26:06.331,2025-12-01 13:26:06.331,16,0,0,46.250,-22.959750,-67.786919,-1.40,0.10,0.00,-14.90,4.80,177.50,0,1,0,97,88,-51238,13766,46250,2931.50,50,WP,1,0,0,0,0,0,0,1764606366330,3952,3957,3946,3965,3965,3921,18,,,,,,,0,0,0,149.00,48.00,1775.00,0.00,3.00,-170.00,14,195.00,14.04,3.26,-14.00,1.00,0.00,0,,,100,98,19,2,0,0,1,1,0,,,,,0.0,0.0,0.0,0.0,0.0,0.0,0
-22.959752,-67.786916,19.50,0.00,1.70,0.40,19.50,19.50,3.51,0.53,11486,2025-12-01 16:26:06.421,2025-12-01 13:26:06.421,16,0,0,46.250,-22.959750,-67.786919,-1.70,0.10,0.00,-14.90,4.90,177.50,0,1,0,97,88,-51238,13766,46250,2931.50,50,WP,1,0,0,0,0,0,0,1764606366420,3952,3957,3946,3965,3965,3921,18,,,,,,,0,0,0,149.00,49.00,1775.00,0.00,3.00,-164.00,14,195.00,17.03,4.02,-17.00,1.00,0.00,0,,,100,98,19,2,0,0,1,1,0,,,,,0.0,0.0,0.0,0.0,0.0,0.0,0
-22.959754,-67.786916,19.50,0.00,1.90,0.56,19.50,19.50,3.51,0.56,11594,2025-12-01 16:26:06.528,2025-12-01 13:26:06.529,16,0,0,46.250,-22.959750,-67.786919,-1.90,0.00,0.00,-14.80,4.80,177.60,0,1,0,97,88,-51238,13766,46250,2931.50,50,WP,1,0,0,0,0,0,0,1764606366528,3952,3957,3946,3965,3965,3921,18,,,,,,,0,0,0,148.00,48.00,1776.00,-1.00,3.00,-158.00,14,195.00,19.00,5.59,-19.00,0.00,0.00,0,,,100,98,19,2,0,0,1,1,0,,,,,0.0,0.0,0.0,0.0,0.0,0.0,0
-22.959757,-67.786916,19.50,0.00,2.20,0.80,19.50,19.50,3.51,0.80,11695,2025-12-01 16:26:06.630,2025-12-01 13:26:06.630,16,0,0,46.250,-22.959750,-67.786919,-2.20,0.00,0.00,-14.90,4.80,177.70,0,1,0,97,88,-51238,13766,46250,2931.50,50,WP,1,0,0,0,0,0,0,1764606366629,3952,3957,3946,3965,3965,3921,18,,,,,,,0,0,0,149.00,48.00,1777.00,-1.00,3.00,-154.00,14,195.00,22.00,7.96,-22.00,0.00,0.00,0,,,100,98,19,2,0,0,1,1,0,,,,,0.0,0.0,0.0,0.0,0.0,0.0,0
-22.959759,-67.786916,19.50,0.00,2.40,1.06,19.50,19.50,3.51,1.06,11787,2025-12-01 16:26:06.721,2025-12-01 13:26:06.721,16,0,0,46.250,-22.959750,-67.786919,-2.40,0.00,0.00,-15.10,4.60,177.70,0,1,0,97,88,-51238,13766,46250,2931.50,50,WP,1,0,0,0,0,0,0,1764606366721,3952,3957,3946,3965,3965,3921,18,,,,,,,0,0,0,151.00,46.00,1777.00,0.00,3.00,-148.00,14,195.00,24.00,10.58,-24.00,0.00,0.00,0,,,100,98,19,2,0,0,1,1,0,,,,,0.0,0.0,0.0,0.0,0.0,0.0,0
-22.959762,-67.786916,19.50,0.00,2.70,1.38,19.50,19.50,3.51,1.38,11892,2025-12-01 16:26:06.826,2025-12-01 13:26:06.827,16,0,0,46.250,-22.959750,-67.786919,-2.70,0.00,0.00,-15.10,4.60,177.80,0,1,0,97,88,-51238,13766,46250,2931.50,50,WP,1,0,0,0,0,0,0,1764606366826,3952,3957,3946,3965,3965,3921,18,,,,,,,0,0,0,151.00,46.00,1778.00,-1.00,3.00,-144.00,14,195.00,27.00,13.77,-27.00,0.00,0.00,0,,,100,99,19,2,0,0,1,1,0,,,,,0.0,0.0,0.0,0.0,0.0,0.0,0
-22.959765,-67.786916,19.50,0.00,2.90,1.70,19.50,19.50,3.51,1.70,11995,2025-12-01 16:26:06.929,2025-12-01 13:26:06.929,16,0,0,46.250,-22.959750,-67.786919,-2.90,0.00,0.00,-14.80,4.30,177.90,0,1,0,97,88,-51238,13766,46250,2931.50,50,WP,1,0,0,0,0,0,0,1764606366929,3952,3957,3946,3965,3965,3921,18,,,,,,,0,0,0,148.00,43.00,1779.00,0.00,3.00,-140.00,14,195.00,29.00,17.05,-29.00,0.00,0.00,0,,,100,99,19,2,0,0,1,1,0,,,,,0.0,0.0,0.0,0.0,0.0,0.0,0
-22.959769,-67.786916,19.50,0.00,3.20,2.08,19.50,19.50,3.51,2.08,12093,2025-12-01 16:26:07.028,2025-12-01 13:26:07.028,16,0,0,46.250,-22.959750,-67.786919,-3.20,0.00,0.00,-14.50,4.10,178.00,0,1,0,97,88,-51238,13766,46250,2931.50,50,WP,1,0,0,0,0,0,0,1764606367027,3952,3957,3946,3965,3965,3921,18,,,,,,,0,0,0,145.00,41.00,1780.00,0.00,3.00,-140.00,14,195.00,32.00,20.82,-32.00,0.00,0.00,0,,,100,99,19,2,0,0,1,1,0,,,,,0.0,0.0,0.0,0.0,0.0,0.0,0
-22.959772,-67.786916,19.50,0.00,3.40,2.46,19.50,19.50,3.51,2.46,12192,2025-12-01 16:26:07.127,2025-12-01 13:26:07.127,16,0,0,46.250,-22.959750,-67.786919,-3.40,0.00,0.00,-14.50,4.00,178.10,0,1,0,97,88,-51238,13766,46250,2931.50,50,WP,1,0,0,0,0,0,0,1764606367126,3952,3957,3946,3965,3965,3921,18,,,,,,,0,0,0,145.00,40.00,1781.00,0.00,3.00,-135.00,14,195.00,34.00,24.63,-34.00,0.00,0.00,0,,,100,99,19,2,0,0,1,1,0,,,,,0.0,0.0,0.0,0.0,0.0,0.0,0
-22.959776,-67.786916,19.50,0.00,3.70,2.88,19.50,19.50,3.70,2.88,12290,2025-12-01 16:26:07.224,2025-12-01 13:26:07.224,16,0,0,46.250,-22.959750,-67.786919,-3.70,-0.10,0.00,-14.70,3.90,178.10,0,1,0,97,88,-51238,13766,46250,2931.50,50,WP,1,0,0,0,0,0,0,1764606367224,3952,3957,3946,3965,3965,3921,18,,,,,,,0,0,0,147.00,39.00,1781.00,0.00,3.00,-131.00,14,195.00,37.01,28.83,-37.00,-1.00,0.00,0,,,100,99,19,2,0,0,1,1,0,,,,,0.0,0.0,0.0,0.0,0.0,0.0,0
-22.959780,-67.786916,19.50,0.00,3.90,3.31,19.50,19.50,3.90,3.31,12394,2025-12-01 16:26:07.329,2025-12-01 13:26:07.329,16,0,0,46.250,-22.959750,-67.786919,-3.90,-0.10,0.00,-14.80,3.90,178.10,0,1,0,97,88,-51238,13766,46250,2931.50,50,WP,1,0,0,0,0,0,0,1764606367328,3952,3957,3946,3965,3965,3921,18,,,,,,,0,0,0,148.00,39.00,1781.00,0.00,3.00,-128.00,14,195.00,39.01,33.09,-39.00,-1.00,0.00,0,,,100,100,19,2,0,0,1,1,0,,,,,0.0,0.0,0.0,0.0,0.0,0.0,0
-22.959784,-67.786917,19.50,0.00,4.10,3.78,19.50,19.50,4.10,3.78,12495,2025-12-01 16:26:07.429,2025-12-01 13:26:07.429,16,0,0,46.250,-22.959750,-67.786919,-4.10,-0.10,0.00,-14.80,3.90,178.10,0,1,0,97,88,-51238,13766,46250,2931.50,50,WP,1,0,0,0,0,0,0,1764606367429,3952,3957,3946,3965,3965,3921,18,,,,,,,0,0,0,148.00,39.00,1781.00,0.00,3.00,-125.00,14,195.00,41.01,37.84,-41.00,-1.00,0.00,0,,,100,100,19,2,0,0,1,1,0,,,,,0.0,0.0,0.0,0.0,0.0,0.0,0
-22.959793,-67.786917,19.50,0.00,4.60,4.79,19.50,19.50,4.60,4.79,12695,2025-12-01 16:26:07.629,2025-12-01 13:26:07.629,16,0,0,46.250,-22.959750,-67.786919,-4.60,-0.10,0.00,-14.80,3.90,178.20,0,1,0,97,88,-51238,13766,46250,2931.50,50,WP,1,0,0,0,0,0,0,1764606367629,3952,3957,3946,3965,3965,3921,18,,,,,,,0,0,0,148.00,39.00,1782.00,0.00,3.00,-120.00,14,195.00,46.01,47.87,-46.00,-1.00,0.00,0,,,100,100,19,2,0,0,1,1,0,,,,,0.0,0.0,0.0,0.0,0.0,0.0,0
-22.959798,-67.786917,19.50,0.00,4.80,5.31,19.50,19.50,4.80,5.31,12796,2025-12-01 16:26:07.730,2025-12-01 13:26:07.730,16,0,0,46.250,-22.959750,-67.786919,-4.80,-0.10,0.00,-14.50,3.90,178.20,0,1,0,97,88,-51238,13766,46250,2931.50,50,WP,1,0,0,0,0,0,0,1764606367730,3952,3957,3946,3965,3965,3921,18,,,,,,,0,0,0,145.00,39.00,1782.00,0.00,3.00,-118.00,14,195.00,48.01,53.11,-48.00,-1.00,0.00,0,,,100,100,19,2,0,0,1,1,0,,,,,0.0,0.0,0.0,0.0,0.0,0.0,0
-22.959803,-67.786917,19.50,0.00,5.10,5.88,19.50,19.50,5.10,5.88,12900,2025-12-01 16:26:07.834,2025-12-01 13:26:07.834,16,0,0,46.250,-22.959750,-67.786919,-5.10,-0.10,0.00,-14.60,3.90,178.20,0,1,0,97,88,-51238,13766,46250,2931.50,50,WP,1,0,0,0,0,0,0,1764606367834,3952,3957,3946,3965,3965,3921,18,,,,,,,0,0,0,146.00,39.00,1782.00,0.00,3.00,-118.00,14,195.00,51.01,58.78,-51.00,-1.00,0.00,0,,,100,97,19,2,0,0,1,1,0,,,,,0.0,0.0,0.0,0.0,0.0,0.0,0
-22.959808,-67.786918,19.50,0.00,5.30,6.45,19.50,19.50,5.30,6.45,12999,2025-12-01 16:26:07.934,2025-12-01 13:26:07.934,16,0,0,46.250,-22.959750,-67.786919,-5.30,-0.20,0.00,-14.50,3.90,178.20,0,1,0,97,88,-51238,13766,46250,2931.50,50,WP,1,0,0,0,0,0,0,1764606367933,3952,3957,3946,3965,3965,3921,18,,,,,,,0,0,0,145.00,39.00,1782.00,2.00,3.00,-114.00,14,195.00,53.04,64.51,-53.00,-2.00,0.00,0,,,100,97,19,2,0,0,1,1,0,,,,,0.0,0.0,0.0,0.0,0.0,0.0,0
-22.959814,-67.786918,19.50,0.00,5.60,7.07,19.50,19.50,5.60,7.07,13097,2025-12-01 16:26:08.031,2025-12-01 13:26:08.031,16,0,0,46.250,-22.959750,-67.786919,-5.60,-0.20,0.00,-14.70,3.60,178.20,0,1,0,97,88,-51238,13766,46250,2931.50,50,WP,1,0,0,0,0,0,0,1764606368031,3952,3957,3946,3965,3965,3921,18,,,,,,,0,0,0,147.00,36.00,1782.00,2.00,3.00,-111.00,14,195.00,56.04,70.71,-56.00,-2.00,0.00,0,,,100,97,19,2,0,0,1,1,0,,,,,0.0,0.0,0.0,0.0,0.0,0.0,0
-22.959820,-67.786918,19.50,0.00,5.80,7.69,19.50,19.50,5.80,7.69,13199,2025-12-01 16:26:08.133,2025-12-01 13:26:08.133,16,0,0,46.250,-22.959750,-67.786919,-5.80,-0.20,0.00,-14.90,3.30,178.10,0,1,0,97,88,-51238,13766,46250,2931.50,50,WP,1,0,0,0,0,0,0,1764606368133,3952,3957,3946,3965,3965,3921,18,,,,,,,0,0,0,149.00,33.00,1781.00,2.00,3.00,-109.00,14,195.00,58.03,76.94,-58.00,-2.00,0.00,0,,,100,97,19,2,0,0,1,1,0,,,,,0.0,0.0,0.0,0.0,0.0,0.0,0
-22.959826,-67.786918,19.50,0.00,6.00,8.36,19.50,19.50,6.00,8.36,13302,2025-12-01 16:26:08.237,2025-12-01 13:26:08.237,16,0,0,45.762,-22.959750,-67.786919,-6.00,-0.20,0.00,-15.10,2.50,178.10,0,1,0,97,88,-61125,13722,45762,2931.50,50,WP,1,0,0,0,0,0,0,1764606368236,3952,3957,3946,3965,3965,3921,18,,,,,,,0,0,0,151.00,25.00,1781.00,2.00,3.00,-107.00,14,195.00,60.03,83.63,-60.00,-2.00,0.00,0,,,100,97,19,2,0,0,1,1,0,,,,,0.0,0.0,0.0,0.0,0.0,0.0,0
-22.959832,-67.786919,19.50,0.00,6.30,9.03,19.50,19.50,6.30,9.03,13408,2025-12-01 16:26:08.342,2025-12-01 13:26:08.342,16,0,0,45.762,-22.959750,-67.786919,-6.30,-0.20,0.00,-15.10,2.00,178.20,0,1,0,97,88,-61125,13722,45762,2931.50,50,WP,1,0,0,0,0,0,0,1764606368342,3952,3957,3946,3965,3965,3921,18,,,,,,,0,0,0,151.00,20.00,1782.00,2.00,3.00,-105.00,14,195.00,63.03,90.31,-63.00,-2.00,0.00,0,,,100,97,19,2,0,0,1,1,0,,,,,0.0,0.0,0.0,0.0,0.0,0.0,0
-22.959838,-67.786919,19.50,0.00,6.50,9.74,19.50,19.50,6.50,9.74,13509,2025-12-01 16:26:08.444,2025-12-01 13:26:08.444,16,0,0,45.762,-22.959750,-67.786919,-6.50,-0.20,0.00,-15.10,1.70,178.10,0,1,0,97,88,-61125,13722,45762,2931.50,50,WP,1,0,0,0,0,0,0,1764606368443,3952,3957,3946,3965,3965,3921,18,,,,,,,0,0,0,151.00,17.00,1781.00,3.00,3.00,-104.00,14,195.00,65.03,97.44,-65.00,-2.00,0.00,0,,,100,97,19,2,0,0,1,1,0,,,,,0.0,0.0,0.0,0.0,0.0,0.0,0
-22.959845,-67.786919,19.50,0.00,6.70,10.45,19.50,19.50,6.70,10.45,13610,2025-12-01 16:26:08.544,2025-12-01 13:26:08.544,16,0,0,45.762,-22.959750,-67.786919,-6.70,-0.20,0.00,-15.40,1.60,178.10,0,1,0,97,88,-61125,13722,45762,2931.50,50,WP,1,0,0,0,0,0,0,1764606368544,3952,3957,3946,3965,3965,3921,18,,,,,,,0,0,0,154.00,16.00,1781.00,4.00,3.00,-102.00,14,195.00,67.03,104.52,-67.00,-2.00,0.00,0,,,100,97,19,2,0,0,1,1,0,,,,,0.0,0.0,0.0,0.0,0.0,0.0,0
-22.959851,-67.786919,19.50,0.00,6.90,11.21,19.50,19.50,6.90,11.21,13703,2025-12-01 16:26:08.637,2025-12-01 13:26:08.637,16,0,0,45.762,-22.959750,-67.786919,-6.90,-0.10,0.00,-15.60,1.40,178.20,0,1,0,97,88,-61125,13722,45762,2931.50,50,WP,1,0,0,0,0,0,0,1764606368637,3952,3957,3946,3965,3965,3921,18,,,,,,,0,0,0,156.00,14.00,1782.00,4.00,3.00,-102.00,14,195.00,69.01,112.09,-69.00,-1.00,0.00,0,,,100,97,19,2,0,0,1,1,0,,,,,0.0,0.0,0.0,0.0,0.0,0.0,0
-22.959858,-67.786919,19.50,0.00,7.10,11.96,19.50,19.50,7.10,11.96,13826,2025-12-01 16:26:08.761,2025-12-01 13:26:08.761,16,0,0,45.762,-22.959750,-67.786919,-7.10,-0.10,0.00,-15.40,1.30,178.20,0,1,0,97,88,-61125,13722,45762,2931.50,50,WP,1,0,0,0,0,0,0,1764606368760,3952,3957,3946,3965,3965,3921,18,,,,,,,0,0,0,154.00,13.00,1782.00,4.00,3.00,-99.00,14,195.00,71.01,119.65,-71.00,-1.00,0.00,0,,,100,97,19,2,0,0,1,1,0,,,,,0.0,0.0,0.0,0.0,0.0,0.0,0
-22.959866,-67.786920,19.50,0.00,7.30,12.78,19.50,19.50,7.30,12.78,13902,2025-12-01 16:26:08.836,2025-12-01 13:26:08.836,16,0,0,45.762,-22.959750,-67.786919,-7.30,0.00,0.00,-15.00,1.80,178.20,0,1,0,97,88,-61125,13722,45762,2931.50,50,WP,1,0,0,0,0,0,0,1764606368836,3952,3957,3946,3965,3965,3921,18,,,,,,,0,0,0,150.00,18.00,1782.00,6.00,3.00,-97.00,14,195.00,73.00,127.82,-73.00,0.00,0.00,0,,,100,97,19,2,0,0,1,1,0,,,,,0.0,0.0,0.0,0.0,0.0,0.0,0
